[{"Name": "Nav Nidhi", "Rating": "-", "location": " Near Sheesganj Gurudwara, Chandni Chowk, New Delhi", "Cuisines: ": "North Indian, South Indian", "hours": "9am\u201310:30pm(Mon-Sun)", "Cost for two": "\u20b9300"}, {"Name": "Jai Shri Bala Jee Corner", "Rating": "-", "location": " Near Fabbara Chowk, Chandni Chowk, New Delhi", "Cuisines: ": "Street Food", "hours": "9am\u201310pm(Mon-Sun)", "Cost for two": "\u20b9150"}, {"Name": "Dosa Corner Hydrabadi Biryani", "Rating": "-", "location": " 14A/91, Gurunanak Market, Karol Bagh, New Delhi", "Cuisines: ": "South Indian, North Indian", "hours": "10am\u201310pm(Mon-Sun)", "Cost for two": "\u20b9200"}, {"Name": "Standard Restaurant", "Rating": "-", "location": " 2047, H C Sen Marg, Chandni Chowk, New Delhi", "Cuisines: ": "North Indian", "hours": "8:30am\u201311pm(Mon-Sun)", "Cost for two": "\u20b9300"}, {"Name": "Guru Kirpa", "Rating": "3.3", "location": " T 2364, Faiz Road, Karol Bagh, New Delhi", "Cuisines: ": "North Indian", "hours": "11am\u201311pm(Mon-Sun)", "Cost for two": "\u20b9550", "votes": "335"}, {"Name": "Narula Sweets", "Rating": "2.9", "location": " 3608, Ram Bazaar, Kashmiri Gate, New Delhi", "Cuisines: ": "North Indian, Street Food, Mithai", "hours": "8am\u201310pm(Mon-Sun)", "Cost for two": "\u20b9300", "votes": "8"}, {"Name": "Jai Badri Jai Kedar", "Rating": "-", "location": " 81, Gurudwara Road, West Extension Area, Karol Bagh, New Delhi", "Cuisines: ": "Chinese, Fast Food", "hours": "9am\u20139pm(Mon-Sun)", "Cost for two": "\u20b9250", "votes": "8"}, {"Name": "Maame Di Hatti", "Rating": "3.3", "location": " Shop 40/4931, Vishnu Mandir Marg, Ramjas Road, Karol Bagh, New Delhi", "Cuisines: ": "North Indian", "hours": "10am\u20137:30pm(Mon-Sun)", "Cost for two": "\u20b9250", "votes": "9"}, {"Name": "Rahul Momos Point", "Rating": "3.6", "location": " Shop 7, Ajmal Khan Road, Near Metro Station, Karol Bagh, New Delhi", "Cuisines: ": "Fast Food", "hours": "11am\u20139:30pm(Mon-Sun)", "Cost for two": "\u20b9200", "votes": "34"}, {"Name": "MK Alchur", "Rating": "-", "location": " 4340/4, Ansari Road, Daryaganj, New Delhi", "Cuisines: ": "Fast Food", "hours": "10am\u20135pm(Mon-Sun)", "Cost for two": "\u20b9250", "votes": "34"}, {"Name": "Chocoblush", "Rating": "3.6", "location": " Delivery Only", "Cuisines: ": "Bakery", "hours": "9am\u20139pm(Mon-Sun)", "Cost for two": "\u20b9500", "votes": "58"}, {"Name": "New Anand Bakery", "Rating": "-", "location": " 84A, BB Gupta Market, Karol Bagh, New Delhi", "Cuisines: ": "Bakery, Desserts", "hours": "8:30am\u201310:30pm(Mon-Sun)", "Cost for two": "\u20b9300", "votes": "58"}, {"Name": "Sahni Shudh Vaishno Dhaba", "Rating": "-", "location": " 3853, Ram Bazaar, Kashmiri Gate, New Delhi", "Cuisines: ": "North Indian", "hours": "10:30am\u201311pm(Mon-Sun)", "Cost for two": "\u20b9200", "votes": "58"}, {"Name": "Shiv Kachori Bhandar", "Rating": "-", "location": " 2080, H.C. Sen Marg, Chandni Chowk, New Delhi", "Cuisines: ": "Street Food", "hours": "9am\u201310:30pm(Mon-Sun)", "Cost for two": "\u20b9100", "votes": "58"}, {"Name": "Aamir Biryani Corner", "Rating": "-", "location": " Opposite Videocon Tower, Jhande Walan Extension, Karol Bagh, New Delhi, Delhi NCR", "Cuisines: ": "Biryani, North Indian", "hours": "11am\u20138pm(Mon-Sun)", "Cost for two": "\u20b9250", "votes": "58"}]