[{"Name": "Home Made Food", "Rating": "NEW", "location": " B-4, 256-257, Ground Floor, Sector 8, Rohini, New Delhi", "Cuisines: ": "North Indian", "hours": "8pm\u20132am(Mon-Sun)", "Cost for two": "\u20b9300"}, {"Name": "Fitness Diet", "Rating": "3.1", "location": " Shop 1, Meerut Road, Garhi, Opposite RKGIT College Gate 2, Raj Nagar, Ghaziabad", "Cuisines: ": "Healthy Food, Beverages", "hours": "10am\u201310pm(Mon-Sun)", "Cost for two": "\u20b9350", "votes": "4"}, {"Name": "PIP- Plants In Plate", "Rating": "3.7", "location": " Plot 184, Udyog Vihar, Gurgaon", "Cuisines: ": "Salad, American, Fast Food, Beverages", "hours": "10am\u201311pm(Mon-Sun)", "Cost for two": "\u20b9450", "votes": "34"}, {"Name": "Kesar Da Dhaba", "Rating": "-", "location": " Site 1/ 617, Vikaspuri, New Delhi", "Cuisines: ": "North Indian", "hours": "11am\u201311pm(Mon-Sun)", "Cost for two": "\u20b9300", "votes": "34"}, {"Name": "Hakka Treat", "Rating": "3.6", "location": " Shop 17, Huda Market 2, Sector 19, Faridabad", "Cuisines: ": "Chinese, Fast Food", "hours": "12noon\u201310:30pm(Mon,Wed,Thu,Fri,Sat,Sun)...", "Cost for two": "\u20b9350", "votes": "156"}, {"Name": "Rao Dhaba", "Rating": "3.1", "location": " Shahid Hukam Chand, Chowk Vatika Circle 2, Sector 83, Gurgaon", "Cuisines: ": "North Indian, Chinese", "hours": "7am\u201312midnight(Mon-Sun)", "Cost for two": "\u20b9300", "votes": "16"}, {"Name": "The Treat", "Rating": "2.1", "location": " Behind Jesus & Mary College, Rizal Marg, Chanakyapuri, New Delhi", "Cuisines: ": "North Indian, Mughlai, Chinese", "hours": "12:30pm\u20131am(Mon-Sun)", "Cost for two": "\u20b9600", "votes": "256"}, {"Name": "Mayur Dawat", "Rating": "3.6", "location": " Shop 10 & 11, DDA Market, Mayur Vihar Phase 3, New Delhi", "Cuisines: ": "North Indian, Mughlai, Chinese", "hours": "11am\u20134pm,6pm\u201311pm(Mon-Sun)", "Cost for two": "\u20b9650", "votes": "236"}, {"Name": "Chiclicious", "Rating": "3.7", "location": " House 468, Housing Board Colony, Sector 21 D, Near Sector 21, Faridabad", "Cuisines: ": "North Indian", "hours": "12noon\u201310pm(Mon,Wed,Thu,Fri,Sat,Sun)...", "Cost for two": "\u20b9500", "votes": "55"}, {"Name": "China Town", "Rating": "2.9", "location": " SD 140, Jaipuria Sunrise Plaza, Indirapuram, Ghaziabad", "Cuisines: ": "Chinese", "hours": "10am\u201311pm(Mon-Sun)", "Cost for two": "\u20b9250", "votes": "103"}, {"Name": "Delicieux", "Rating": "3.8", "location": " C 2, 16, Janakpuri, New Delhi", "Cuisines: ": "Fast Food, Bakery, Chinese", "hours": "9am\u201311:30pm(Mon-Sun)", "Cost for two": "\u20b9500", "votes": "296"}, {"Name": "Samosa Hub", "Rating": "3.5", "location": " SC-67, Plot 102 A, Lower Ground Floor, Indirapuram, Ghaziabad", "Cuisines: ": "Street Food", "hours": "1pm\u201310pm(Mon-Sun)", "Cost for two": "\u20b9100", "votes": "46"}, {"Name": "Aayana Foods", "Rating": "3.7", "location": " 115, Nehar Bazar, Maujpur, Shahdara, New Delhi", "Cuisines: ": "North Indian, Mughlai, Fast Food", "hours": "12noon\u201311pm(Mon-Sun)", "Cost for two": "\u20b9450", "votes": "254"}, {"Name": "Prem Chinese Food", "Rating": "4.1", "location": " G 3/85, Pocket-10, Sector 15, Rohini, New Delhi", "Cuisines: ": "Chinese", "hours": "11am\u201311pm(Mon-Sun)", "Cost for two": "\u20b9400", "votes": "130"}, {"Name": "Jai Ambey Di Chaap", "Rating": "3.6", "location": " 7/2, Near Kukreja Hospital, Shashi Garden, Mayur Vihar Phase 1, New Delhi", "Cuisines: ": "North Indian", "hours": "5pm\u201311pm(Mon-Sun)", "Cost for two": "\u20b9300", "votes": "128"}]