[{"Name": "Nitin Da Dhaba", "Rating": "3.7", "votes": "66", "location": " 480, Gound Floor, New Garniya Mohala, Chirag, Sheikh Sarai, New Delhi", "Cuisines: ": "North Indian, Chinese", "hours": "11:30am\u201312:30am(Mon-Sun)", "Cost for two": "\u20b9250"}, {"Name": "The Tandoor", "Rating": "3.5", "votes": "115", "location": " 58, DDA Complex, J Block, Rajouri Garden, New Delhi", "Cuisines: ": "North Indian, Chinese, Mughlai, Rolls, Beverages", "hours": "11:30am\u201311:30pm(Mon-Sun)", "Cost for two": "\u20b9750"}, {"Name": "The Kathi Rolls", "Rating": "3.9", "votes": "242", "location": " Shop 150, HUDA Market, Sector 31, Gurgaon", "Cuisines: ": "Rolls, Fast Food", "hours": "11am\u201311pm(Mon-Sun)", "Cost for two": "\u20b9400"}, {"Name": "Pizza Buzzer", "Rating": "NEW", "votes": "242", "location": " A-54/7, Ali Village Extension, Badarpur Border, Faridabad", "Cuisines: ": "Pizza, Fast Food", "hours": "11am\u201312midnight(Mon-Sun)", "Cost for two": "\u20b9400"}, {"Name": "The Spicy Kitchen", "Rating": "3.2", "votes": "8", "location": " Near Town Square, Sector 83, Gurgaon", "Cuisines: ": "North Indian, Chinese", "hours": "7am\u201312midnight(Mon-Sun)", "Cost for two": "\u20b9400"}, {"Name": "Arora Ji Sweets And Restaurant", "Rating": "3.5", "votes": "91", "location": " Johri Enclave Metro Station Gate 1, Shahdara-Loni Road, Opposite Metro Piller 29, Johripur, Near Loni, Ghaziabad", "Cuisines: ": "South Indian, North Indian, Chinese", "hours": "11am\u201311pm(Mon-Sun)", "Cost for two": "\u20b9300"}, {"Name": "My Cheff", "Rating": "3.7", "votes": "118", "location": " G 79, West Patel Nagar, New Delhi", "Cuisines: ": "North Indian", "hours": "1pm\u20134pm,7pm\u20132:30am(Mon-Sun)", "Cost for two": "\u20b9300"}, {"Name": "Ashish Punjabi Rasoi", "Rating": "3.4", "votes": "16", "location": " Khasra 14/1, 15, Sector 18, Udyog Vihar, Gurgaon", "Cuisines: ": "Chinese, North Indian", "hours": "8am\u20138pm(Mon-Sat),Closed(Sun)", "Cost for two": "\u20b9400"}, {"Name": "Apna Tiffin Service", "Rating": "3.4", "votes": "26", "location": " VPO Wazirabad, Mata Chowk, Sector 52, South City 2, Gurgaon", "Cuisines: ": "North Indian, Chinese, Mughlai, Healthy Food", "hours": "11am\u201311pm(Mon-Sun)", "Cost for two": "\u20b9550"}, {"Name": "The Scottish Barn", "Rating": "-", "votes": "26", "location": " 1580, Ground Floor, KD Marg, Mehrauli, New Delhi", "Cuisines: ": "North Indian, Chinese, Continental, European, Beverages", "hours": "12noon\u20131am(Mon-Sun)", "Cost for two": "\u20b92,400"}, {"Name": "Station Amritsar", "Rating": "3.6", "votes": "44", "location": " 209/4, 1st Block, Post Office Block, Krishna Nagar, New Delhi", "Cuisines: ": "Fast Food, Rolls", "hours": "12noon\u20134am(Mon-Sun)", "Cost for two": "\u20b9200"}, {"Name": "Aggarwal Sweets", "Rating": "3.5", "votes": "38", "location": " Plot 2, Begumpur, Sector 22, Rohini, New Delhi", "Cuisines: ": "Mithai, Street Food", "hours": "10am\u201310pm(Mon-Sun)", "Cost for two": "\u20b9300"}, {"Name": "Shiv Shakti Restaurant", "Rating": "NEW", "votes": "38", "location": " Shiv Shakti Homez, Knowledge Park, Greater Noida", "Cuisines: ": "North Indian, Fast Food, Street Food, Beverages", "hours": "24Hours(Mon-Sun)", "Cost for two": "\u20b9150"}, {"Name": "Samosa Gali", "Rating": "NEW", "votes": "38", "location": " Plot 3, Khasra 107, Sector 142, Sector 135, Noida", "Cuisines: ": "Street Food", "hours": "11:30am\u201311:30pm(Mon-Sun)", "Cost for two": "\u20b9150"}, {"Name": "Noida Food Express Dot Com", "Rating": "NEW", "votes": "38", "location": " D-13A, Sector 58, Noida", "Cuisines: ": "North Indian, Chinese, Mughlai, Rolls, Fast Food, Street Food, Beverages", "hours": "11:30am\u201311pm(Mon-Sun)", "Cost for two": "\u20b9400"}]