[{"Name": "Hasty Tasty", "Rating": "3.6", "votes": "49", "location": " 701, Opposite Batra Cinema, Mukherjee Nagar, New Delhi", "Cuisines: ": "Chinese", "hours": "4pm\u201310:30pm(Mon-Sun)", "Cost for two": "\u20b9200"}, {"Name": "Biryani Adda", "Rating": "-", "votes": "49", "location": " Shop 890, D Block J, J Colony, Bawana, Narela, New Delhi", "Cuisines: ": "Biryani, Chinese", "hours": "9:30am\u20139:30pm(Mon-Sun)", "Cost for two": "\u20b9500"}, {"Name": "CG's Kitchen", "Rating": "3.8", "votes": "112", "location": " A-3, Vikas Tower, PVR Road, Vikaspuri, New Delhi", "Cuisines: ": "Momos, Chinese", "hours": "5:30pm\u201310:30pm(Mon-Sun)", "Cost for two": "\u20b9400"}, {"Name": "De Jaa Food", "Rating": "3.3", "votes": "10", "location": " Plot 117, Phase 6, Udyog Vihar, Sector 37, Gurgaon", "Cuisines: ": "North Indian", "hours": "10am\u201310pm(Mon-Sun)", "Cost for two": "\u20b9400"}, {"Name": "Moustache Coffee", "Rating": "3.8", "votes": "293", "location": " Shop G8, Manish Chamber LSC, Pocket B, Mayur Vihar Phase 2, New Delhi", "Cuisines: ": "Cafe, Continental, Italian", "hours": "12noon\u201312midnight(Mon-Sun)", "Cost for two": "\u20b9400"}, {"Name": "Hunger Beast", "Rating": "3.4", "votes": "16", "location": " RZ 2, Roshanpura, Nesr Punjab & Sindh Bank, Najafgarh, New Delhi", "Cuisines: ": "Healthy Food, Street Food", "hours": "10am\u201310pm(Mon-Sun)", "Cost for two": "\u20b9350"}, {"Name": "Southern Junction", "Rating": "2.7", "votes": "130", "location": " S 47, Baani square, Sector 50, Gurgaon", "Cuisines: ": "South Indian", "hours": "8am\u201311pm(Mon-Sun)", "Cost for two": "\u20b9200"}, {"Name": "Yash Bakers", "Rating": "2.9", "votes": "5", "location": " West Guru Angad Nagar, Gurudwara Road, Near Radhu Palace, Laxmi Nagar, New Delhi", "Cuisines: ": "Bakery, Fast Food", "hours": "9am\u201310:30pm(Mon-Sun)", "Cost for two": "\u20b9150"}, {"Name": "New Bombay Bar-Be-Que", "Rating": "3.6", "votes": "98", "location": " D/73, Opposite PVR Cinema, Central Market, Block D, Prashant Vihar, New Delhi", "Cuisines: ": "North Indian, Chinese, BBQ", "hours": "11:30am\u201310:30pm(Mon,Wed,Thu,Fri,Sat,Sun)...", "Cost for two": "\u20b9600"}, {"Name": "Tamara", "Rating": "2.6", "votes": "34", "location": " C-33, 3rd Floor, Sector 15, Vasundhara, Ghaziabad", "Cuisines: ": "Cafe", "hours": "11am\u201311pm(Mon-Sun)", "Cost for two": "\u20b91,000"}, {"Name": "Sanjay Ke Special Chole Bhature", "Rating": "3.2", "votes": "13", "location": " Near HB Twin Tower, Netaji Subhash Place, New Delhi", "Cuisines: ": "North Indian", "hours": "9am\u20135pm(Mon-Sun)", "Cost for two": "\u20b9150"}, {"Name": "All Time Pizza & Cafe", "Rating": "NEW", "votes": "13", "location": " D 37, Acharya Niketan, Near One Kukuja Hospital, Mayur Vihar Phase 1, New Delhi", "Cuisines: ": "Pizza, Fast Food, Sandwich, Chinese, Beverages", "hours": "9am\u201311pm(Mon-Sun)", "Cost for two": "\u20b9400"}, {"Name": "Pind Cafe And Lounge", "Rating": "4.0", "votes": "32", "location": " Mahagun Metro Mall, 12, Plot VC-3, 3rd Floor, Sector 3, Vaishali, Ghaziabad", "Cuisines: ": "North Indian, Chinese", "hours": "12noon\u201312midnight(Mon-Sun)", "Cost for two": "\u20b91,200"}, {"Name": "Delhi'cious", "Rating": "3.6", "votes": "182", "location": " G 42, Ground Floor, Vardhman Plaza, Vasundhara Enclave, New Delhi", "Cuisines: ": "North Indian, Chinese", "hours": "11am\u201311pm(Mon-Sun)", "Cost for two": "\u20b9600"}, {"Name": "Kathuria Dairy And Sweets", "Rating": "3.4", "votes": "42", "location": " A 1, Gharoli Dairy Farm, Mayur Vihar Phase 3, New Delhi", "Cuisines: ": "Mithai, Fast Food", "hours": "9am\u201310pm(Mon-Sun)", "Cost for two": "\u20b9350"}]