[{"Name": "Nocturnal Lyrical Air Bar", "Rating": "2.7", "votes": "11", "location": " N-1, Third Floor, South Extension 1, New Delhi", "Cuisines: ": "Continental", "hours": "12noon\u20131am(Mon-Sun)", "Cost for two": "\u20b91,800"}, {"Name": "Delhi Darbar", "Rating": "3.4", "votes": "17", "location": " 40, Pocket 1, Sector 20, Rohini, Delhi, Rohini, New Delhi", "Cuisines: ": "North Indian", "hours": "11am\u201312midnight(Mon-Sun)", "Cost for two": "\u20b9400"}, {"Name": "China Fast Food", "Rating": "3.6", "votes": "34", "location": " Best Sky Tower, Netaji Subhash Place, New Delhi", "Cuisines: ": "Chinese, Fast Food", "hours": "10:30am\u201310pm(Mon-Sun)", "Cost for two": "\u20b9300"}, {"Name": "The Cake Expert's", "Rating": "2.6", "votes": "188", "location": " 11, Block A-2, Sector 110, Noida", "Cuisines: ": "Bakery, Desserts, Fast Food", "hours": "10am\u201311pm(Mon-Sun)", "Cost for two": "\u20b9300"}, {"Name": "Pakkaa Desi", "Rating": "NEW", "votes": "188", "location": " S 90, Ground Floor, PVC Market, Jawalapuri, Paschim Vihar, New Delhi", "Cuisines: ": "Chinese, North Indian, Mughlai", "hours": "12:30pm\u201311pm(Mon-Sun)", "Cost for two": "\u20b9300"}, {"Name": "Vijay Dhabha", "Rating": "3.3", "votes": "15", "location": " Main Dadri Road, Sector-102, Opposite Salarpur Police Chowki, Sector 110, Noida", "Cuisines: ": "North Indian", "hours": "12noon\u20131am(Mon-Sun)", "Cost for two": "\u20b9250"}, {"Name": "Pizza Hub", "Rating": "NEW", "votes": "15", "location": " 48/6, Gali 11, Nai Basti Anand Parvat, Karol Bagh, New Delhi", "Cuisines: ": "Pizza", "hours": "11am\u201311pm(Mon-Sun)", "Cost for two": "\u20b9400"}, {"Name": "Rapti Chinese Food", "Rating": "3.5", "votes": "52", "location": " Shop 27, C/4, Gautam Nagar, Near Hauz Khas, New Delhi", "Cuisines: ": "Chinese", "hours": "11:30am\u201311pm(Mon-Sun)", "Cost for two": "\u20b9350"}, {"Name": "BBQ Malai Chaap", "Rating": "3.3", "votes": "7", "location": " B 17, 18, School Road, Opposite Post Office, Near Arya Samaj Road, Uttam Nagar, New Delhi", "Cuisines: ": "North Indian, Rolls, Momos", "hours": "4pm\u201311pm(Mon-Sun)", "Cost for two": "\u20b9300"}, {"Name": "Anupam Restaurant & Cafe", "Rating": "3.8", "votes": "640", "location": " 183/1, Shop 3 & 4, Main Link Road, Sector 28, Faridabad", "Cuisines: ": "North Indian, South Indian, Fast Food, Street Food, Chinese, Mithai", "hours": "10am\u201311pm(Mon-Sun)", "Cost for two": "\u20b9600"}, {"Name": "Babu Soup Wale ki Chicken Variety", "Rating": "3.4", "votes": "65", "location": " Near Flyover, Rohtak Road, Nangloi, New Delhi", "Cuisines: ": "North Indian", "hours": "12noon\u201310:30pm(Mon-Sun)", "Cost for two": "\u20b9300"}, {"Name": "Nutrio Bowl", "Rating": "4.0", "votes": "244", "location": " Shop 2, F-234, Vikaspuri, New Delhi", "Cuisines: ": "Healthy Food, Fast Food, Beverages", "hours": "8:30am\u201310:30pm(Mon-Sun)", "Cost for two": "\u20b9500"}, {"Name": "Gupta Tiffin", "Rating": "3.3", "votes": "8", "location": " House 17/1, Shivkala Mandir Gali, Near Punjabi Juti, Ram Nagar, Krishna Nagar, New Delhi", "Cuisines: ": "North Indian", "hours": "7:30am\u20133:30pm(Mon-Sun)", "Cost for two": "\u20b9350"}, {"Name": "Titu Chaat Corner", "Rating": "3.8", "votes": "252", "location": " Durgapuri Chowk, Loni Road, Shahdara, New Delhi", "Cuisines: ": "Street Food, Fast Food", "hours": "11am\u201310pm(Mon-Sun)", "Cost for two": "\u20b9200"}, {"Name": "Being Chef- Pure Veg Kitchen", "Rating": "3.9", "votes": "1126", "location": " Plot 18 A, IDC, Industrial Development Area, Near Bata Chowk, Sector 16, Sector 14, Gurgaon", "Cuisines: ": "North Indian", "hours": "7am\u20134am(Mon-Sun)", "Cost for two": "\u20b9550"}]