[{"Name": "Tibb's Frankie", "Rating": "3.7", "votes": "42", "location": " Huda City Centre Metro Station, Shop 17, North Wing, Sector 29, Gurgaon", "Cuisines: ": "Rolls", "hours": "10:30am\u201311pm(Mon-Sun)", "Cost for two": "\u20b9500"}, {"Name": "Yaduvanshi Tadka Food Corner", "Rating": "3.3", "votes": "12", "location": " Near Induslnd Bank Metro Station, Shankar Chowk, DLF Cyber City, Gurgaon", "Cuisines: ": "North Indian", "hours": "10am\u201311pm(Mon-Sun)", "Cost for two": "\u20b9300"}, {"Name": "7dayz Restaurant & Banquet", "Rating": "3.2", "votes": "46", "location": " New Complex Market, Near Ambedkar Chowk, Ballabhgarh, Faridabad", "Cuisines: ": "Chinese, North Indian", "hours": "10am\u201310pm(Mon-Sun)", "Cost for two": "\u20b9450"}, {"Name": "Chennai Express", "Rating": "3.6", "votes": "97", "location": " U 8/18, Ground Floor, Opposite DLF Phase 3 Metro Station, DLF Phase 3, Gurgaon", "Cuisines: ": "South Indian, North Indian", "hours": "8am\u201312midnight(Mon-Sun)", "Cost for two": "\u20b9300"}, {"Name": "Chawal", "Rating": "-", "votes": "97", "location": " 13/28, U Block, DLF Phase 3, Gurgaon", "Cuisines: ": "North Indian", "hours": "7am\u20134am(Mon-Sun)", "Cost for two": "\u20b9400"}, {"Name": "Big Jack's", "Rating": "4.0", "votes": "235", "location": " Plot 1126, DLF Phase 4, Gurgaon", "Cuisines: ": "Continental, Fast Food, Chinese, Italian, Beverages", "hours": "7pm\u20135am(Mon,Wed,Thu,Fri,Sat,Sun),Closed...", "Cost for two": "\u20b9600"}, {"Name": "Brothers Cafe", "Rating": "3.7", "votes": "66", "location": " UGF-21, Parsvnath Majestic Arcade, Vaibhav Khand, Indirapuram, Ghaziabad", "Cuisines: ": "Cafe", "hours": "11am\u201311pm(Mon-Sun)", "Cost for two": "\u20b9500"}, {"Name": "Owl's Hour", "Rating": "3.2", "votes": "8", "location": " Alpha Comercial, Ground Floor, Near Kotak Mahindra Bank ATM, Alpha 1, Greater Noida", "Cuisines: ": "Desserts, Beverages", "hours": "24Hours(Mon-Sun)", "Cost for two": "\u20b9450"}, {"Name": "Lucknow's Kabab", "Rating": "2.9", "votes": "276", "location": " Street 63, U Block, DLF Phase 3, Gurgaon", "Cuisines: ": "Mughlai, North Indian", "hours": "12noon\u201312midnight(Mon-Sun)", "Cost for two": "\u20b9400"}, {"Name": "Virtual Kitchen", "Rating": "3.8", "votes": "39", "location": " Delivery Only", "Cuisines: ": "North Indian", "hours": "24Hours(Mon-Sun)", "Cost for two": "\u20b9400"}, {"Name": "Prince Cafe", "Rating": "3.6", "votes": "254", "location": " 108, Main Road, Chander Nagar, New Delhi", "Cuisines: ": "South Indian, Chinese, Fast Food", "hours": "11am\u201311pm(Mon-Sun)", "Cost for two": "\u20b9200"}, {"Name": "Cake Points", "Rating": "-", "votes": "254", "location": " U 19/45, DLF Phase 3, Gurgaon", "Cuisines: ": "Bakery, Desserts, Fast Food", "hours": "24Hours(Mon-Sun)", "Cost for two": "\u20b9300"}, {"Name": "Pizza Queen", "Rating": "3.2", "votes": "48", "location": " Pooth Kalan, Kanjhwla Road, Budh Vihar, Near Brahm Shakti Hospital, Rohini, New Delhi", "Cuisines: ": "Pizza", "hours": "11am\u201311pm(Mon-Sun)", "Cost for two": "\u20b9400"}, {"Name": "Aunty's Kitchen", "Rating": "3.0", "votes": "6", "location": " Plot 1, Khasra 3/89/215, Paryavaran Complex, Saidulajab, Saket, New Delhi", "Cuisines: ": "North Indian", "hours": "12noon\u20133:30pm,7:30pm\u201310:30pm(Mon,Wed...", "Cost for two": "\u20b9400"}, {"Name": "The Pizza King", "Rating": "3.5", "votes": "74", "location": " Opposite JD Block Market, Pitampura, New Delhi", "Cuisines: ": "Pizza", "hours": "5pm\u201311:30pm(Mon-Sun)", "Cost for two": "\u20b9350"}]