[{"Name": "Paramjeet Machi Wala", "Rating": "3.8", "votes": "122", "location": " 50-51, J Block Community Centre, Opposite Surya Continental, Rajouri Garden, New Delhi", "Cuisines: ": "North Indian, Mughlai", "hours": "5:30pm\u201310:30pm(Mon,Wed,Thu,Fri,Sat,Sun)...", "Cost for two": "\u20b9750"}, {"Name": "Shakil Chicken Corner", "Rating": "3.6", "votes": "459", "location": " Delivery Only", "Cuisines: ": "North Indian", "hours": "9am\u20132am(Mon-Sun)", "Cost for two": "\u20b9600"}, {"Name": "Crumbs Of Paris", "Rating": "3.3", "votes": "20", "location": " 93/15 A, 2nd Floor, Shaheen Bagh, Jasola, New Delhi", "Cuisines: ": "Bakery", "hours": "12noon\u201312midnight(Mon-Sun)", "Cost for two": "\u20b9150"}, {"Name": "The Q Code Restaurant", "Rating": "3.1", "votes": "5", "location": " R-175-B S/F, Ramesh Park, Near Masjid, Gandhi Nagar, Laxmi Nagar, New Delhi", "Cuisines: ": "North Indian, Mughlai", "hours": "7pm\u20133am(Mon-Sun)", "Cost for two": "\u20b9450"}, {"Name": "Bun Kebab Company", "Rating": "3.9", "votes": "51", "location": " 8/8, Ground Floor, U Block, DLF Phase 3, Gurgaon", "Cuisines: ": "Burger, Kebab, Fast Food, Beverages", "hours": "12noon\u201311pm(Mon-Sun)", "Cost for two": "\u20b9300"}, {"Name": "mithas", "Rating": "3.0", "votes": "10", "location": " Plot GH 3, Kala Pathar Road, Aditya Mega City, Vaibhav Khand, Near Big Bazaar, Indirapuram, Ghaziabad", "Cuisines: ": "Mithai, North Indian, South Indian, Chinese", "hours": "8am\u201311pm(Mon-Sun)", "Cost for two": "\u20b9800"}, {"Name": "Edigest Foods", "Rating": "3.8", "votes": "175", "location": " Shop 66/67, Ground Floor, KB Complex, Alpha 2, Greater Noida", "Cuisines: ": "Biryani, Chinese, Bakery", "hours": "10:30am\u201311pm(Mon-Sun)", "Cost for two": "\u20b9300"}, {"Name": "Desi Taste", "Rating": "3.2", "votes": "6", "location": " Shop 4, Amrit Plaza, Near Yatharth Hospital, Bisrakh Thana, Amrapali Leisure Valley, Greater Noida", "Cuisines: ": "North Indian", "hours": "12noon\u201311pm(Mon-Sun)", "Cost for two": "\u20b9200"}, {"Name": "Aapka Bhojanalaya", "Rating": "3.7", "votes": "289", "location": " 136/3, Main Road, Maujpur, Shahdara, New Delhi", "Cuisines: ": "North Indian, South Indian", "hours": "10am\u201311pm(Mon-Sun)", "Cost for two": "\u20b9300"}, {"Name": "Mini Haveli", "Rating": "3.4", "votes": "10", "location": " Plot 24, Block 5, Mall Road, Tilak Nagar, New Delhi", "Cuisines: ": "North Indian, Chinese", "hours": "12noon\u201311pm(Mon-Sun)", "Cost for two": "\u20b9750"}, {"Name": "Namo Foods", "Rating": "3.9", "votes": "88", "location": " D-77, Sector 63, Noida", "Cuisines: ": "North Indian, Street Food, Fast Food", "hours": "11am\u201310:30pm(Mon-Sat),Closed(Sun)", "Cost for two": "\u20b9250"}, {"Name": "Big On Biryani", "Rating": "3.7", "votes": "22", "location": " Delivery Only", "Cuisines: ": "Biryani, Mughlai", "hours": "11am\u20133am(Mon-Sun)", "Cost for two": "\u20b9300"}, {"Name": "Fit Food Cafe", "Rating": "4.1", "votes": "85", "location": " A 21, JD Block, Aashiana Chowk, Opposite Metro Pillar 357, Pitampura, New Delhi", "Cuisines: ": "Healthy Food", "hours": "10am\u201310pm(Mon-Sun)", "Cost for two": "\u20b9350"}, {"Name": "Taste Lane", "Rating": "NEW", "votes": "85", "location": " C-35, Gali 3, Chander Nagar, Near Sai Baba Mandir, Preet Vihar, New Delhi", "Cuisines: ": "Fast Food, Chinese", "hours": "12:30pm\u201312midnight(Mon-Sun)", "Cost for two": "\u20b9400"}, {"Name": "Dilli 6 On Wheels", "Rating": "3.9", "votes": "3656", "location": " Shop 84 & 87, HUDA Shopping Complex, Near Medanta Hospital, Sector 32, Gurgaon", "Cuisines: ": "North Indian, South Indian, Fast Food", "hours": "11am\u201311pm(Mon-Sun)", "Cost for two": "\u20b9350"}]