[{"Name": "Now n Wow Cake", "Rating": "3.0", "votes": "4", "location": " C-340, Sector 10, Noida", "Cuisines: ": "Bakery, Desserts", "hours": "10am\u201311pm(Mon-Sun)", "Cost for two": "\u20b9150"}, {"Name": "Food Central", "Rating": "2.8", "votes": "8", "location": " Plot 15, Opposite Sports Complex, Sector 10, Dwarka, New Delhi", "Cuisines: ": "North Indian, Chinese", "hours": "12noon\u201311pm(Mon-Sun)", "Cost for two": "\u20b9350"}, {"Name": "Cake Plaza", "Rating": "3.4", "votes": "16", "location": " Shop 1&2, Opposite Air Force Station, Sector 48, Sohna Road, Gurgaon", "Cuisines: ": "Bakery", "hours": "24Hours(Mon-Sun)", "Cost for two": "\u20b9300"}, {"Name": "7th Heaven", "Rating": "3.4", "votes": "24", "location": " Shop 1, Skardi Plaza, Skardi Greens Golflink, NH 24, Kavi Nagra Ghaziabad", "Cuisines: ": "Bakery, Fast Food", "hours": "12noon\u201310:30pm(Mon,Wed,Fri,Sat),12:01pm\u2013...", "Cost for two": "\u20b9500"}, {"Name": "Mainland Punjab", "Rating": "4.2", "votes": "137", "location": " Shop 93 A, Assotech Business Cresteria, Sector 135, Noida", "Cuisines: ": "Kebab, North Indian, Biryani", "hours": "6pm\u20136am(Mon-Sun)", "Cost for two": "\u20b9500"}, {"Name": "Chit Chat", "Rating": "3.2", "votes": "7", "location": " Delivery Only", "Cuisines: ": "Fast Food, Momos, North Indian, Chinese", "hours": "7:30am\u201311pm(Mon-Sun)", "Cost for two": "\u20b9300"}, {"Name": "Aggarwal Sweet Centre", "Rating": "-", "votes": "7", "location": " C-101, Gautam Buddha Nagar, Sector 4, Noida", "Cuisines: ": "Mithai, Street Food", "hours": "9am\u201310:30pm(Mon-Sun)", "Cost for two": "\u20b9100"}, {"Name": "Main Land China", "Rating": "3.1", "votes": "10", "location": " Shop 5, Communiity Center, Sector 104, Near Sector 110, Noida", "Cuisines: ": "Chinese, North Indian", "hours": "11am\u20132am(Mon-Sun)", "Cost for two": "\u20b9300"}, {"Name": "Healthy Buy", "Rating": "3.1", "votes": "4", "location": " Shop 1, Plot 663/10, Krishna Colony, New Colony Road, Sector 7, Gurgaon", "Cuisines: ": "Healthy Food, Beverages", "hours": "7am\u201312noon,4:30pm\u20139pm(Mon-Sat),7am\u2013...", "Cost for two": "\u20b9150"}, {"Name": "Pasta Hub", "Rating": "3.3", "votes": "9", "location": " Shop 3, AL Market, Shalimar Bagh, New Delhi", "Cuisines: ": "Fast Food", "hours": "12noon\u201310:30pm(Mon-Sun)", "Cost for two": "\u20b9300"}, {"Name": "Avantika Food Corner", "Rating": "3.9", "votes": "240", "location": " Opposite 3Cs Cinema Complex, Lajpat Nagar 2, New Delhi", "Cuisines: ": "Chinese", "hours": "11:30am\u201310pm(Mon-Sun)", "Cost for two": "\u20b9200"}, {"Name": "Zaika-E-Dilli 6", "Rating": "3.7", "votes": "48", "location": " Shop 4, A-1/58, Sector 16, Rohini, New Delhi", "Cuisines: ": "Mughlai", "hours": "11am\u20131am(Mon-Sun)", "Cost for two": "\u20b9300"}, {"Name": "Aggarwal Lassi Wala", "Rating": "3.5", "votes": "132", "location": " D-8/3, Mahavir Enclave Part 1, Main Palam Dabri Road, Palam, New Delhi", "Cuisines: ": "Street Food, North Indian, South Indian, Chinese", "hours": "8am\u201311pm(Mon-Sun)", "Cost for two": "\u20b9400"}, {"Name": "Dad's Kitchen", "Rating": "3.9", "votes": "207", "location": " A-16, Town Square Market, Vatika India NXT, Sector 82, Near Sector 83, Gurgaon", "Cuisines: ": "North Indian", "hours": "12noon\u201311pm(Mon-Sun)", "Cost for two": "\u20b9600"}, {"Name": "Hutkar Burger and Ice Creams", "Rating": "3.9", "votes": "998", "location": " SD 105, Jaipururiya Sunrise Plaza, Indirapuram, Ghaziabad", "Cuisines: ": "Fast Food, Ice Cream, Beverages", "hours": "11:30am\u20134am(Mon-Sun)", "Cost for two": "\u20b9450"}]