[{"Name": "Black Brown Coffee", "Rating": "4.1", "votes": "77", "location": " Ground Floor, Hawker Street, Ambience Mall, DLF Phase 3, Gurgaon", "Cuisines: ": "Cafe, Sandwich, Burger", "hours": "10am\u201312midnight(Mon-Sun)", "Cost for two": "\u20b9650"}, {"Name": "Paratha King", "Rating": "3.6", "votes": "157", "location": " Near Gol Chakkar, Crossing Republik, Ghaziabad", "Cuisines: ": "North Indian", "hours": "10am\u201310:30pm(Mon-Sun)", "Cost for two": "\u20b9300"}, {"Name": "People's Cafe", "Rating": "4.2", "votes": "140", "location": " B131, Supermart 1, DLF Phase 4, Gurgaon", "Cuisines: ": "Healthy Food, Sandwich, North Indian, Beverages", "hours": "8:30am\u201311:30pm(Mon-Sun)", "Cost for two": "\u20b9600"}, {"Name": "Zaika Punjabi", "Rating": "3.5", "votes": "63", "location": " Shop 2, Plot 1, Near ICICI Bank, Labour Chowk, Azadpur, New Delhi", "Cuisines: ": "North Indian, Mughlai, Chinese", "hours": "12noon\u20134pm,7pm\u201311pm(Mon-Sun)", "Cost for two": "\u20b9500"}, {"Name": "Baba Chinese Food Corner", "Rating": "3.2", "votes": "6", "location": " 6 A, Pocket A 2, Mayur Vihar Phase 3, New Delhi", "Cuisines: ": "Chinese", "hours": "11am\u201311pm(Mon-Sun)", "Cost for two": "\u20b9400"}, {"Name": "CookNook", "Rating": "NEW", "votes": "6", "location": " Plot 1580P, Sector 57, Gurgaon", "Cuisines: ": "Chinese, Continental, North Indian", "hours": "7:30am\u20133am(Mon-Sun)", "Cost for two": "\u20b9300"}, {"Name": "Shyam Ji Sabziwalas", "Rating": "NEW", "votes": "6", "location": " B-6/181, Sector 8, Rohini, New Delhi.", "Cuisines: ": "Chinese, North Indian", "hours": "11am\u201311pm(Mon-Sun)", "Cost for two": "\u20b9300"}, {"Name": "Classic Pasta", "Rating": "3.3", "votes": "18", "location": " G-21/35, Sector 7, Rohini, New Delhi", "Cuisines: ": "Fast Food", "hours": "8am\u20134am(Mon-Sun)", "Cost for two": "\u20b9300"}, {"Name": "Scrummy Bites", "Rating": "3.4", "votes": "122", "location": " Shop 6, N Block, Sector 12, Noida", "Cuisines: ": "North Indian, Chinese", "hours": "11am\u201311pm(Mon-Sun)", "Cost for two": "\u20b9500"}, {"Name": "Vaishnav Chat Bhandar", "Rating": "3.8", "votes": "53", "location": " Shop C 2/14, Near Gol Chakkar, Rana Pratap Bagh, New Delhi", "Cuisines: ": "Street Food", "hours": "11am\u201310pm(Mon-Sun)", "Cost for two": "\u20b9150"}, {"Name": "Zaika Point", "Rating": "3.3", "votes": "73", "location": " Master Plane Road, Shiva Market,Laxmi Nagar, New Delhi", "Cuisines: ": "North Indian, Mughlai, Biryani", "hours": "8am\u20136am(Mon-Sun)", "Cost for two": "\u20b9200"}, {"Name": "Philco Bakery", "Rating": "3.3", "votes": "26", "location": " Shop 4, Sainik Colony, Sector 49, Faridabad", "Cuisines: ": "Bakery, Fast Food, Beverages", "hours": "10am\u201310pm(Mon-Sun)", "Cost for two": "\u20b9350"}, {"Name": "Bon Patisserie Bakery", "Rating": "3.4", "votes": "17", "location": " Shop 9, V1 Market, Near Metro Heart Hospital, Rajat Vihar, Sector 12, Noida", "Cuisines: ": "Bakery", "hours": "10am\u201312midnight(Mon-Sun)", "Cost for two": "\u20b9250"}, {"Name": "Chinese Food Corner", "Rating": "3.5", "votes": "92", "location": " M-57, Baludhyaan Road, Uttam Nagar, New Delhi", "Cuisines: ": "Chinese, South Indian, Momos", "hours": "11am\u201311pm(Mon-Sun)", "Cost for two": "\u20b9250"}, {"Name": "The Desi Firangi", "Rating": "3.4", "votes": "33", "location": " 2nd Floor, KB Complex, Pocket F, Block F, Alpha 2, Greater Noida", "Cuisines: ": "Continental, Chinese, Fast Food, North Indian", "hours": "12:30pm\u201311pm(Mon-Sun)", "Cost for two": "\u20b9400"}]