[{"Name": "Cafe Sante", "Rating": "4.0", "votes": "209", "location": " Peach Tree Complex, Block C, Phase 1, Sushant Lok, Gurgaon", "Cuisines: ": "Cafe, Fast Food", "hours": "10am\u201310pm(Mon),8:30am\u201311pm(Tue-Sun)", "Cost for two": "\u20b9800"}, {"Name": "Al Qaswa Restaurant", "Rating": "3.2", "votes": "7", "location": " 10, Gali 1, Rajiv Gandhi Nagar, New Mustafabad, Karawalnagar, Shahdara, New Delhi", "Cuisines: ": "Fast Food, Tea", "hours": "12midnight\u20134am,10am\u201312midnight...", "Cost for two": "\u20b9300"}, {"Name": "Bhai Ji Food", "Rating": "3.1", "votes": "6", "location": " Shop E-2/760, Khasra 321/1, Gali 12, Main 33 Feet Road, Nehru Vihar, Mukherjee Nagar, New Delhi", "Cuisines: ": "North Indian, Mughlai", "hours": "7am\u20133pm,5pm\u201311pm(Mon-Sun)", "Cost for two": "\u20b9400"}, {"Name": "South Se", "Rating": "2.5", "votes": "20", "location": " F76, Shop 2, Saket Metro Station, Saidulajab Lane, Saket, New Delhi", "Cuisines: ": "South Indian", "hours": "8am\u201310pm(Mon-Sun)", "Cost for two": "\u20b9300"}, {"Name": "B.Desi", "Rating": "3.2", "votes": "8", "location": " Shop 4, Thana Road, Opposite Aggarwal Dharamsala, Najafgarh, New Delhi", "Cuisines: ": "Chinese, Fast Food, North Indian, Beverages", "hours": "10am\u20139pm(Mon-Sun)", "Cost for two": "\u20b9300"}, {"Name": "Paratha Sing", "Rating": "-", "votes": "8", "location": " Shop 17, Lower Ground Floor, Ajnara Arcade, Crossing Republik, Ghaziabad", "Cuisines: ": "North Indian", "hours": "12noon\u201311pm(Mon-Sun)", "Cost for two": "\u20b9300"}, {"Name": "Crispy Friez Coat", "Rating": "3.1", "votes": "9", "location": " Ground Floor, Ansal Plaza Mall, Palam Vihar, Gurgaon", "Cuisines: ": "Fast Food", "hours": "11am\u201311pm(Mon-Sun)", "Cost for two": "\u20b9300"}, {"Name": "Naveen's Corner", "Rating": "3.4", "votes": "37", "location": " 7075/8, Mata Rameshwari, Nehru Nagar, Karol Bagh, New Delhi", "Cuisines: ": "Chinese, Rolls", "hours": "12noon\u201312midnight(Mon-Sun)", "Cost for two": "\u20b9300"}, {"Name": "Govinda Restaurant", "Rating": "3.8", "votes": "94", "location": " Plot 4, ISKCON Temple, Near MRV School, Sector 13, Dwarka, New Delhi", "Cuisines: ": "North Indian, Chinese", "hours": "12noon\u201310pm(Mon-Sun)", "Cost for two": "\u20b9650"}, {"Name": "Meghraj Food Court", "Rating": "3.6", "votes": "166", "location": " Opposite Meghraj Sweets, Main Road, Industrial Area, Wazirpur, New Delhi", "Cuisines: ": "North Indian, Street Food, Mithai", "hours": "8am\u20139pm(Mon,Tue,Thu,Fri,Sat,Sun),8am\u2013...", "Cost for two": "\u20b9250"}, {"Name": "69 Bakers Street", "Rating": "3.4", "votes": "16", "location": " A8, Sector 44, Gurgaon", "Cuisines: ": "Bakery", "hours": "24Hours(Mon-Sun)", "Cost for two": "\u20b9300"}, {"Name": "Ns  Bakes", "Rating": "3.0", "votes": "5", "location": " Delivery Only", "Cuisines: ": "Bakery, Desserts", "hours": "10am\u201311:30pm(Mon-Sun)", "Cost for two": "\u20b9300"}, {"Name": "Foodies Table", "Rating": "NEW", "votes": "5", "location": " G10, Krishna Apra Plaza, Near K2 Optical, Sector 18, Noida", "Cuisines: ": "North Indian, Chinese", "hours": "11am\u201312midnight(Mon-Sun)", "Cost for two": "\u20b9400"}, {"Name": "The Rolls King", "Rating": "3.3", "votes": "20", "location": " Shop 2, Durga Market, Near MI Phone Service Center, Naharpur Village, Sector 7, Rohini, New Delhi", "Cuisines: ": "Rolls", "hours": "11am\u20134am(Mon-Sun)", "Cost for two": "\u20b9200"}, {"Name": "Pizzariaa", "Rating": "3.1", "votes": "24", "location": " WZ 2881, 2nd Floor, Santnagar Rani Bagh, Pitampura, New Delhi", "Cuisines: ": "Pizza", "hours": "8am\u20134am(Mon-Sun)", "Cost for two": "\u20b9300"}]