[{"Name": "Chin China", "Rating": "3.6", "votes": "101", "location": " Shop 1, RG Complex 1, Prashant Vihar, New Delhi", "Cuisines: ": "Chinese", "hours": "12noon\u201311pm(Mon-Sun)", "Cost for two": "\u20b9250"}, {"Name": "Rana Dhaba", "Rating": "3.8", "votes": "104", "location": " Shop 3, G39 A, Sector 22, Noida", "Cuisines: ": "North Indian", "hours": "12:30pm\u20134pm,7:30pm\u201311pm(Mon-Sun)", "Cost for two": "\u20b9200"}, {"Name": "Bowl Na!", "Rating": "-", "votes": "104", "location": " 1510P, Near Jain hospital and Tansen Sangeet Mahavidyalay, Sector 46, Near Sector 45, Gurgaon", "Cuisines: ": "Biryani, Mughlai, North Indian, Desserts, Beverages", "hours": "12noon\u201311pm(Mon-Sun)", "Cost for two": "\u20b9200"}, {"Name": "Ajay Cafe", "Rating": "3.1", "votes": "4", "location": " 16, GU Block, Harsha Complex, Saraswati Vihar, Near Pitampura, New Delhi", "Cuisines: ": "Fast Food, Chinese", "hours": "11am\u201311pm(Mon-Sun)", "Cost for two": "\u20b9300"}, {"Name": "Killo Dee Hatti", "Rating": "-", "votes": "4", "location": " Opposite House 168, Sector 41 Noida", "Cuisines: ": "North Indian, Biryani", "hours": "12noon\u20132am(Mon-Sun)", "Cost for two": "\u20b9250"}, {"Name": "99 Degree Fahrenheit", "Rating": "3.1", "votes": "6", "location": " Shop 111, Stellar Jeevan Commercial Building, Near Yatharth Hospital, Sector 1, Amrapali Leisure Valley, Greater Noida", "Cuisines: ": "Italian, Chinese, North Indian, Mughlai", "hours": "11am\u20131am(Mon-Sun)", "Cost for two": "\u20b9500"}, {"Name": "Somras Bar & Restaurant", "Rating": "3.0", "votes": "7", "location": " G 21, Ground Floor, Star City Mall, Mayur Vihar Phase 1, New Delhi", "Cuisines: ": "Chinese, North Indian", "hours": "11am\u201311pm(Mon-Sun)", "Cost for two": "\u20b9750"}, {"Name": "7 Foods", "Rating": "3.0", "votes": "5", "location": " 12, Satyaniketan Market, Satyaniketan, New Delhi", "Cuisines: ": "North Indian", "hours": "12noon\u201312midnight(Mon-Sun)", "Cost for two": "\u20b9350"}, {"Name": "Maini Restaurant", "Rating": "3.7", "votes": "278", "location": " A Block Market, Surya Nagar, Ghaziabad", "Cuisines: ": "North Indian", "hours": "9am\u201311pm(Mon-Sun)", "Cost for two": "\u20b9400"}, {"Name": "Roll No 1 Original Kathi Rolls", "Rating": "3.9", "votes": "112", "location": " Block A, Near Jhilmil Metro Station, Dilshad Garden, New Delhi", "Cuisines: ": "Rolls", "hours": "12noon\u201310:30pm(Mon-Sun)", "Cost for two": "\u20b9300"}, {"Name": "PomoDoro Bistro", "Rating": "4.2", "votes": "479", "location": " H-222, Upper Ground Floor, Sushant Shopping Arcade, Phase 1, Sushant Lok, Gurgaon", "Cuisines: ": "Italian, Fast Food", "hours": "8am\u20134am(Mon-Sun)", "Cost for two": "\u20b9700"}, {"Name": "The Roll Point", "Rating": "3.4", "votes": "60", "location": " Shop 19A, DDA Gole Market A/4, Paschim Vihar, New Delhi", "Cuisines: ": "Momos, Rolls", "hours": "9am\u20135am(Mon-Sun)", "Cost for two": "\u20b9250"}, {"Name": "Nagaland", "Rating": "3.5", "votes": "20", "location": " 19, Dilli Haat, INA, New Delhi", "Cuisines: ": "Chinese", "hours": "10am\u201310pm(Mon-Sun)", "Cost for two": "\u20b9500"}, {"Name": "Yum Chow", "Rating": "3.6", "votes": "41", "location": " 76, Huda Market, Sector 14, Faridabad", "Cuisines: ": "Chinese", "hours": "1pm\u201310pm(Mon-Sun)", "Cost for two": "\u20b9900"}, {"Name": "Dhaba Pind Punjabi", "Rating": "3.8", "votes": "121", "location": " K 2 Block, Near Mata Chowk, Vasant Kunj Road, Mahipalpur, New Delhi", "Cuisines: ": "North Indian, Chinese, Mughlai", "hours": "11am\u201312midnight(Mon-Sun)", "Cost for two": "\u20b9400"}]