[{"Name": "Foodie Junction", "Rating": "3.7", "votes": "51", "location": " Shop 962, Sector 10, Faridabad", "Cuisines: ": "Fast Food, Burger", "hours": "10:30am\u201311pm(Mon-Sun)", "Cost for two": "\u20b9400"}, {"Name": "Kalkata's Lazeez", "Rating": "3.8", "votes": "91", "location": " Shop 15, Central Market, Block BG 8, DDA Market, Paschim Vihar, New Delhi", "Cuisines: ": "Rolls", "hours": "12noon\u20134am(Mon-Sun)", "Cost for two": "\u20b9250"}, {"Name": "Nawabi Tadka", "Rating": "3.5", "votes": "38", "location": " Ground Floor, Gurunanak Market, Lajpat Nagar 4, New Delhi", "Cuisines: ": "Fast Food, North Indian, Desserts, Beverages", "hours": "10am\u201310pm(Mon-Sun)", "Cost for two": "\u20b9450"}, {"Name": "D-11 Foods", "Rating": "3.8", "votes": "138", "location": " 5, Lower Ground Floor, City Plaza, Gaur City 1, Greater Noida", "Cuisines: ": "North Indian", "hours": "11am\u201311pm(Mon-Sun)", "Cost for two": "\u20b9400"}, {"Name": "Desi Bitez", "Rating": "4.0", "votes": "104", "location": " B-43-E, 2nd Floor, Old Dlf Colony, Sector 14, Gurgaon", "Cuisines: ": "North Indian, Fast Food", "hours": "8am\u20134am(Mon-Sun)", "Cost for two": "\u20b9300"}, {"Name": "Chaska 18", "Rating": "3.7", "votes": "305", "location": " Shop G 26, Savitri Market, Sector 18, Noida", "Cuisines: ": "Chinese, Fast Food, North Indian", "hours": "24Hours(Mon-Sun)", "Cost for two": "\u20b9450"}, {"Name": "Gyros Kebab And Grill", "Rating": "4.0", "votes": "178", "location": " Shop 75/76, Assotech Business Cresterra Building, Sector 135, Noida", "Cuisines: ": "Kebab, Fast Food, Mughlai", "hours": "12noon\u201311pm(Mon-Sun)", "Cost for two": "\u20b9800"}, {"Name": "ABC Biryani Wala", "Rating": "3.9", "votes": "1723", "location": " 5E/30 B.P, NIT, Faridabad", "Cuisines: ": "Biryani", "hours": "9am\u201310pm(Mon,Wed,Thu,Fri,Sat,Sun),10:30am...", "Cost for two": "\u20b9200"}, {"Name": "The Hot Pizza", "Rating": "3.8", "votes": "148", "location": " J Block, Chhliasi,  Noida City Zone 1, Sector 63, Noida", "Cuisines: ": "Pizza, Fast Food", "hours": "9:30am\u20132:10am(Mon-Sun)", "Cost for two": "\u20b9400"}, {"Name": "Chicago Chimney", "Rating": "4.4", "votes": "167", "location": " Shop 1, Godavari Complex, Arun Vihar, Sector 37, Noida", "Cuisines: ": "Italian, Fast Food, Desserts", "hours": "11am\u201311pm(Mon-Sun)", "Cost for two": "\u20b9300"}, {"Name": "Chilli Hot", "Rating": "3.8", "votes": "131", "location": " P-83A, Palam Colony, Raj Nagar 2, Sector 8, Dwarka, New Delhi", "Cuisines: ": "Chinese, Fast Food, Rolls, Momos", "hours": "11am\u201310pm(Mon-Sun)", "Cost for two": "\u20b9400"}, {"Name": "Fruitful", "Rating": "4.4", "votes": "59", "location": " 31 A, Auto Complex, Zamrudpur, Greater Kailash 1 (GK 1), New Delhi", "Cuisines: ": "Healthy Food, Salad", "hours": "10am\u201311pm(Mon-Sun)", "Cost for two": "\u20b9550"}, {"Name": "Chottus", "Rating": "3.8", "votes": "116", "location": " U- Block,9/27  DLF Phase 3, Gurgaon", "Cuisines: ": "Rolls", "hours": "10am\u201310pm(Mon-Sun)", "Cost for two": "\u20b9200"}, {"Name": "Gharana Indian Restaurant", "Rating": "3.9", "votes": "103", "location": " 2, Rasoolpur Nawada, Near Golden Nest PG, Sector 62, Noida", "Cuisines: ": "North Indian, Chinese, Mughlai", "hours": "7am\u20134am(Mon-Sun)", "Cost for two": "\u20b9400"}, {"Name": "Shree Bhagatram", "Rating": "3.7", "votes": "858", "location": " A-5, Ground Floor, Vasant Square Mall, Vasant Kunj, New Delhi", "Cuisines: ": "North Indian, Chinese, South Indian, Mithai, Fast Food, Ice Cream, Bakery, Beverages", "hours": "9am\u201311pm(Mon-Sun)", "Cost for two": "\u20b9650"}]