[{"Name": "Tawa V/S Tandoor Parantha", "Rating": "3.1", "votes": "5", "location": " A 64, 1st Floor, Chanakya Place, 40 Foot Road, Janakpuri, New Delhi", "Cuisines: ": "North Indian, Chinese", "hours": "8am\u20137am(Mon-Sun)", "Cost for two": "\u20b9600"}, {"Name": "Capri Wings", "Rating": "4.0", "votes": "75", "location": " Sector 63, Noida", "Cuisines: ": "Italian, Salad, Mexican, North Indian", "hours": "11am\u20133am(Mon-Sun)", "Cost for two": "\u20b9400"}, {"Name": "Bikaner Sweets Corner", "Rating": "3.5", "votes": "76", "location": " Plot 3, Near Chimnibai Dharamshala Chowk, NIT, Faridabad", "Cuisines: ": "Mithai, Street Food", "hours": "6am\u201310:30pm(Mon-Sun)", "Cost for two": "\u20b9200"}, {"Name": "Punjabi Chole Bhature", "Rating": "3.4", "votes": "13", "location": " Vasist Complex, Near Manas Hospital, Gautam Budha Nagar, Sector 53, Noida", "Cuisines: ": "North Indian", "hours": "8am\u20134pm(Mon-Sun)", "Cost for two": "\u20b9150"}, {"Name": "Night Diner", "Rating": "3.6", "votes": "480", "location": " Sector 2, Rohini, New Delhi", "Cuisines: ": "North Indian, Chinese", "hours": "11am\u20134am(Mon-Sun)", "Cost for two": "\u20b9400"}, {"Name": "Aadhi Raat", "Rating": "3.6", "votes": "28", "location": " 2 C-58, Old Janta Colony, National Highway 2, NIT, Faridabad", "Cuisines: ": "Fast Food, Beverages", "hours": "8pm\u20134am(Mon-Sun)", "Cost for two": "\u20b9200"}, {"Name": "Pindi Food Junction", "Rating": "3.5", "votes": "21", "location": " Shop 5D/96B, NIT, Faridabad", "Cuisines: ": "Rolls, North Indian", "hours": "5pm\u201312midnight(Mon-Sun)", "Cost for two": "\u20b9500"}, {"Name": "Pahalwan Da Dhaba", "Rating": "3.3", "votes": "26", "location": " Kabir Bhawan Chowk, Old Railway Road, Gurgaon", "Cuisines: ": "North Indian", "hours": "12noon\u201310pm(Mon,Wed,Thu,Fri,Sat,Sun)...", "Cost for two": "\u20b9300"}, {"Name": "Maxi Burger & More...", "Rating": "3.6", "votes": "58", "location": " 87 A, Zamrud Pur, Opposite N 115, Greater Kailash 1 (GK 1), New Delhi", "Cuisines: ": "Fast Food, Chinese", "hours": "11am\u201311pm(Mon-Sun)", "Cost for two": "\u20b9200"}, {"Name": "PLS restaurant", "Rating": "3.6", "votes": "423", "location": " 39A, Beside Kaushalaya Girls Hostel, Knowledge Park, Greater Noida", "Cuisines: ": "North Indian, Chinese, Mughlai, Rolls", "hours": "8am\u20136am(Mon-Sun)", "Cost for two": "\u20b9500"}, {"Name": "Raj Chinese Food", "Rating": "3.6", "votes": "247", "location": " Opposite U & V Market, Shalimar Bagh, New Delhi", "Cuisines: ": "Chinese", "hours": "11am\u201311pm(Mon-Sun)", "Cost for two": "\u20b9450"}, {"Name": "Radhe Radhe Chaap Corner", "Rating": "3.6", "votes": "52", "location": " Street 4, Madanpuri, Near Jagdamba Hospital, Sector 7, Gurgaon", "Cuisines: ": "North Indian, Rolls", "hours": "12:30pm\u201311pm(Mon-Sun)", "Cost for two": "\u20b9200"}, {"Name": "Pasta Town", "Rating": "3.8", "votes": "272", "location": " C-4/35, Amar Colony Market, Lajpat Nagar 4, New Delhi", "Cuisines: ": "Fast Food, Italian", "hours": "7am\u20134am(Mon-Sun)", "Cost for two": "\u20b9400"}, {"Name": "Rasoi - The Food Express", "Rating": "3.5", "votes": "157", "location": " 163, Near Hanuman Mandir, Sector 14, Gurgaon", "Cuisines: ": "North Indian, Chinese, Fast Food", "hours": "12noon\u201311pm(Mon-Sun)", "Cost for two": "\u20b9300"}, {"Name": "Carara", "Rating": "3.2", "votes": "58", "location": " 19, G Block Community Centre, Vikaspuri, New Delhi", "Cuisines: ": "North Indian, Chinese, Mughlai", "hours": "12noon\u201311:30pm(Mon-Sun)", "Cost for two": "\u20b9500"}]