[{"Name": "Bollycric", "Rating": "3.6", "votes": "116", "location": " D-15, Sector 3, Noida", "Cuisines: ": "North Indian, South Indian, Chinese", "hours": "11am\u201311pm(Mon-Sat),Closed(Sun)", "Cost for two": "\u20b9300"}, {"Name": "The District Cafe & Restro", "Rating": "3.7", "votes": "152", "location": " 1st Floor, Omega Green, C Block Market, Sector 44, Noida", "Cuisines: ": "North Indian, Mughlai, Chinese, Fast Food", "hours": "12noon\u201312midnight(Mon-Sun)", "Cost for two": "\u20b9800"}, {"Name": "Snack Adda", "Rating": "4.0", "votes": "1111", "location": " Plot 308, Chhalera, Gali 3, Sector 44, Noida", "Cuisines: ": "North Indian, Chinese, Fast Food, Beverages", "hours": "12noon\u20134pm,6pm\u201312:30am(Mon-Sun)", "Cost for two": "\u20b9600"}, {"Name": "Grillz 44", "Rating": "3.3", "votes": "19", "location": " Karnak Market, Near Stellar Green Apartment, Sector 44, Noida", "Cuisines: ": "Chinese, North Indian", "hours": "12noon\u201312midnight(Mon-Sun)", "Cost for two": "\u20b9300"}, {"Name": "Stop Point", "Rating": "-", "votes": "19", "location": " Sadarpur, Zone 4, Sector 45, Noida", "Cuisines: ": "North Indian", "hours": "11am\u201310pm(Mon-Sun)", "Cost for two": "\u20b9300"}, {"Name": "Mughal's Rasoi", "Rating": "3.5", "votes": "66", "location": " 227-B, Sant Nagar, East of Kailash, New Delhi", "Cuisines: ": "North Indian, Mughlai", "hours": "12noon\u201311pm(Mon-Sat),7pm\u201311pm(Sun)", "Cost for two": "\u20b9500"}, {"Name": "Pizzaa Xpress", "Rating": "3.4", "votes": "31", "location": " House 21/1, Block E3/53/3, Molarband Extension, Badarpur Border, Faridabad", "Cuisines: ": "Pizza, Fast Food", "hours": "11am\u201311pm(Mon-Sun)", "Cost for two": "\u20b9300"}, {"Name": "Silver Spoon Cafe", "Rating": "-", "votes": "31", "location": " C 45, Gautam Budh Nagar, Sector 9, Noida", "Cuisines: ": "North Indian, Chinese, Fast Food", "hours": "11am\u201311pm(Mon-Sun)", "Cost for two": "\u20b9600"}, {"Name": "The Silver Pearls", "Rating": "NEW", "votes": "31", "location": " 3A, Main Market, Sarita Vihar, New Delhi", "Cuisines: ": "North Indian, Chinese, Fast Food", "hours": "6am\u201311:30pm(Mon-Sun)", "Cost for two": "\u20b9300"}, {"Name": "Meri wali chai", "Rating": "NEW", "votes": "31", "location": " Sector A, Vasant Kunj, New Delhi", "Cuisines: ": "Beverages, Street Food", "hours": "12noon\u20134am(Mon-Sun)", "Cost for two": "\u20b9250"}, {"Name": "29 India States Food", "Rating": "3.8", "votes": "45", "location": " G-26, PVT-4/5, F/F, South Extension 1, New Delhi", "Cuisines: ": "South Indian, North Indian", "hours": "8am\u20133am(Mon-Sun)", "Cost for two": "\u20b9750"}, {"Name": "Hungry Hackers", "Rating": "3.8", "votes": "80", "location": " Under Ground 3, Bansal Chamber Near ICICI Bank, Kaushambi, Ghaziabad", "Cuisines: ": "Fast Food", "hours": "11am\u201311pm(Mon-Sun)", "Cost for two": "\u20b9400"}, {"Name": "House Of Prantha", "Rating": "3.7", "votes": "72", "location": " Q1-167, Ground Floor, South City 2, Gurgaon", "Cuisines: ": "North Indian", "hours": "8am\u201310pm(Mon-Sun)", "Cost for two": "\u20b9200"}, {"Name": "Gossip House", "Rating": "4.0", "votes": "86", "location": " Pacific Mall, S-2, 2nd Floor, Sahibabad, Ghaziabad", "Cuisines: ": "North Indian, Fast Food", "hours": "11am\u201311pm(Mon-Sun)", "Cost for two": "\u20b91,400"}, {"Name": "Chur Chur Hut", "Rating": "NEW", "votes": "86", "location": " Outlet 3, Ground Floor, Rapid Metro, DLF Phase 3, Gurgaon", "Cuisines: ": "North Indian", "hours": "11am\u201311pm(Mon-Sun)", "Cost for two": "\u20b9200"}]