[{"Name": "Royal Chicken", "Rating": "3.0", "votes": "5", "location": " Shop 11123, Opposite Shahi Idgah Road, Chandni Chowk, New Delhi", "Cuisines: ": "North Indian", "hours": "6pm\u20131am(Mon-Sun)", "Cost for two": "\u20b9400"}, {"Name": "Saravana Mess", "Rating": "3.3", "votes": "10", "location": " 15A/9, WEA Karol Bagh, Karol Bagh, New Delhi", "Cuisines: ": "South Indian, North Indian", "hours": "8am\u201311pm(Mon-Sun)", "Cost for two": "\u20b9350"}, {"Name": "Shudh Vaishno Bhojanalaya", "Rating": "-", "votes": "10", "location": " 1481, Old Court Line, Kashmiri Gate, New Delhi", "Cuisines: ": "North Indian", "hours": "12noon\u201310:30pm(Mon-Sun)", "Cost for two": "\u20b9300"}, {"Name": "Ratan Singh", "Rating": "-", "votes": "10", "location": " Shop 1444, Jama Masjid, Bazar Gulian Road, Kucha Alam, Chandni Chowk, New Delhi", "Cuisines: ": "Mithai", "hours": "8am\u201311pm(Mon-Sun)", "Cost for two": "\u20b9200"}, {"Name": "Al-Nawab", "Rating": "3.1", "votes": "10", "location": " Jagat Cinema, Urdu Bazaar, Jama Masjid, New Delhi", "Cuisines: ": "Mughlai", "hours": "12noon\u201311:30pm(Mon-Sun)", "Cost for two": "\u20b9300"}, {"Name": "Kake Di Hatti Punjabi Khana", "Rating": "3.0", "votes": "4", "location": " Shop 13/2, Tikona Market, Katra Chobey Lal, Daryaganj, New Delhi", "Cuisines: ": "North Indian", "hours": "9am\u201311pm(Mon-Sun)", "Cost for two": "\u20b9300"}, {"Name": "Kamdhenu Family Corner", "Rating": "2.6", "votes": "14", "location": " 5469, Opposite Town Hall, Chandni Chowk, New Delhi", "Cuisines: ": "North Indian, South Indian", "hours": "9am\u20139pm(Mon-Sun)", "Cost for two": "\u20b9300"}, {"Name": "Muradabad Ki Special Biryani", "Rating": "3.1", "votes": "10", "location": " Shop 13, Main Road, Karol Bagh, New Delhi", "Cuisines: ": "Mughlai", "hours": "9am\u201311pm(Mon-Sun)", "Cost for two": "\u20b9300"}, {"Name": "Jumping Froggie", "Rating": "-", "votes": "10", "location": " Shop 535, Near Sita Ram Bazaar, Kucha Pati Ram, Chawri Bazar, New Delhi", "Cuisines: ": "Continental, Street Food", "hours": "1pm\u201310pm(Mon-Sun)", "Cost for two": "\u20b9200"}, {"Name": "Krishan", "Rating": "-", "votes": "10", "location": " Urdu Bazar, Jama Masjid, New Delhi", "Cuisines: ": "North Indian", "hours": "10am\u201310pm(Mon-Sun)", "Cost for two": "\u20b9100"}, {"Name": "Shabnam Restaurant", "Rating": "-", "votes": "10", "location": " 4076, Machli Walan, Urdu Bazar, Jama Masjid, New Delhi", "Cuisines: ": "Kashmiri", "hours": "11am\u201312midnight(Mon-Sun)", "Cost for two": "\u20b9300"}, {"Name": "Ghareeb Navaz Hotel", "Rating": "-", "votes": "10", "location": " 964, Matiya Mahel, Gate 1, Jama Masjid, New Delhi", "Cuisines: ": "North Indian", "hours": "5am\u201312midnight(Mon-Sun)", "Cost for two": "\u20b9300"}, {"Name": "Chandu Lal Dev Kumar", "Rating": "-", "votes": "10", "location": " 206, Gali Raju Teliwara, Sadar Bazar, Chandni Chowk, New Delhi", "Cuisines: ": "Street Food", "hours": "11am\u201311pm(Mon-Sun)", "Cost for two": "\u20b9100"}, {"Name": "Yadav Dhaba", "Rating": "-", "votes": "10", "location": " Plot 63, Opposite Jain Mandir, Chandni Chowk, New Delhi", "Cuisines: ": "North Indian", "hours": "10am\u20135pm(Mon-Sun)", "Cost for two": "\u20b9250"}, {"Name": "Guru kirpa dosa center", "Rating": "-", "votes": "10", "location": " Shop 1940, Chandni Chowk, New Delhi", "Cuisines: ": "South Indian", "hours": "11am\u201311pm(Mon-Sun)", "Cost for two": "\u20b9100"}]