[{"Name": "Bread & Pasta", "Rating": "3.5", "votes": "26", "location": " Shop 15, Near HDFC Bank, Tulip Mall, Sector 48, Noida", "Cuisines: ": "Fast Food", "hours": "10am\u201311pm(Mon-Sun)", "Cost for two": "\u20b9400"}, {"Name": "Zaffran Indian Kitchen", "Rating": "4.0", "votes": "100", "location": " Shop 17B, Amrapali Princely Estate Gate 1, Sector 76, Near Sector 72, Noida", "Cuisines: ": "North Indian, Mughlai, Fast Food", "hours": "11:30am\u20133am(Mon-Sun)", "Cost for two": "\u20b9450"}, {"Name": "Spices", "Rating": "3.6", "votes": "51", "location": " Batra Hospital, Tughlakabad Institutional Area, New Delhi", "Cuisines: ": "North Indian, South Indian, Chinese", "hours": "9am\u201310pm(Mon-Sun)", "Cost for two": "\u20b9300"}, {"Name": "Shawarma Wala", "Rating": "3.7", "votes": "57", "location": " Shop 1, Plot 7, Shivpuri, Geeta Colony, New Delhi", "Cuisines: ": "Rolls, Lebanese", "hours": "2pm\u20132am(Mon-Sun)", "Cost for two": "\u20b9250"}, {"Name": "Amulya Bhojan", "Rating": "3.3", "votes": "13", "location": " A 207, Ground Floor, Road 4, Mahipalpur, New Delhi", "Cuisines: ": "North Indian", "hours": "10am\u20133am(Mon-Sun)", "Cost for two": "\u20b9350"}, {"Name": "Raw Creams", "Rating": "4.1", "votes": "550", "location": " 2509, Ground floor, Hudson Lane, Hudson Lane, Delhi University-GTB Nagar, New Delhi", "Cuisines: ": "Ice Cream, Desserts, Fast Food", "hours": "12noon\u201312midnight(Mon-Sun)", "Cost for two": "\u20b9300"}, {"Name": "Yangkiez", "Rating": "3.9", "votes": "179", "location": " Shop 6, C-70, Malviya Nagar, New Delhi", "Cuisines: ": "Chinese, Momos", "hours": "9am\u201312midnight(Mon-Sun)", "Cost for two": "\u20b9500"}, {"Name": "Fourty Four", "Rating": "4.4", "votes": "305", "location": " A 15/18, Sector 44, Noida", "Cuisines: ": "Sandwich, Fast Food, Beverages", "hours": "7am\u201312:30pm(Mon-Sun)", "Cost for two": "\u20b9700"}, {"Name": "Da Pepper Pizza", "Rating": "3.5", "votes": "41", "location": " I 41, Hari Nagar Extension, Main Jaipur Road, Badarpur Border, Faridabad", "Cuisines: ": "Fast Food, Pizza", "hours": "10am\u201310pm(Mon-Sun)", "Cost for two": "\u20b9500"}, {"Name": "Maxi Burger", "Rating": "3.5", "votes": "34", "location": " Shop 632/7, Govindpuri, Kalkaji, New Delhi", "Cuisines: ": "Burger, Fast Food", "hours": "10am\u201312midnight(Mon-Sun)", "Cost for two": "\u20b9300"}, {"Name": "Brew N Barrel", "Rating": "3.7", "votes": "361", "location": " SF-1, Level 2, Parsavnath City Mall, Sector 12, Faridabad", "Cuisines: ": "North Indian, Asian, Continental, Italian", "hours": "11:30am\u201311:30pm(Mon-Sun)", "Cost for two": "\u20b92,000"}, {"Name": "The Black Coffee Cafe", "Rating": "3.9", "votes": "157", "location": " Shop 12, Godavari Market, Sector 37, Noida", "Cuisines: ": "Cafe, American, Fast Food, Beverages", "hours": "9am\u201310pm(Mon-Sun)", "Cost for two": "\u20b9450"}, {"Name": "Lucknawi Zaika Kabab House", "Rating": "NEW", "votes": "157", "location": " Shop 89, Huda Market, Sector 37, Faridabad", "Cuisines: ": "Mughlai, Rolls", "hours": "4pm\u201311pm(Mon-Sun)", "Cost for two": "\u20b9300"}, {"Name": "Shri Hari Sharnam", "Rating": "3.6", "votes": "77", "location": " 1490-91, Kashmiri Gate, New Delhi", "Cuisines: ": "North Indian, South Indian, Chinese", "hours": "8am\u201311pm(Mon-Sun)", "Cost for two": "\u20b9350"}, {"Name": "369 Chowranghee", "Rating": "3.9", "votes": "168", "location": " Crescent Square, Opposite Kamdhenu Apartment, DC Chowk, Sector 9, Rohini, New Delhi", "Cuisines: ": "Rolls", "hours": "11am\u201311pm(Mon-Sun)", "Cost for two": "\u20b9450"}]