[{"Name": "Asian Bowl", "Rating": "3.7", "votes": "45", "location": " Lower Ground Floor, Centre Stage Mall, Sector 18, Noida", "Cuisines: ": "Chinese", "hours": "11am\u201311pm(Mon-Sun)", "Cost for two": "\u20b9550"}, {"Name": "Al Mezbaan Chicken Point", "Rating": "NEW", "votes": "45", "location": " 36 Miles, Azzi Colony, Opposite Anaj Mandi, Ballabhgarh, Faridabad", "Cuisines: ": "North Indian", "hours": "1pm\u201311pm(Mon-Sun)", "Cost for two": "\u20b9300"}, {"Name": "Mustard Seed", "Rating": "NEW", "votes": "45", "location": " S-23, Green Park Extension, Green Park, New Delhi", "Cuisines: ": "North Indian, North Eastern, Modern Indian", "hours": "12noon\u201311:30pm(Mon-Sun)", "Cost for two": "\u20b91,400"}, {"Name": "Adarsh Restaurant", "Rating": "3.3", "votes": "57", "location": " 1-A, Kamla Nagar, New Delhi", "Cuisines: ": "North Indian", "hours": "11am\u20134pm,7pm\u201311pm(Mon-Sun)", "Cost for two": "\u20b9300"}, {"Name": "Dragon Hut", "Rating": "3.8", "votes": "466", "location": " AP Block Market, Near Corporation Bank ATM, Pitampura, New Delhi", "Cuisines: ": "Chinese", "hours": "11am\u201311pm(Mon-Sun)", "Cost for two": "\u20b9500"}, {"Name": "Vikash Prince Food", "Rating": "4.0", "votes": "89", "location": " DLF Golf Links, Near American Express, Golf Course Road, Gurgaon", "Cuisines: ": "North Indian, Fast Food", "hours": "10am\u201310pm(Mon-Sun)", "Cost for two": "\u20b9250"}, {"Name": "Super Fine Chicken Biryani", "Rating": "3.4", "votes": "448", "location": " A-119, Near J&K Bank, Opposite Campus Showroom, Sector 7, Dwarka, New Delhi", "Cuisines: ": "Mughlai, Biryani, Chinese", "hours": "10am\u201310pm(Mon-Sun)", "Cost for two": "\u20b9450"}, {"Name": "Chinese Junction", "Rating": "3.2", "votes": "11", "location": " Q6, Mohan Garden, Uttam Nagar, New Delhi", "Cuisines: ": "Chinese, Momos, Fast Food", "hours": "11am\u201310pm(Mon-Sun)", "Cost for two": "\u20b9250"}, {"Name": "Sindhi Chat Corner", "Rating": "3.6", "votes": "47", "location": " D-79B, Moti Nagar, New Delhi", "Cuisines: ": "Street Food, Chinese", "hours": "11am\u201311pm(Mon-Sun)", "Cost for two": "\u20b9200"}, {"Name": "Muttu South Indian Anna", "Rating": "4.0", "votes": "202", "location": " C-15, Amar Colony Main Market, Amar Colony, New Delhi", "Cuisines: ": "South Indian, Chinese", "hours": "10am\u201310pm(Mon-Sun)", "Cost for two": "\u20b9300"}, {"Name": "Shake It Baby", "Rating": "4.0", "votes": "129", "location": " Shop 2, 2nd Floor, Ashoka Complex, Village Samaspur, Sector 51, Near Sector 50, Gurgaon", "Cuisines: ": "Beverages, Fast Food", "hours": "11am\u20133am(Mon-Sun)", "Cost for two": "\u20b9300"}, {"Name": "InstaDozza", "Rating": "3.9", "votes": "420", "location": " Inside Rapid Metro Station, DLF Phase 3, Gurgaon", "Cuisines: ": "South Indian", "hours": "8am\u201311pm(Mon-Sun)", "Cost for two": "\u20b9300"}, {"Name": "Salad Company", "Rating": "4.0", "votes": "211", "location": " Delivery Only", "Cuisines: ": "Healthy Food, Salad, Beverages", "hours": "9am\u201310pm(Mon-Sun)", "Cost for two": "\u20b9600", "Featured in: ": "Counting Calories? Try These Places"}, {"Name": "Delhi 38", "Rating": "3.5", "votes": "22", "location": " 599, Opposte Chandra Garden, Rajokri, New Delhi", "Cuisines: ": "Chinese, Fast Food", "hours": "12noon\u201310:30pm(Mon-Sun)", "Cost for two": "\u20b9500", "Featured in: ": "Counting Calories? Try These Places"}, {"Name": "Rama Poori Sabzi Special Tawa Parantha", "Rating": "3.4", "votes": "95", "location": " Plot 1, Khyala Road, Vishnu Ggarden, Opposite Shitla Mata Mandir, Janakpuri, New Delhi", "Cuisines: ": "North Indian", "hours": "7am\u201311:30pm(Mon-Sun)", "Cost for two": "\u20b9300", "Featured in: ": "Counting Calories? Try These Places"}]