[{"Name": "Maayas Sweets", "Rating": "3.1", "votes": "5", "location": " Shop 5, Paramaount Spectrum, Crossing Republik, Ghaziabad", "Cuisines: ": "Mithai, Chinese, South Indian, North Indian, Street Food", "hours": "8am\u201310:30pm(Mon-Sun)", "Cost for two": "\u20b9300"}, {"Name": "Tyagi Food Junction", "Rating": "NEW", "votes": "5", "location": " Shop 67, Street Food Market, Near Huda Market, Sector 56, Gurgaon", "Cuisines: ": "North Indian, Chinese", "hours": "11am\u201311pm(Mon-Sun)", "Cost for two": "\u20b9250"}, {"Name": "Tandoori Nights", "Rating": "3.1", "votes": "4", "location": " 11/19, Subash Nagar, New Delhi", "Cuisines: ": "North Indian, Mughlai, Momos", "hours": "11am\u20132pm,5pm\u201311:30pm(Mon-Sun)", "Cost for two": "\u20b9500"}, {"Name": "Oriental Kitchen", "Rating": "NEW", "votes": "4", "location": " Opposite NHPC Colony, Suraj Kund, Faridabad", "Cuisines: ": "Chinese", "hours": "11am\u201311pm(Mon-Sun)", "Cost for two": "\u20b9350"}, {"Name": "Red Chilli", "Rating": "3.4", "votes": "117", "location": " A 1/153, Safdarjung Enclave, Safdarjung, New Delhi", "Cuisines: ": "North Indian, Chinese, Mughlai", "hours": "12noon\u201311pm(Mon,Wed,Thu,Fri,Sat,Sun)...", "Cost for two": "\u20b9900"}, {"Name": "Eatplicity Foods", "Rating": "3.2", "votes": "9", "location": " Plot 668, Islampur Colony, Sector 38, Sohna Road, Gurgaon", "Cuisines: ": "North Indian, South Indian, Chinese", "hours": "7am\u201311pm(Mon-Sun)", "Cost for two": "\u20b9300"}, {"Name": "Shri Shyam Rasoi", "Rating": "-", "votes": "9", "location": " G58, H9, Vardhaman Coorporate Plaza, Netaji Subhash Place, New Delhi", "Cuisines: ": "North Indian", "hours": "11am\u20134pm(Mon-Sun)", "Cost for two": "\u20b9150"}, {"Name": "The Fat Bird Bakery", "Rating": "3.7", "votes": "21", "location": " Plot 27, Mamura, Sector 66, Sector 71, Noida", "Cuisines: ": "Bakery, Desserts", "hours": "9am\u20139pm(Mon-Sun)", "Cost for two": "\u20b9500"}, {"Name": "The Pizza Theatre", "Rating": "2.7", "votes": "13", "location": " Shop 204, Main Agwanpur Road, Sector 91, Near Sector 37, Faridabad", "Cuisines: ": "Pizza, Fast Food", "hours": "11am\u201311pm(Mon-Sun)", "Cost for two": "\u20b9350"}, {"Name": "South Corner", "Rating": "2.6", "votes": "17", "location": " Shop 2, C-14 B, Panchsheel Vihar, Malviya Nagar, New Delhi", "Cuisines: ": "South Indian", "hours": "10am\u201311pm(Mon-Sun)", "Cost for two": "\u20b9200"}, {"Name": "Fusion Parantha", "Rating": "3.4", "votes": "29", "location": " Delivery Only", "Cuisines: ": "North Indian", "hours": "10am\u201312midnight(Mon-Sun)", "Cost for two": "\u20b9300"}, {"Name": "Mohit Bakery", "Rating": "3.6", "votes": "22", "location": " Shop B6, Gali 1, Saidulajab, Saket, New Delhi", "Cuisines: ": "Bakery, Desserts, Fast Food", "hours": "8am\u201310pm(Mon-Sun)", "Cost for two": "\u20b9250"}, {"Name": "Cake Walker", "Rating": "3.7", "votes": "20", "location": " G-90, Aggarwal Millenium Tower 2, Netaji Subhash Place, New Delhi", "Cuisines: ": "Bakery", "hours": "9am\u201311pm(Mon-Sun)", "Cost for two": "\u20b9350"}, {"Name": "Meals4One", "Rating": "4.2", "votes": "135", "location": " 4/9, Rattan Garden, New Colony, Sector 7, Gurgaon", "Cuisines: ": "North Indian", "hours": "12noon\u201311pm(Mon-Sun)", "Cost for two": "\u20b9200"}, {"Name": "Indian Food", "Rating": "3.0", "votes": "5", "location": " H-64, Mohan Garden Extension, Uttam Nagar, New Delhi", "Cuisines: ": "South Indian, North Indian", "hours": "9am\u201312midnight(Mon-Sun)", "Cost for two": "\u20b9150"}]