[{"Name": "Wow! Noodle", "Rating": "4.3", "votes": "152", "location": " L Block Market, Behind Metro Hospital, Sector 11, Noida", "Cuisines: ": "Chinese, Thai", "hours": "11am\u201311pm(Mon-Sun)", "Cost for two": "\u20b9500"}, {"Name": "Ek Bar", "Rating": "4.0", "votes": "515", "location": " D-17, 1st Floor, Defence Colony, New Delhi", "Cuisines: ": "Modern Indian, Bar Food, North Indian, Continental", "hours": "5pm\u20131am(Mon-Sun)", "Cost for two": "\u20b92,400"}, {"Name": "Mondo Pizza And Cafe", "Rating": "3.8", "votes": "87", "location": " Rz-146, Madya Marg, Main Jagdanba Road, Tughlakabad Institutional Area, New Delhi", "Cuisines: ": "Pizza, Fast Food", "hours": "7am\u20136am(Mon-Sun)", "Cost for two": "\u20b9500"}, {"Name": "Shiv Tikki Wala", "Rating": "4.2", "votes": "1299", "location": " Ground Floor, Pramesh Tower, Karkardooma Community Centre, Karkardooma, New Delhi", "Cuisines: ": "Street Food, North Indian", "hours": "4pm\u201311pm(Mon-Sun)", "Cost for two": "\u20b9250"}, {"Name": "Ghee Shakkar", "Rating": "4.0", "votes": "95", "location": " 819/35, 1st Floor, Main Road, Rajeev Nagar West, Opposite HP Petrol Pump, Sector-12, Gurgaon", "Cuisines: ": "North Indian, Beverages", "hours": "8am\u20134am(Mon-Sun)", "Cost for two": "\u20b9300"}, {"Name": "Chawla Dillivala", "Rating": "4.1", "votes": "179", "location": " A-4/18, Krishna Nagar, New Delhi", "Cuisines: ": "North Indian, Mughlai", "hours": "12midnight\u201312:15pm,11pm\u201312midnight(Mon-Sun)", "Cost for two": "\u20b9600"}, {"Name": "Dhaba 29", "Rating": "4.3", "votes": "672", "location": " SCO 33, Sector 29, Gurgaon", "Cuisines: ": "North Indian, Kebab, Beverages", "hours": "11am\u20134am(Mon-Sun)", "Cost for two": "\u20b91,400"}, {"Name": "Office Hunt", "Rating": "NEW", "votes": "672", "location": " D-357, First Floor, Near Kela Godown, Ganesh Nagar, Akshardham, Near Pandav Nagar, New Delhi", "Cuisines: ": "North Indian", "hours": "11am\u201311pm(Mon-Sun)", "Cost for two": "\u20b9200"}, {"Name": "Ramesh Dhaba & Chinar Sweets", "Rating": "3.7", "votes": "691", "location": " Plot 128, Phase 1, Udyog Vihar, Gurgaon", "Cuisines: ": "North Indian, Mithai", "hours": "9am\u201311pm(Mon-Sun)", "Cost for two": "\u20b9250"}, {"Name": "Grand Peshawari", "Rating": "3.8", "votes": "76", "location": " Shop 26 KD Block, DDA Market, Pitampura, New Delhi", "Cuisines: ": "North Indian", "hours": "12noon\u20134pm,6:30pm\u201311:30pm(Mon-Sun)", "Cost for two": "\u20b9400"}, {"Name": "Meatwale. Com", "Rating": "3.8", "votes": "109", "location": " A-4/9, Main Jheel Road, Krishna Nagar, New Delhi", "Cuisines: ": "Raw Meats, North Indian", "hours": "10:30am\u201312midnight(Mon-Sun)", "Cost for two": "\u20b9300"}, {"Name": "Sandwedges", "Rating": "4.1", "votes": "768", "location": " C 74, RDC, Opposite Indian Oil Petrol Pump, Raj Nagar, Ghaziabad", "Cuisines: ": "Fast Food", "hours": "11am\u201312:30am(Mon-Sun)", "Cost for two": "\u20b9200"}, {"Name": "The Khichdi Store", "Rating": "4.4", "votes": "74", "location": " S-27/11, Nathupur, DLF Phase 3, Gurgaon", "Cuisines: ": "Healthy Food", "hours": "11am\u201311pm(Mon-Sun)", "Cost for two": "\u20b9400"}, {"Name": "Too Mikkii Tapas", "Rating": "4.1", "votes": "1038", "location": " Opposite Taj Hotel, Chanakyapuri, New Delhi", "Cuisines: ": "Cafe, Italian, Continental", "hours": "8:30am\u201312midnight(Mon-Fri),9:30am\u2013...", "Cost for two": "\u20b9700"}, {"Name": "Road To Chinese", "Rating": "4.4", "votes": "126", "location": " J-13/47, Rajouri Garden, New Delhi", "Cuisines: ": "Chinese", "hours": "12noon\u20131:30am(Mon-Sun)", "Cost for two": "\u20b9600"}]