[{"Name": "Fish And Chicken", "Rating": "-", "location": " R 9/3K, Near Police Chowki, Sector 9, Raj Nagar, Ghaziabad", "Cuisines: ": "North Indian", "hours": "5pm\u201311:30pm(Mon-Sun)", "Cost for two": "\u20b9400"}, {"Name": "New Kovilakam Restaurant", "Rating": "3.4", "location": " A 70/3, Gali 5, Madhu Vihar, IP Extension, New Delhi", "Cuisines: ": "Kerala, South Indian", "hours": "10am\u201310pm(Mon-Sun)", "Cost for two": "\u20b9400", "votes": "43"}, {"Name": "The Oberoi Patisserie and Delicatessen - The Oberoi", "Rating": "3.7", "location": " The Oberoi, Dr. Zakir Hussain Marg, New Delhi", "Cuisines: ": "Bakery, Desserts", "hours": "9am\u20139pm(Mon-Sun)", "Cost for two": "\u20b93,000", "votes": "34"}, {"Name": "Bansi Wala Sweets", "Rating": "3.7", "location": " Shop 3, CSC 2, DDA Market, Sector 13, Rohini, New Delhi", "Cuisines: ": "Mithai, Street Food", "hours": "7am\u201310pm(Mon-Sun)", "Cost for two": "\u20b9250", "votes": "249"}, {"Name": "Le Himalaya", "Rating": "4.0", "location": " Shop 9, 1st Floor, Corner Market, Malviya Nagar, New Delhi", "Cuisines: ": "Tibetan, Chinese, Nepalese, Momos", "hours": "8am\u20133:30am(Mon-Sun)", "Cost for two": "\u20b9500", "votes": "461"}, {"Name": "Foodicius", "Rating": "3.0", "location": " B 291, Phase 2, Sector 110, 40 Feet Bajghera, PS Road, New Palam Vihar, Gurgaon", "Cuisines: ": "North Indian, Chinese, Mughlai, Pizza, Fast Food, Street Food, Desserts", "hours": "11:30am\u201311pm(Mon,Wed,Thu,Fri,Sat,Sun),5pm...", "Cost for two": "\u20b9300", "votes": "18"}, {"Name": "Be Raw", "Rating": "3.5", "location": " Room 1, Omaxe Nile EWS Society, Sector 49, Gurgaon", "Cuisines: ": "Healthy Food", "hours": "8am\u20139:30pm(Mon-Sat),9:30am\u20132pm(Sun)", "Cost for two": "\u20b9200", "votes": "22"}, {"Name": "Kings Kitchen By Raja Dhaba", "Rating": "3.7", "location": " Shop 47, 2nd Floor, Jagat Plaza 2, Gamma 1, Greater Noida", "Cuisines: ": "North Indian, Chinese, Mughlai, Rolls, Desserts", "hours": "11am\u201311pm,12midnight\u20132am(Mon-Sun)", "Cost for two": "\u20b9550", "votes": "26"}, {"Name": "Pizza Castle", "Rating": "2.8", "location": " Shop 1, Staller Jeevan Society, Sector 1, Amrapali Leisure Valley, Greater Noida", "Cuisines: ": "Pizza, Fast Food", "hours": "11:30am\u201310:30pm(Mon-Sun)", "Cost for two": "\u20b9400", "votes": "22"}, {"Name": "Krish Food Point", "Rating": "3.5", "location": " Nath Complex, Near Chhoti Mata, Sector 17, Gurgaon", "Cuisines: ": "North Indian, Mughlai", "hours": "11am\u201311pm(Mon-Sun)", "Cost for two": "\u20b9300", "votes": "58"}, {"Name": "Kumar Pav Bhaji Corner", "Rating": "3.9", "location": " Main Road, Jhilmil Colony, Vivek Vihar, New Delhi", "Cuisines: ": "Fast Food", "hours": "5pm\u201310pm(Mon-Sun)", "Cost for two": "\u20b9200", "votes": "151"}, {"Name": "Cafe Hut-K", "Rating": "3.8", "location": " F-3/10, Krishna Nagar, New Delhi", "Cuisines: ": "Fast Food, North Indian, Chinese", "hours": "12:30pm\u201311:50pm(Mon-Sun)", "Cost for two": "\u20b9550", "votes": "197"}, {"Name": "Bombay Best Pav Bhaji", "Rating": "3.9", "location": " Sector 4, Gurgaon", "Cuisines: ": "Street Food", "hours": "3pm\u201311pm(Mon-Sun)", "Cost for two": "\u20b9100", "votes": "202"}, {"Name": "Tikke Te Boti", "Rating": "3.5", "location": " Shop 45, Huda Market, Sector 10 A, Near Sector 37, Gurgaon", "Cuisines: ": "North Indian", "hours": "9am\u201311pm(Mon,Tue,Wed,Fri,Sat,Sun),9:30am...", "Cost for two": "\u20b9200", "votes": "26"}, {"Name": "29 India States Food", "Rating": "3.8", "location": " G-26, PVT-4/5, F/F, South Extension 1, New Delhi", "Cuisines: ": "South Indian, North Indian", "hours": "8am\u20133am(Mon-Sun)", "Cost for two": "\u20b9750", "votes": "45"}]