[{"Name": "Food Strikers", "Rating": "4.1", "votes": "365", "location": " SCO 20, Near Union Bank, MG Road, Gurgaon", "Cuisines: ": "North Indian, Chinese", "hours": "8:30am\u20132am(Mon-Sun)", "Cost for two": "\u20b9250"}, {"Name": "Baraamda Heritage", "Rating": "3.4", "votes": "23", "location": " 11, Paras Tierea, Sector 137, Near Sector 132, Noida", "Cuisines: ": "North Indian, Fast Food", "hours": "10am\u201311pm(Mon-Sun)", "Cost for two": "\u20b9800"}, {"Name": "Kartoon Cafe", "Rating": "4.0", "votes": "345", "location": " C-4F/246, Janakpuri, New Delhi", "Cuisines: ": "Cafe, North Indian, Chinese, Continental, Desserts, Italian, Beverages", "hours": "10:30am\u201310:30pm(Mon-Sun)", "Cost for two": "\u20b9650"}, {"Name": "Ashoka Sweets & Restaurant", "Rating": "3.7", "votes": "403", "location": " Main Market, Sector 16, Faridabad", "Cuisines: ": "North Indian, Mithai", "hours": "8am\u20135pm,6pm\u201311:30pm(Mon-Sun)", "Cost for two": "\u20b9400"}, {"Name": "Chilly China", "Rating": "4.1", "votes": "447", "location": " Shop G 14, Sushant Shopping Arcade, Sushant Lok, Gurgaon", "Cuisines: ": "Chinese", "hours": "11am\u20135am(Mon-Sun)", "Cost for two": "\u20b9600"}, {"Name": "Shunty Chickenwala", "Rating": "NEW", "votes": "447", "location": " J/57 Milap Market, Beriwala Bagh, Subhash Nagar, New Delhi", "Cuisines: ": "North Indian", "hours": "12noon\u20133am(Mon-Sun)", "Cost for two": "\u20b9400"}, {"Name": "Har Shaam", "Rating": "NEW", "votes": "447", "location": " Shop WZ-49D/1, Near Bank Of Patiala, Palam, New Delhi", "Cuisines: ": "Chinese", "hours": "11am\u201311pm(Mon-Sun)", "Cost for two": "\u20b9350"}, {"Name": "Aartibakes", "Rating": "4.2", "votes": "301", "location": " Delivery Only", "Cuisines: ": "Bakery, Desserts", "hours": "10am\u20137pm(Mon-Sat),Closed(Sun)", "Cost for two": "\u20b9400"}, {"Name": "Badshah Pure Non Vegetarian", "Rating": "3.8", "votes": "119", "location": " A 19, 3rd Floor, Panchsheel Vihar, Malviya Nagar, New Delhi", "Cuisines: ": "North Indian, Mughlai, Chinese", "hours": "24Hours(Mon-Sun)", "Cost for two": "\u20b9600"}, {"Name": "Dolphins", "Rating": "3.6", "votes": "216", "location": " KG1/1, Vikaspuri, New Delhi", "Cuisines: ": "North Indian, Mughlai", "hours": "6pm\u201310:30pm(Mon,Wed,Thu,Fri,Sat,Sun)...", "Cost for two": "\u20b9600"}, {"Name": "Smokehouse Burger", "Rating": "4.1", "votes": "214", "location": " 39 A, Patel Lok Sansthan, Near Kaushalya Girls Hostel, Knowledge Park 3, Greater Noida", "Cuisines: ": "Burger, Fast Food, Desserts, Beverages", "hours": "9am\u201311pm(Mon-Sun)", "Cost for two": "\u20b9300"}, {"Name": "Parantha Pundit", "Rating": "3.2", "votes": "5", "location": " Collection O 218, D 2020, Terrace, Near Vyapar Kendra, Palam Vihar, Gurgaon", "Cuisines: ": "North Indian, Beverages", "hours": "8am\u201311pm(Mon-Sun)", "Cost for two": "\u20b9200"}, {"Name": "Chhichhore Tandoor", "Rating": "3.6", "votes": "47", "location": " Shop-10, Crescent Square Mall, DC Chowk, Sector-9, Rohini, New Delhi", "Cuisines: ": "Mughlai, Chinese, North Indian, Rolls", "hours": "11am\u201312midnight(Mon-Sun)", "Cost for two": "\u20b9700"}, {"Name": "Shahi Chicken Biryani", "Rating": "3.7", "votes": "89", "location": " Makanpur Mata Chowk, Near Akhilesh Ved, Indirapuram, Ghaziabad", "Cuisines: ": "Biryani, North Indian", "hours": "24Hours(Mon-Sun)", "Cost for two": "\u20b9450"}, {"Name": "Shah Ji Di Hatti", "Rating": "4.0", "votes": "163", "location": " Shop 25, Subzi Market, Community Centre, Ramesh Nagar, Near Kirti Nagar, New Delhi", "Cuisines: ": "Chinese", "hours": "11am\u201311pm(Mon-Sun)", "Cost for two": "\u20b9400"}]