[{"Name": "Parathas.Live.One", "Rating": "3.7", "votes": "66", "location": " Delivery Only", "Cuisines: ": "North Indian", "hours": "24Hours(Mon-Sun)", "Cost for two": "\u20b9300"}, {"Name": "Dhaba 99", "Rating": "4.0", "votes": "119", "location": " GP 84 IE, HSIIDC, Sector 18, Near Sector 17, Gurgaon", "Cuisines: ": "North Indian", "hours": "11am\u201311pm(Mon-Sun)", "Cost for two": "\u20b9350"}, {"Name": "Tmos Moving Feast", "Rating": "3.8", "votes": "350", "location": " 156, Main Market, Sector 17, Faridabad", "Cuisines: ": "Chinese, North Indian, Momos", "hours": "12:30pm\u201310:30pm(Mon,Wed,Thu,Fri,Sat,Sun)...", "Cost for two": "\u20b9550"}, {"Name": "Cafe Maple Street", "Rating": "4.3", "votes": "51", "location": " Shop 3, Ground Floor, Chimes Tower, Vakil Market, Sector 28, DLF Phase 4, Gurgaon", "Cuisines: ": "Italian, Sandwich, Wraps, Fast Food, Beverages", "hours": "11am\u201311pm(Mon-Sun)", "Cost for two": "\u20b9500"}, {"Name": "Waffle Garage", "Rating": "3.5", "votes": "24", "location": " Shop 62, Huda Market, Sector 4, Gurgaon", "Cuisines: ": "Desserts, Beverages", "hours": "11am\u201311pm(Mon-Sun)", "Cost for two": "\u20b9350"}, {"Name": "Indo China express", "Rating": "NEW", "votes": "24", "location": " Block B 32, West Patel Nagar, New Delhi", "Cuisines: ": "Chinese, North Indian", "hours": "11am\u201311pm(Mon-Sun)", "Cost for two": "\u20b9500"}, {"Name": "Khalsa Restaurant 2.0", "Rating": "3.3", "votes": "12", "location": " Shop 7 & 8, 1st Floor, Corner Market, Malviya Nagar, New Delhi", "Cuisines: ": "Chinese, Mughlai, North Indian", "hours": "11am\u201311pm(Mon-Sun)", "Cost for two": "\u20b9550"}, {"Name": "Yamato", "Rating": "3.9", "votes": "36", "location": " 44F/9, 4th Floor, Rajendra Complex, Kishangarh, Vasant Kunj, New Delhi", "Cuisines: ": "Chinese, Tibetan", "hours": "12noon\u201311:30pm(Mon-Sun)", "Cost for two": "\u20b9700"}, {"Name": "City Spicee", "Rating": "3.7", "votes": "791", "location": " 3B/9, NIT 3, NIT, Faridabad", "Cuisines: ": "North Indian", "hours": "12noon\u201311pm(Mon-Sun)", "Cost for two": "\u20b9400"}, {"Name": "Shakti Restaurant", "Rating": "NEW", "votes": "791", "location": " 21, 24, Globus D, H Block, Sector 63, Noida", "Cuisines: ": "North Indian, Biryani, Chinese", "hours": "11am\u201311pm(Mon-Sun)", "Cost for two": "\u20b9450"}, {"Name": "TANDOORI HUT - Tandoori Taste Redifined", "Rating": "3.4", "votes": "16", "location": " A 115, Ground Floor, Kalkaji, New Delhi", "Cuisines: ": "North Indian", "hours": "Closed(Mon),5pm\u201312midnight(Tue-Sat),4:30pm\u2013...", "Cost for two": "\u20b9400"}, {"Name": "Kamal Dhaba", "Rating": "NEW", "votes": "16", "location": " A-695, Shastri Nagar, Model Town 1, New Delhi", "Cuisines: ": "North Indian", "hours": "12:30pm\u20133:30pm,6:30pm\u201311pm(Mon-Sun)", "Cost for two": "\u20b9200"}, {"Name": "ZEST Astor18 Bar And Lounge", "Rating": "3.6", "votes": "352", "location": " K 24, Near HSBC Bank, Sector 18, Noida", "Cuisines: ": "Finger Food, North Indian", "hours": "12noon\u201312midnight(Mon-Sun)", "Cost for two": "\u20b91,500", "Featured in: ": "Get flat 30% OFF"}, {"Name": "Tod-Bistro Cafe", "Rating": "3.5", "votes": "112", "location": " G- 10, Plot 26/1, Vardhman Valley, Next to Sharda Gol Chakkar, Knowledge Park 3, Knowledge Park, Greater Noida", "Cuisines: ": "Fast Food, Momos", "hours": "11am\u201310:30pm(Mon-Sun)", "Cost for two": "\u20b9300", "Featured in: ": "Get flat 30% OFF"}, {"Name": "Taste Of Punjab", "Rating": "3.7", "votes": "55", "location": " BS-83B, Shalimar Bagh, New Delhi", "Cuisines: ": "North Indian, Fast Food", "hours": "10am\u201311pm(Mon-Sun)", "Cost for two": "\u20b9300", "Featured in: ": "Get flat 30% OFF"}]