[{"Name": "The Pasta Story", "Rating": "3.5", "votes": "25", "location": " A-58, Harijan Colony, Sawan Park, Ashok Vihar Phase 3, New Delhi", "Cuisines: ": "Fast Food, Beverages", "hours": "8am\u20134am(Mon-Sun)", "Cost for two": "\u20b9350"}, {"Name": "Mr. Tibetan", "Rating": "-", "votes": "25", "location": " L 31, Near Rickshaw Stand, West Patel Nagar, New Delhi", "Cuisines: ": "Tibetan, Chinese", "hours": "11am\u201311pm(Mon-Sun)", "Cost for two": "\u20b9550"}, {"Name": "TOC - Take Off China", "Rating": "3.2", "votes": "11", "location": " A-14, Ground Floor, Om Vihar, Uttam Nagar, New Delhi", "Cuisines: ": "Chinese, Momos, Rolls", "hours": "11:30am\u201310:30pm(Mon,Wed,Thu,Fri,Sat,Sun)...", "Cost for two": "\u20b9300"}, {"Name": "Aka Saka", "Rating": "3.5", "votes": "238", "location": " 28, Main Market, Defence Colony, New Delhi", "Cuisines: ": "Chinese, Japanese", "hours": "11:30am\u201311:30pm(Mon-Sun)", "Cost for two": "\u20b91,600"}, {"Name": "Juniper Bar - Andaz Delhi", "Rating": "3.9", "votes": "91", "location": " Andaz Delhi, Asset 1, Aerocity, New Delhi", "Cuisines: ": "North Indian, European", "hours": "11am\u201312midnight(Mon-Sun)", "Cost for two": "\u20b91,500"}, {"Name": "Pastry Shop", "Rating": "3.6", "votes": "73", "location": " 3E/78, NIT, Faridabad", "Cuisines: ": "Bakery, Desserts", "hours": "10am\u201310pm(Mon-Sun)", "Cost for two": "\u20b9400"}, {"Name": "Moet's Sizzlers", "Rating": "2.9", "votes": "590", "location": " 27, Defence Colony Main Market, Defence Colony, New Delhi", "Cuisines: ": "Continental", "hours": "12noon\u201311pm(Mon-Sun)", "Cost for two": "\u20b91,600"}, {"Name": "Insta Cook", "Rating": "NEW", "votes": "590", "location": " Shop UGF 59, Upper Ground Floor, Sushant Vypar Kendra, C block, Sushant Lok, Gurgaon", "Cuisines: ": "Street Food, Salad", "hours": "11am\u201311pm(Mon-Sun)", "Cost for two": "\u20b9300"}, {"Name": "Kyandi", "Rating": "-", "votes": "590", "location": " Shop 121, Block 2, Satyaniketan, New Delhi", "Cuisines: ": "Chinese, Thai", "hours": "10am\u201311pm(Mon-Sun)", "Cost for two": "\u20b9800"}, {"Name": "The Glass Bee", "Rating": "NEW", "votes": "590", "location": " Delivery Only", "Cuisines: ": "Continental", "hours": "12:30pm\u201312midnight(Mon-Sun)", "Cost for two": "\u20b9300"}, {"Name": "The Calorie Kitchen", "Rating": "3.9", "votes": "395", "location": " 2nd Floor, Good Earth City Center, Sector 50, Gurgaon", "Cuisines: ": "Healthy Food, North Indian, Italian, Beverages", "hours": "7am\u201310:30pm(Mon-Sat),12noon\u201310:30pm(Sun)", "Cost for two": "\u20b9850"}, {"Name": "Manoj Variety Samose Wala", "Rating": "3.5", "votes": "39", "location": " Opposite Durga Mandir, Ashok Nagar, Tilak Nagar, New Delhi", "Cuisines: ": "Street Food", "hours": "9am\u20139pm(Mon-Sun)", "Cost for two": "\u20b9100"}, {"Name": "Indian Masala Twist", "Rating": "3.2", "votes": "8", "location": " B 4, 121, B Block, Near Doctor Lal Path Lab, Yamuna Vihar, Shahdara, New Delhi", "Cuisines: ": "North Indian, Chinese, South Indian", "hours": "10am\u201310:30pm(Mon-Sun)", "Cost for two": "\u20b9250"}, {"Name": "Basil Tree", "Rating": "4.1", "votes": "498", "location": " City Center Mall, Sector 12, Dwarka, New Delhi", "Cuisines: ": "North Indian, Italian, Chinese", "hours": "12noon\u201311pm(Mon-Sun)", "Cost for two": "\u20b91,000"}, {"Name": "Dragon Hut Inn", "Rating": "3.4", "votes": "10", "location": " Near M2K, Rani Bagh, Pitampura, New Delhi", "Cuisines: ": "Chinese", "hours": "11am\u201311pm(Mon-Sun)", "Cost for two": "\u20b9300"}]