[{"Name": "Zoyo Restro", "Rating": "3.6", "votes": "56", "location": " Q1/165, South City 2, Near Park Hospital, Sector 49, Gurgaon", "Cuisines: ": "North Indian, Fast Food, Chinese", "hours": "12midnight\u20136am,6pm\u201312midnight(Mon-Sun)", "Cost for two": "\u20b9500"}, {"Name": "The Kitch-INN", "Rating": "4.1", "votes": "115", "location": " Shop 150, Near Pillar 49, Sultanpur Metro Station, MG Road, New Delhi", "Cuisines: ": "North Indian, Rolls", "hours": "12noon\u20134pm,6:30pm\u20133am(Mon-Sun)", "Cost for two": "\u20b9450"}, {"Name": "Ashirwad Restaurant", "Rating": "3.7", "votes": "550", "location": " SCO 18 & 19, HUDA Market, Sector 16, Faridabad", "Cuisines: ": "North Indian, South Indian, Fast Food, Chinese", "hours": "10am\u201311pm(Mon-Sun)", "Cost for two": "\u20b9600"}, {"Name": "Deepak Chaat Bhandaar", "Rating": "3.7", "votes": "113", "location": " DDA market, Near Swastik Kunj Appartment, Sector 13, Rohini, New Delhi", "Cuisines: ": "Street Food", "hours": "7pm\u20139:30pm(Mon-Sun)", "Cost for two": "\u20b9100"}, {"Name": "The Cake-Kerry Company", "Rating": "NEW", "votes": "113", "location": " 591, Saraswati Kunj, Golf Course Road, Sector 53, Gurgaon", "Cuisines: ": "Desserts, Bakery", "hours": "10am\u20138pm(Mon-Sun)", "Cost for two": "\u20b9300"}, {"Name": "Chatoro Ka Adda", "Rating": "3.3", "votes": "10", "location": " 148 D, 1st Floor, Raheja Mall, Sector 48, Sohna Road, Gurgaon", "Cuisines: ": "North Indian, Chinese, Fast Food", "hours": "11am\u201311pm(Mon-Sun)", "Cost for two": "\u20b9450"}, {"Name": "Dawat E Khaas", "Rating": "3.3", "votes": "71", "location": " B-1, Ajnara Complex, Gyan Khand 2, Indirapuram, Ghaziabad", "Cuisines: ": "North Indian", "hours": "24Hours(Mon-Sun)", "Cost for two": "\u20b9350"}, {"Name": "Bigg Burger New Zealand", "Rating": "3.6", "votes": "34", "location": " Paramount spectrum, Crossing Republik, Ghaziabad", "Cuisines: ": "Burger, Fast Food", "hours": "5pm\u201311pm(Mon-Sun)", "Cost for two": "\u20b9200"}, {"Name": "Play Pizza", "Rating": "3.8", "votes": "849", "location": " Shop 2, Opposite V3S Mall, DDA Market, Laxmi Nagar, New Delhi", "Cuisines: ": "Pizza, Fast Food", "hours": "11am\u20131am(Mon-Sun)", "Cost for two": "\u20b9600"}, {"Name": "New Delight", "Rating": "3.5", "votes": "94", "location": " H 147, Sector 10, Faridabad", "Cuisines: ": "North Indian", "hours": "12noon\u201311pm(Mon-Sun)", "Cost for two": "\u20b9500"}, {"Name": "Sehyog Alpahar", "Rating": "3.8", "votes": "212", "location": " Block 3, Main Market, Shivaji Marg Flyover, Tilak Nagar, New Delhi", "Cuisines: ": "South Indian, Chinese, Fast Food", "hours": "10am\u201310:30pm(Mon-Sun)", "Cost for two": "\u20b9150"}, {"Name": "Gupha Restaurant", "Rating": "3.5", "votes": "258", "location": " 10, New Complex Market, Near Ambedkar Chowk, Ballabhgarh, Faridabad", "Cuisines: ": "North Indian, Chinese", "hours": "11am\u201311pm(Mon-Sun)", "Cost for two": "\u20b9600"}, {"Name": "Castle 24 Lounge & Bar", "Rating": "3.8", "votes": "49", "location": " City Square Mall, Rajouri Garden Extension, Rajouri Garden, New Delhi", "Cuisines: ": "Finger Food, Continental", "hours": "12noon\u20131am(Mon-Sun)", "Cost for two": "\u20b91,600"}, {"Name": "Cake 14x7", "Rating": "NEW", "votes": "49", "location": " 405, Main Sohna Road, Opposite JMD Garden, Sohna Road, Gurgaon", "Cuisines: ": "Bakery", "hours": "11am\u20131am(Mon-Sun)", "Cost for two": "\u20b9400"}, {"Name": "Best Muradabadi Biryani", "Rating": "3.6", "votes": "235", "location": " Plot 9, GTB Nagar, Banda Bahadur Marg, Mukherjee Nagar, Delh.", "Cuisines: ": "North Indian", "hours": "10am\u201311:30pm(Mon-Sun)", "Cost for two": "\u20b9300"}]