[{"Name": "34, Chowringhee Lane", "Rating": "3.7", "votes": "80", "location": " Tapooz Food Court, Rajiv Chowk Metro Station, Connaught Place, New Delhi", "Cuisines: ": "Rolls", "hours": "12noon\u201311pm(Mon-Sun)", "Cost for two": "\u20b9350"}, {"Name": "Filmy Cafe & Bar", "Rating": "3.6", "votes": "606", "location": " H-Block, 1st Floor, PVR Plaza Cinema Building, Connaught Place, New Delhi", "Cuisines: ": "North Indian, Chinese, Continental", "hours": "12noon\u201312midnight(Mon-Sun)", "Cost for two": "\u20b91,200"}, {"Name": "Dragon's Maharani", "Rating": "3.2", "votes": "51", "location": " K-24, Opposite PVR Plaza Cinema, Connaught Place, New Delhi", "Cuisines: ": "North Indian, Thai, Chinese", "hours": "12noon\u201311:30pm(Mon-Sun)", "Cost for two": "\u20b91,500"}, {"Name": "Tewari Bros Confectioners", "Rating": "3.4", "votes": "33", "location": " 73, Municipal Market, Connaught Circus, Connaught Place, New Delhi", "Cuisines: ": "Street Food, North Indian, South Indian, Mithai", "hours": "9am\u201310:45pm(Mon-Sun)", "Cost for two": "\u20b9350"}, {"Name": "C9 Pub", "Rating": "3.7", "votes": "62", "location": " B-45-47, 1st Floor, Near PVR Plaza, Connaught Place, New Delhi", "Cuisines: ": "Finger Food, North Indian, Chinese", "hours": "12noon\u20131am(Mon-Sun)", "Cost for two": "\u20b91,200"}, {"Name": "Rolls Republic", "Rating": "3.1", "votes": "4", "location": " Naurang House, 21 KG Marg, Connaught Place, New Delhi", "Cuisines: ": "Rolls", "hours": "11am\u201311pm(Mon-Sun)", "Cost for two": "\u20b9350"}, {"Name": "Panchhi Petha", "Rating": "3.5", "votes": "51", "location": " Shop 101, Municipal Market, Outer Circle, Connaught Place, New Delhi", "Cuisines: ": "Mithai", "hours": "10am\u20139pm(Mon-Sun)", "Cost for two": "\u20b9200"}, {"Name": "Infinite Cafe", "Rating": "3.5", "votes": "39", "location": " H 35/10, Middle Circle, Opposite Bank Of Baroda, Connaught Place, New Delhi", "Cuisines: ": "Cafe, Fast Food", "hours": "9am\u201311pm(Mon-Sun)", "Cost for two": "\u20b9500"}, {"Name": "Chaurasia Fast Food", "Rating": "-", "votes": "39", "location": " Shop 8, H Block, Connaught Place, New Delhi", "Cuisines: ": "Fast Food, Beverages", "hours": "8am\u20138:30pm(Mon-Sun)", "Cost for two": "\u20b9150"}, {"Name": "Kaffa - The Hans", "Rating": "3.2", "votes": "25", "location": " The Hans, 15, Connaught Place, New Delhi", "Cuisines: ": "American, North Indian, Continental", "hours": "11am\u201310:30pm(Mon-Sun)", "Cost for two": "\u20b91,600"}, {"Name": "Wagh Bakri Tea Lounge", "Rating": "3.7", "votes": "338", "location": " L-7, Outer Circle, Connaught Place, New Delhi", "Cuisines: ": "Cafe", "hours": "9am\u201311pm(Mon-Sun)", "Cost for two": "\u20b9650"}, {"Name": "Caramelo - The Hans", "Rating": "3.2", "votes": "14", "location": " The Hans, 15, Connaught Place, New Delhi", "Cuisines: ": "Italian", "hours": "11am\u201311:30pm(Mon-Sun)", "Cost for two": "\u20b92,500"}, {"Name": "Kumar Sweet House", "Rating": "3.0", "votes": "6", "location": " 5, Gandhi Market, Minto Road, Connaught Place, New Delhi", "Cuisines: ": "Mithai, Street Food", "hours": "8am\u20139pm(Mon-Sun)", "Cost for two": "\u20b9150"}, {"Name": "Petu Pankaj", "Rating": "Opening", "votes": "6", "location": " N-1, Ground Floor, Middle Circle, Connaught Place, New Delhi", "Cuisines: ": "North Indian, Biryani, Beverages, Desserts", "hours": "8am\u20139pm(Mon-Sun)", "Cost for two": "\u20b9550"}, {"Name": "Boisson The Blend Company", "Rating": "3.9", "votes": "60", "location": " L-1, Middle Circle, Behind Odeon Cinema, Connaught Place, New Delhi", "Cuisines: ": "Beverages", "hours": "Closed(Mon),11am\u201312midnight(Tue-Sun)", "Cost for two": "\u20b9400"}]