[{"Name": "Freshniwala", "Rating": "3.4", "votes": "14", "location": " 1279, Sector 23 A, Gurgaon", "Cuisines: ": "North Indian", "hours": "9am\u20136pm(Mon-Sun)", "Cost for two": "\u20b9200"}, {"Name": "Tadkaa By Vaibhav", "Rating": "4.3", "votes": "126", "location": " 152, Mangolpur Kalan, Sector 2, Rohini, New Delhi", "Cuisines: ": "North Indian, Fast Food, Beverages", "hours": "6pm\u20134am(Mon-Sun)", "Cost for two": "\u20b9500"}, {"Name": "Burger Planet", "Rating": "3.7", "votes": "184", "location": " Shop 503/11, Rattan Garden, Sector 7, Old Railway Road, Gurgaon", "Cuisines: ": "Burger, Fast Food, Beverages", "hours": "4pm\u20134am(Mon-Sun)", "Cost for two": "\u20b9300"}, {"Name": "Punjabi Nature", "Rating": "3.5", "votes": "554", "location": " 5-L/167, BK KC Road, Near Frontier Colony, NIT, Faridabad", "Cuisines: ": "North Indian, Mughlai, Chinese", "hours": "10am\u201311pm(Mon-Sun)", "Cost for two": "\u20b9700"}, {"Name": "Prince Delicacies", "Rating": "3.7", "votes": "103", "location": " Shop 19/1, Real Square Mall, Sector 3, Vasundhara, Ghaziabad", "Cuisines: ": "Chinese, South Indian, North Indian, Mithai", "hours": "8am\u201311pm(Mon-Sun)", "Cost for two": "\u20b9500"}, {"Name": "D' Brew N Chew", "Rating": "3.2", "votes": "6", "location": " C 11, Community Center, Behind Janak Cinema, Janakpuri, New Delhi", "Cuisines: ": "Fast Food, North Indian", "hours": "11am\u201310pm(Mon-Sun)", "Cost for two": "\u20b9400"}, {"Name": "Tandoori Night", "Rating": "3.6", "votes": "98", "location": " 153, Jheel Khuranja Main Road, Krishna Nagar, New Delhi", "Cuisines: ": "North Indian", "hours": "11am\u201311pm(Mon,Wed,Thu,Fri,Sat,Sun),Closed...", "Cost for two": "\u20b9600"}, {"Name": "The Golden Dragon", "Rating": "3.7", "votes": "176", "location": " AF-7, Element One, Sector 47, South City 2, Gurgaon", "Cuisines: ": "Chinese, Seafood", "hours": "11am\u201312midnight(Mon-Sun)", "Cost for two": "\u20b91,500"}, {"Name": "Butter Cup", "Rating": "3.0", "votes": "6", "location": " 41, Ground Floor, ITA Retreat, 12 Block, New Aruna Colony, Majnu Ka Tila, New Delhi", "Cuisines: ": "Chinese, Tibetan, Fast Food, Beverages", "hours": "8am\u201310:30pm(Mon-Sun)", "Cost for two": "\u20b9500"}, {"Name": "Shama Chicken Corner", "Rating": "3.1", "votes": "6", "location": " Shop 4, Aghapur, Sector 41, Noida", "Cuisines: ": "North Indian, Mughlai", "hours": "24Hours(Mon-Sun)", "Cost for two": "\u20b9500"}, {"Name": "Neeraj Egg Shop", "Rating": "3.3", "votes": "10", "location": " Plot 9, Yadav Park, Kamruddin Nagar, Nangloi, New Delhi", "Cuisines: ": "Fast Food", "hours": "10am\u201310pm(Mon-Sun)", "Cost for two": "\u20b9250"}, {"Name": "Le Winkies", "Rating": "3.4", "votes": "23", "location": " 14/32, East Patel Nagar, New Delhi", "Cuisines: ": "Fast Food, Beverages", "hours": "12noon\u201310:30pm(Mon-Sun)", "Cost for two": "\u20b9300"}, {"Name": "Chinese House", "Rating": "3.5", "votes": "20", "location": " 16/16, Subhash Nagar, New Delhi", "Cuisines: ": "Chinese", "hours": "11am\u201311pm(Mon-Sun)", "Cost for two": "\u20b9200"}, {"Name": "Riya's Kitchen", "Rating": "NEW", "votes": "20", "location": " 709/2, Kala Patthar Road, Nyay Khand 2, Indirapuram, Ghaziabad", "Cuisines: ": "North Indian", "hours": "11:30am\u201312midnight(Mon-Sun)", "Cost for two": "\u20b9250"}, {"Name": "Tandoori Tantra", "Rating": "3.7", "votes": "126", "location": " Shop 1, Ground Floor, D Block, Unitech Shopping Plazza, South City 2, Gurgaon", "Cuisines: ": "North Indian, Chinese", "hours": "11am\u201311:30pm(Mon,Tue,Wed,Fri,Sat,Sun)...", "Cost for two": "\u20b9600"}]