[{"Name": "Pizza Bite", "Rating": "3.2", "votes": "8", "location": " E-551, Ramphal Chowk, Sector 7, Dwarka, New Delhi", "Cuisines: ": "Pizza", "hours": "11am\u201311pm(Mon-Sun)", "Cost for two": "\u20b9300"}, {"Name": "Biryani King", "Rating": "3.5", "votes": "63", "location": " R 15, Main Market, Shakarpur, New Delhi", "Cuisines: ": "Biryani, Mughlai", "hours": "11am\u201312midnight(Mon-Sun)", "Cost for two": "\u20b9300"}, {"Name": "Polka The Cake Shop", "Rating": "2.8", "votes": "73", "location": " A-3/93, Lower Ground Floor, Janakpuri, New Delhi", "Cuisines: ": "Bakery, Fast Food", "hours": "9am\u201310pm(Mon-Sun)", "Cost for two": "\u20b9200"}, {"Name": "De' Bistro", "Rating": "3.7", "votes": "80", "location": " F/ 1, 1st Floor, PVR Complex, Vikaspuri, New Delhi", "Cuisines: ": "Cafe, Chinese", "hours": "12noon\u201312midnight(Mon-Sun)", "Cost for two": "\u20b9700"}, {"Name": "Waffle Me Up", "Rating": "3.8", "votes": "109", "location": " D 449, Ramphal Chowk, Palam Extension, Sector 7, Dwarka, New Delhi", "Cuisines: ": "Desserts, Fast Food, Beverages", "hours": "12noon\u201311pm(Mon-Sun)", "Cost for two": "\u20b9350"}, {"Name": "Rahul Meat Corner", "Rating": "3.6", "votes": "42", "location": " 447, BN Kapil Marg, Jheel Khurenja, Geeta Colony, New Delhi", "Cuisines: ": "Mughlai", "hours": "6pm\u201310pm(Mon,Wed,Thu,Fri,Sat,Sun),Closed...", "Cost for two": "\u20b9300"}, {"Name": "Aap Ki Rasoi", "Rating": "3.2", "votes": "82", "location": " Amarpali Silicon City, Sector 76, Near Sector 72, Noida", "Cuisines: ": "North Indian, Chinese", "hours": "8:30am\u20134am(Mon-Sun)", "Cost for two": "\u20b9350"}, {"Name": "The Aura", "Rating": "3.9", "votes": "89", "location": " Shop 3, DDA Market, Near NDPL Office, Hudson Lane, Delhi University-GTB Nagar, New Delhi", "Cuisines: ": "Cafe, Chinese, Fast Food", "hours": "11am\u201310pm(Mon-Sun)", "Cost for two": "\u20b9500"}, {"Name": "S K Bikaneri", "Rating": "-", "votes": "89", "location": " B-432, Block, Rajeev Nagar, Banke Bihari Mandir Marg, Sector 38, Begum Pur, Rohini, New Delhi", "Cuisines: ": "Mithai", "hours": "8:30am\u201310pm(Mon-Sun)", "Cost for two": "\u20b9350"}, {"Name": "D.S Hunger Hut", "Rating": "3.5", "votes": "156", "location": " Opposite Gold Souk Mall, Phase 1, Sector 43, Gurgaon", "Cuisines: ": "Chinese, Fast Food, Momos", "hours": "1pm\u201310:30pm(Mon-Sun)", "Cost for two": "\u20b9300"}, {"Name": "Chinese Corner", "Rating": "3.4", "votes": "4", "location": " M 161/1, GL House, Gujar Dairy, Gautam Nagar, Yusuf Sarai, New Delhi", "Cuisines: ": "Chinese", "hours": "11am\u201311pm(Mon-Sun)", "Cost for two": "\u20b9350"}, {"Name": "Dosa Corner", "Rating": "3.2", "votes": "10", "location": " Stall 1, South Market, Moti Bagh, New Delhi", "Cuisines: ": "South Indian", "hours": "11am\u201310pm(Mon-Sun)", "Cost for two": "\u20b9200"}, {"Name": "Rasoi", "Rating": "-", "votes": "10", "location": " A 160, Road 4, Mahipalpur Extention, Mahipalpur, New Delhi", "Cuisines: ": "Chinese, North Indian, Mughlai, Fast Food", "hours": "11am\u20131am(Mon-Sun)", "Cost for two": "\u20b9500"}, {"Name": "Fukrey Foods", "Rating": "NEW", "votes": "10", "location": " A 30, Street 1, Block A, Mahipalpur, New Delhi", "Cuisines: ": "North Indian, Chinese", "hours": "9am\u20135pm(Mon-Sun)", "Cost for two": "\u20b9350"}, {"Name": "Parkash Bakery", "Rating": "3.4", "votes": "99", "location": " Main Market, Malviya Nagar, New Delhi", "Cuisines: ": "Bakery, Fast Food", "hours": "10am\u201310pm(Mon-Sun)", "Cost for two": "\u20b9400"}]