[{"Name": "Gupta's Rasoi", "Rating": "3.5", "votes": "190", "location": " SCO 2, Sector 10 A, Near Sector 37, Gurgaon", "Cuisines: ": "North Indian, South Indian, Street Food", "hours": "8am\u201311am,12noon\u20134pm,6pm\u201310:30pm(Mon-Sun)", "Cost for two": "\u20b9300"}, {"Name": "Uncle Xpress", "Rating": "3.8", "votes": "241", "location": " 1, Krishna Market, Near Desh Bandhu College, Kalkaji, New Delhi", "Cuisines: ": "Chinese, North Indian", "hours": "12:30pm\u20133pm,6pm\u201311pm(Mon,Wed,Thu,Fri...", "Cost for two": "\u20b9400"}, {"Name": "D Food Adda", "Rating": "3.6", "votes": "25", "location": " Shop 1, SG Century Plaza, GU Block Market, Pitampura, New Delhi", "Cuisines: ": "North Indian, Chinese, Fast Food", "hours": "11am\u201311pm(Mon-Sun)", "Cost for two": "\u20b9400"}, {"Name": "Spicy Aangan", "Rating": "3.2", "votes": "9", "location": " Main Bus Stand, Hayatpur, Near Sector 83, Gurgaon", "Cuisines: ": "Chinese, Fast Food", "hours": "4pm\u201312midnight(Mon-Sun)", "Cost for two": "\u20b9300"}, {"Name": "Shree Shyam Food Corner & Caterers", "Rating": "3.0", "votes": "5", "location": " D 37, Gandhi Market, Hari Nagar, Mayapuri Phase 2, New Delhi", "Cuisines: ": "Street Food", "hours": "8am\u20138pm(Mon-Sun)", "Cost for two": "\u20b9150"}, {"Name": "Foody Eats Restro", "Rating": "3.7", "votes": "66", "location": " WZ 58, Om Vihar, Phase 3, Som Bazaar Road, Uttam Nagar, New Delhi", "Cuisines: ": "North Indian, Chinese", "hours": "12noon\u201312midnight(Mon-Sun)", "Cost for two": "\u20b9350"}, {"Name": "City Night Club & Lounge", "Rating": "-", "votes": "66", "location": " TS 07, Third Floor, Central Plaza Mall, Golf Course Road, Sector 53, Gurgaon", "Cuisines: ": "North Indian, Chinese, Continental", "hours": "11am\u20131am(Mon-Sun)", "Cost for two": "\u20b91,400"}, {"Name": "Pizza Buzzer", "Rating": "3.8", "votes": "134", "location": " Shop 6, T-36, 1st Floor, Balaji Market, Sector 11, Noida", "Cuisines: ": "Pizza, Fast Food", "hours": "11am\u201311pm(Mon-Sun)", "Cost for two": "\u20b9400"}, {"Name": "New Mahalaxmi Vaishno Bhojnalaya", "Rating": "3.2", "votes": "8", "location": " F 8, Vijay Chowk, Laxmi Nagar, Delhi", "Cuisines: ": "North Indian", "hours": "8am\u201311pm(Mon-Sun)", "Cost for two": "\u20b9300"}, {"Name": "Chatora Wings", "Rating": "3.2", "votes": "8", "location": " B 8, Gali 1, Saidulajab Village, Saket, New Delhi", "Cuisines: ": "Chinese, Rolls", "hours": "2pm\u201311pm(Mon-Sun)", "Cost for two": "\u20b9300"}, {"Name": "Office Cafe", "Rating": "3.5", "votes": "26", "location": " 12A, Ground Floor, Tower B, Advant Navis Business Park, Sector 142, Near Sector 132, Noida", "Cuisines: ": "Fast Food, Desserts, Beverages", "hours": "8am\u201310pm(Mon-Sun)", "Cost for two": "\u20b9250"}, {"Name": "Super Fine Biryani Point", "Rating": "3.2", "votes": "12", "location": " L 97, Old Rangpuri Road, Near L Block Labour Chowk, Mahipalpur, New Delhi", "Cuisines: ": "Biryani, North Indian, Mughlai, Chinese", "hours": "10am\u201312midnight(Mon-Sun)", "Cost for two": "\u20b9350"}, {"Name": "Parathas N Wok", "Rating": "3.2", "votes": "8", "location": " Kishan Lal Complex, Sector 52, South City 2, Gurgaon", "Cuisines: ": "North Indian", "hours": "7am\u20131am(Mon-Sun)", "Cost for two": "\u20b9350"}, {"Name": "Eat Ahead", "Rating": "3.1", "votes": "4", "location": " A-127, Lajpat Nagar 1, New Delhi", "Cuisines: ": "Sandwich, Fast Food, Burger, Beverages", "hours": "11am\u201310pm(Mon-Sun)", "Cost for two": "\u20b9250"}, {"Name": "Dr. Bubbles", "Rating": "4.0", "votes": "150", "location": " Shop 148, Main Market, Sector 31, Gurgaon", "Cuisines: ": "Beverages, Desserts", "hours": "11am\u201311pm(Mon-Sun)", "Cost for two": "\u20b9300"}]