[{"Name": "St. Spicy Treat", "Rating": "3.7", "votes": "98", "location": " CTE, LGD 4, Akansha Market, Ramprastha, Ghaziabad", "Cuisines: ": "Pizza, Chinese, Fast Food, Italian", "hours": "11:30am\u201310pm(Mon-Sun)", "Cost for two": "\u20b9350"}, {"Name": "Platinum Foods", "Rating": "NEW", "votes": "98", "location": " J 25/26, J Extension, Ramesh Park, Gandhi Nagar, Near Laxmi Nagar, New Delhi", "Cuisines: ": "North Indian", "hours": "11:30am\u20131am(Mon-Sun)", "Cost for two": "\u20b9350"}, {"Name": "Zaid Roll Corner", "Rating": "3.6", "votes": "73", "location": " Jagat Farm, Opposite Gurubaksh Plaza, Gamma 1, Greater Noida", "Cuisines: ": "Fast Food, Rolls, Chinese", "hours": "10am\u201310pm(Mon-Sun)", "Cost for two": "\u20b9250"}, {"Name": "Noodle & Curry", "Rating": "NEW", "votes": "73", "location": " Shop G-6, Plot 5, Ground Floor, Wadhwa Plaza, Sector 10, Dwarka, New Delhi", "Cuisines: ": "Momos, Chinese, North Indian", "hours": "12noon\u20135:30pm,6:30pm\u201311:30pm(Mon-Sun)", "Cost for two": "\u20b9450"}, {"Name": "FooBar", "Rating": "3.9", "votes": "23", "location": " Defence Colony, New Delhi", "Cuisines: ": "Burger, Sandwich, North Indian, Chinese", "hours": "11am\u20133am(Mon-Sun)", "Cost for two": "\u20b9400"}, {"Name": "Tandoori Khazan", "Rating": "3.5", "votes": "49", "location": " Shop 2, Opposite SRS Royal Hills, Sector 87, Near Sector 86, Faridabad", "Cuisines: ": "Mughlai, Chinese, North Indian, BBQ", "hours": "8am\u201312midnight(Mon-Sun)", "Cost for two": "\u20b9500"}, {"Name": "WAFL Caf\u00e9", "Rating": "4.0", "votes": "218", "location": " Shop 1, Ground Floor, Club Road Market, Punjabi Bagh, New Delhi", "Cuisines: ": "Desserts, Beverages", "hours": "12noon\u201312:30am(Mon-Sun)", "Cost for two": "\u20b9400"}, {"Name": "Noor Chicken Point & Restaurant", "Rating": "3.5", "votes": "90", "location": " Yamuna Vihar Road, North Ghonda, Shahdara, New Delhi", "Cuisines: ": "North Indian", "hours": "6:30pm\u201312midnight(Mon-Sun)", "Cost for two": "\u20b9400"}, {"Name": "Diya - The Leela Ambience", "Rating": "3.9", "votes": "241", "location": " The Leela Ambience, Ambience Island, DLF Phase 3, Gurgaon", "Cuisines: ": "North Indian", "hours": "6:30pm\u201311:30pm(Mon-Sun)", "Cost for two": "\u20b93,500"}, {"Name": "Shreshtham Foods", "Rating": "NEW", "votes": "241", "location": " 1061, Opposite Government Boys School, Mukherjee Nagar, New Delhi", "Cuisines: ": "North Indian, Chinese", "hours": "7:30am\u201311pm(Mon-Sun)", "Cost for two": "\u20b9300"}, {"Name": "Amritsari Kulcha Hub", "Rating": "NEW", "votes": "241", "location": " 11/25, Darbar Marg, Geeta Colony, New Delhi", "Cuisines: ": "Street Food", "hours": "9am\u20135pm(Mon-Sun)", "Cost for two": "\u20b9200"}, {"Name": "Laajwaab Foods", "Rating": "-", "votes": "241", "location": " Plot A 51, Behind ITM Enclave, Sector 23, Gurgaon", "Cuisines: ": "North Indian, Chinese", "hours": "11am\u20134pm,6pm\u20134am(Mon-Sun)", "Cost for two": "\u20b9400"}, {"Name": "Mumma's Indian Kitchen", "Rating": "2.8", "votes": "154", "location": " 27/4, Indra Vikas Colony, Mukherjee Nagar, New Delhi", "Cuisines: ": "North Indian, Mughlai", "hours": "9am\u20134am(Mon-Sun)", "Cost for two": "\u20b9450"}, {"Name": "Kuick Bite", "Rating": "NEW", "votes": "154", "location": " 221, Manish Plaza 3rd, Pocket 1, Sector 10, Dwarka, New Delhi", "Cuisines: ": "Momos, Rolls", "hours": "5pm\u201310:30pm(Mon-Sun)", "Cost for two": "\u20b9150"}, {"Name": "Spicy Bite", "Rating": "3.2", "votes": "5", "location": " WZ 137, K-91, Gali 3, Monday Market, Tihar Village, Rajouri Garden, New Delhi", "Cuisines: ": "North Indian", "hours": "11am\u201311pm(Mon-Sun)", "Cost for two": "\u20b9500"}]