[{"Name": "#nofilter", "Rating": "3.8", "votes": "1484", "location": " C-18, SDA Market, Commercial Complex, SDA, New Delhi", "Cuisines: ": "North Indian, Continental, European, Modern Indian", "hours": "11am\u20131am(Mon-Sun)", "Cost for two": "\u20b91,100"}, {"Name": "Vrinda Restaurant", "Rating": "NEW", "votes": "1484", "location": " E1, Street 5, Sadat Pur Extension, Karawal Nagar Road, Shahdara, New Delhi", "Cuisines: ": "North Indian, South Indian, Chinese", "hours": "12noon\u201310pm(Mon-Sun)", "Cost for two": "\u20b9350"}, {"Name": "Chinese Station Restaurant", "Rating": "3.5", "votes": "57", "location": " 8, Near Apex Hospital, Mandir Road, Chhatarpur, New Delhi", "Cuisines: ": "Chinese", "hours": "11am\u201311pm(Mon-Sun)", "Cost for two": "\u20b9400"}, {"Name": "Shudh Vaishno", "Rating": "3.8", "votes": "256", "location": " B-121, Mansarover Garden, Near Police Station, Kirti Nagar, New Delhi", "Cuisines: ": "North Indian", "hours": "12noon\u201311pm(Mon-Sun)", "Cost for two": "\u20b9400"}, {"Name": "Pubg Cafe", "Rating": "NEW", "votes": "256", "location": " WZ 1634 A, Nangal Raya, Delhi Cantt, New Delhi", "Cuisines: ": "Chinese, Fast Food", "hours": "11am\u201311pm(Mon-Sun)", "Cost for two": "\u20b9450"}, {"Name": "Food Garage", "Rating": "3.5", "votes": "317", "location": " 33, Near Vatika Independent Floors, Vatika City, Sector 83, Gurugram", "Cuisines: ": "North Indian, Chinese", "hours": "11am\u201311pm(Mon-Sun)", "Cost for two": "\u20b9500"}, {"Name": "Chicken Kulcha", "Rating": "NEW", "votes": "317", "location": " Shop 5, PVR Sonia Road, Vikaspuri, New Delhi", "Cuisines: ": "North Indian", "hours": "1pm\u201311:30pm(Mon-Sun)", "Cost for two": "\u20b9400"}, {"Name": "Royal Hot Corner", "Rating": "NEW", "votes": "317", "location": " Shop 19, Ground Floor, Csc Convenient Shopping, Hudson Line, Kinsway Camp, Delhi University-GTB Nagar, New Delhi", "Cuisines: ": "Chinese", "hours": "10am\u201310pm(Mon-Sun)", "Cost for two": "\u20b9300"}, {"Name": "Kitchen King", "Rating": "3.2", "votes": "8", "location": " Shop 146, Market 1, NIT, Faridabad", "Cuisines: ": "North Indian, Chinese", "hours": "12noon\u201312midnight(Mon-Sun)", "Cost for two": "\u20b9300"}, {"Name": "Mother India Sweet And Restaurant", "Rating": "3.5", "votes": "19", "location": " Garhi Chaukhandi, Opposite Cleo Country, Sector 121, Gautam Buddha Nagar, Near Sector 71, Noida", "Cuisines: ": "North Indian, Chinese, Fast Food, Beverages", "hours": "10am\u20132am(Mon-Sun)", "Cost for two": "\u20b9400"}, {"Name": "Udi Baba Biryani", "Rating": "3.8", "votes": "16", "location": " Kitchen 5, First Floor, Vatika Market Place 2, Sector 83, Gurgaon", "Cuisines: ": "Biryani, North Indian, Mughlai", "hours": "11am\u201311pm(Mon-Sun)", "Cost for two": "\u20b9500"}, {"Name": "Cake And Bake", "Rating": "3.2", "votes": "56", "location": " Shop 131, Defence Colony, New Delhi", "Cuisines: ": "Fast Food", "hours": "11am\u201310:30pm(Mon-Sun)", "Cost for two": "\u20b9200"}, {"Name": "Sindhi Snacks", "Rating": "NEW", "votes": "56", "location": " AA-157, Near Mother Pride School, Shalimar Bagh, New Delhi", "Cuisines: ": "Street Food", "hours": "8am\u20137:30pm(Mon-Sun)", "Cost for two": "\u20b9100"}, {"Name": "DWOK", "Rating": "3.4", "votes": "18", "location": " E-4, Bal Udyan Road, Uttam Nagar, New Delhi", "Cuisines: ": "Chinese", "hours": "11am\u201311pm(Mon-Sun)", "Cost for two": "\u20b9300"}, {"Name": "Singh Ji Chaap Wale", "Rating": "3.2", "votes": "10", "location": " C-2, Sahani Tower, Sector 5, Rajendar Nagar, Ghaziabad", "Cuisines: ": "Rolls, North Indian", "hours": "5pm\u201311pm(Mon-Sun)", "Cost for two": "\u20b9400"}]