[{"Name": "Tandoori Chicken", "Rating": "-", "location": " B4/389 Ground Floor Opposite HDFC Bank Century Plaza, Near Petrol Pump, Sector 8, Rohini, New Delhi", "Cuisines: ": "North Indian, Mughlai, Chinese", "hours": "11:45am\u20134am(Mon-Sun)", "Cost for two": "\u20b9500"}, {"Name": "Lovely Food Point", "Rating": "-", "location": " Gali 12, Road 4, Mahipalpur, New Delhi", "Cuisines: ": "North Indian, Chinese", "hours": "8am\u201311pm(Mon-Sun)", "Cost for two": "\u20b9300"}, {"Name": "Pizza King", "Rating": "2.9", "location": " F 81, Near Kudi Chowk, Lado Sarai, New Delhi", "Cuisines: ": "Pizza, Fast Food", "hours": "8am\u20134am(Mon-Sun)", "Cost for two": "\u20b9300", "votes": "38"}, {"Name": "The Club Bar & Cigar Lounge - The Oberoi", "Rating": "3.2", "location": " The Oberoi, Dr. Zakir Hussain Marg, New Delhi", "Cuisines: ": "Finger Food", "hours": "10am\u20133pm,5pm\u20131am(Mon-Sun)", "Cost for two": "\u20b93,000", "votes": "13"}, {"Name": "LMB Food Point", "Rating": "3.7", "location": " RZ C 186/1, Madhu Vihar, Near Bhaskarachrya College, Sector 2, Dwarka, New Delhi", "Cuisines: ": "Chinese, North Indian, Mithai", "hours": "24Hours(Mon-Sun)", "Cost for two": "\u20b9500", "votes": "46"}, {"Name": "Singh Sahab Chaap Wale", "Rating": "3.9", "location": " Shop E 20, Single Story, Near Shani Mandir, Vijay Nagar, New Delhi", "Cuisines: ": "North Indian", "hours": "11am\u201311pm(Mon-Sun)", "Cost for two": "\u20b9150", "votes": "86"}, {"Name": "Swiss Softy", "Rating": "3.8", "location": " Ground Floor, Unity One Mall, Bhagawan Mahavir Marg, Near Rohini West Metro Station, Sector 10, Rohini, New Delhi", "Cuisines: ": "Ice Cream, Desserts, Beverages", "hours": "11am\u201311pm(Mon-Sun)", "Cost for two": "\u20b9300", "votes": "65"}, {"Name": "Tee Spots", "Rating": "3.7", "location": " 39, Ground Floor, Satya Niketan, Moti Bagh-2, Chanakyapuri, New Delhi", "Cuisines: ": "Beverages, Fast Food", "hours": "8am\u201310pm(Mon-Sun)", "Cost for two": "\u20b9200", "votes": "30"}, {"Name": "Zayka Chicken Biryani Corner", "Rating": "3.2", "location": " Plot 56, Shop 3, Main Jharsa Road, Sector 15, Gurgaon", "Cuisines: ": "Biryani, Mughlai", "hours": "8am\u201310pm(Mon-Sun)", "Cost for two": "\u20b9450", "votes": "13"}, {"Name": "Suruchee", "Rating": "3.0", "location": " 71/139, Prem Nagar, Near Choti Sabzi Mandi, Janakpuri, New Delhi", "Cuisines: ": "Bengali, North Indian", "hours": "10:30am\u201310:30pm(Mon,Wed,Thu,Fri,Sat,Sun)...", "Cost for two": "\u20b9500", "votes": "209"}, {"Name": "Pizza And Burger Bite", "Rating": "3.3", "location": " Shop 6A-179, Jeevan Nagar, Kilokri, Near Jeevan Hospital, Jangpura, New Delhi", "Cuisines: ": "Pizza", "hours": "10am\u201311pm(Mon-Sun)", "Cost for two": "\u20b9450", "votes": "18"}, {"Name": "Om Momos Point & Roll", "Rating": "3.8", "location": " Beside Jagat Farm, Gamma 1, Greater Noida", "Cuisines: ": "Chinese, Rolls, Momos", "hours": "10am\u201310pm(Mon-Sun)", "Cost for two": "\u20b9300", "votes": "50"}, {"Name": "Majeed's", "Rating": "3.5", "location": " G1, Plot 6, Aditya Complex, Main Market, Opposite DDA Sports Complex, Sector 10, Dwarka, New Delhi", "Cuisines: ": "Mughlai, North Indian", "hours": "1:30pm\u20131:30am(Mon-Sun)", "Cost for two": "\u20b9500", "votes": "600"}, {"Name": "Balaji Chaap", "Rating": "3.3", "location": " Timarpur, Near Bus Stand, Delhi University-GTB Nagar, New Delhi", "Cuisines: ": "BBQ", "hours": "5pm\u201310pm(Mon-Sun)", "Cost for two": "\u20b9300", "votes": "10"}, {"Name": "Mr. Veg", "Rating": "3.4", "location": " J 5/101 G, Nehru Market, Rajouri Garden, New Delhi", "Cuisines: ": "North Indian", "hours": "11am\u201311pm(Mon-Sun)", "Cost for two": "\u20b9250", "votes": "24"}]