[{"Name": "Jai Veeru Chaap Junction", "Rating": "3.2", "votes": "10", "location": " F 196, Chiranjiv Vihar, Near Ansal Plaza, Shastri Nagar, Ghaziabad", "Cuisines: ": "Rolls, North Indian", "hours": "4pm\u201311pm(Mon-Sun)", "Cost for two": "\u20b9450"}, {"Name": "Bablu Chic-Inn", "Rating": "3.8", "votes": "175", "location": " Shop 9, Pocket B, DDA Market, Ashok Vihar Phase 3, New Delhi", "Cuisines: ": "Mughlai, North Indian", "hours": "6pm\u201311pm(Mon,Wed,Thu,Fri,Sat,Sun),Closed...", "Cost for two": "\u20b9600"}, {"Name": "Pappi Machhi Wala", "Rating": "3.8", "votes": "64", "location": " Opposite Adarsh School, Furniture Market, Kirti Nagar, New Delhi", "Cuisines: ": "North Indian", "hours": "7pm\u201311:30pm(Mon-Sun)", "Cost for two": "\u20b9500"}, {"Name": "Deliciano", "Rating": "3.6", "votes": "56", "location": " LSC - 1, Sector 4, Dwarka, New Delhi", "Cuisines: ": "Chinese", "hours": "11am\u201311pm(Mon-Sun)", "Cost for two": "\u20b9450"}, {"Name": "Spice Of India", "Rating": "3.5", "votes": "200", "location": " Delivery Only", "Cuisines: ": "Mughlai, North Indian, Chinese", "hours": "11am\u20134pm,6:15pm\u201311pm(Mon,Wed,Thu,Fri...", "Cost for two": "\u20b9600"}, {"Name": "Wow Waffles n Shake", "Rating": "3.3", "votes": "53", "location": " Plot 1, Near Induslnd Bank, Sector 10, Dwarka, New Delhi", "Cuisines: ": "Desserts, Beverages, Fast Food, Italian", "hours": "11am\u20132am(Mon-Sat),11am\u201312midnight(Sun)", "Cost for two": "\u20b9400"}, {"Name": "Mother Dairy Ice Cream", "Rating": "3.7", "votes": "93", "location": " 24, Dilli Haat, INA, New Delhi", "Cuisines: ": "Ice Cream, Beverages", "hours": "10:30am\u201311pm(Mon-Sun)", "Cost for two": "\u20b9250"}, {"Name": "The Dom's Pizza", "Rating": "3.3", "votes": "10", "location": " E-28, Patel Nagar 2, Ambedkar Road, Ghaziabad", "Cuisines: ": "Pizza, Chinese", "hours": "11am\u201310pm(Mon-Sun)", "Cost for two": "\u20b9500"}, {"Name": "Momos 101", "Rating": "3.3", "votes": "12", "location": " Shop 12, Garg Plaza Market, Sainik Vihar, Pitampura, New Delhi", "Cuisines: ": "Momos", "hours": "11am\u201311pm(Mon-Sun)", "Cost for two": "\u20b9350"}, {"Name": "Sumna & Co", "Rating": "3.6", "votes": "23", "location": " C-130, 3rd Floor, Block C, Lajpat Nagar 1, New Delhi", "Cuisines: ": "Bakery, Desserts", "hours": "12noon\u201310pm(Mon),12noon\u201310:30pm(Tue,Thu...", "Cost for two": "\u20b9400"}, {"Name": "Kitchen - 32", "Rating": "3.4", "votes": "22", "location": " 459/4, Shalimar Park, Main Road, Shahdara, Delhi", "Cuisines: ": "North Indian, Chinese", "hours": "11am\u201311pm(Mon-Sun)", "Cost for two": "\u20b9400"}, {"Name": "Bake Hub", "Rating": "3.9", "votes": "509", "location": " 14/468, Sunder Vihar, Paschim Vihar, New Delhi", "Cuisines: ": "Bakery, Fast Food, Momos", "hours": "11:30am\u201310:30pm(Mon-Sun)", "Cost for two": "\u20b9500"}, {"Name": "Apna Bhojnalaya & Rakesh Cold Drinks", "Rating": "3.9", "votes": "185", "location": " 2 & 3, Bus Stand, NIT, Faridabad", "Cuisines: ": "North Indian", "hours": "7am\u201311pm(Mon-Sun)", "Cost for two": "\u20b9300"}, {"Name": "Alrumi Food Company", "Rating": "4.0", "votes": "269", "location": " 5442, Lotus Lane, DLF Phase 4, Gurgaon", "Cuisines: ": "North Indian, Mughlai, Rolls", "hours": "12noon\u20133am(Mon-Sun)", "Cost for two": "\u20b9600", "Featured in: ": "Brilliant Biryanis"}, {"Name": "Firangi Zaika", "Rating": "4.0", "votes": "22", "location": " Shop G-5, Plot 10, A Block, Central Market, Surajmal Vihar, Anand Vihar, New Delhi", "Cuisines: ": "Fast Food, Chinese, North Indian, Bubble Tea, Beverages", "hours": "12noon\u201312midnight(Mon-Sun)", "Cost for two": "\u20b9400", "Featured in: ": "Brilliant Biryanis"}]