[{"Name": "Burger Panda", "Rating": "-", "location": " E 149, Shop 1, Sai Baba Chowk, Dilshad Garden, New Delhi", "Cuisines: ": "Burger, Fast Food", "hours": "11am\u201310pm(Mon-Sun)", "Cost for two": "\u20b9200"}, {"Name": "Zaika Muradabadi Chicken Corner", "Rating": "3.7", "location": " Shop 21, Bihari Market, Sector 3, Vaishali, Ghaziabad", "Cuisines: ": "North Indian", "hours": "9am\u201310:30pm(Mon-Sun)", "Cost for two": "\u20b9300", "votes": "49"}, {"Name": "Cafe Beans & Bites", "Rating": "3.7", "location": " Mall Road, Jaipuria Sunrise Plaza, Ahinsa Khand 1, Indirapuram, Ghaziabad", "Cuisines: ": "Fast Food, Beverages", "hours": "11am\u201311pm(Mon-Sun)", "Cost for two": "\u20b9600", "votes": "32"}, {"Name": "Secret By Morgan's Place", "Rating": "3.8", "location": " WZ-100/1, Titarpur, Rajouri Garden, New Delhi", "Cuisines: ": "Italian, Continental", "hours": "1pm\u20131am(Mon-Sun)", "Cost for two": "\u20b91,000", "votes": "32"}, {"Name": "IT - The Grand New Delhi", "Rating": "3.9", "location": " The Grand New Delhi, Phase 2, Nelson Mandela Road, Vasant Kunj, New Delhi", "Cuisines: ": "Italian", "hours": "12noon\u20133pm,7pm\u201312midnight(Mon-Sun)", "Cost for two": "\u20b93,500", "votes": "138"}, {"Name": "Ishwar Sweets", "Rating": "3.7", "location": " KG-1/411, Vikaspuri, New Delhi", "Cuisines: ": "Mithai, Chinese", "hours": "8am\u201310pm(Mon-Sun)", "Cost for two": "\u20b9250", "votes": "124"}, {"Name": "Woke Juice Co.", "Rating": "3.6", "location": " G-318, 3rd Floor, Sector 63, Noida", "Cuisines: ": "Juices, Beverages", "hours": "10am\u201311pm(Mon-Sun)", "Cost for two": "\u20b9500", "votes": "21"}, {"Name": "Perfect Cake", "Rating": "3.2", "location": " Delivery Only", "Cuisines: ": "Bakery", "hours": "11am\u201312midnight(Mon-Sun)", "Cost for two": "\u20b9250", "votes": "10"}, {"Name": "Maharaja Indian Rasoi", "Rating": "-", "location": " 97U, Kamla Nagar, New Delhi", "Cuisines: ": "North Indian", "hours": "10am\u201310pm(Mon-Sun)", "Cost for two": "\u20b9200", "votes": "10"}, {"Name": "Ching's Chinese Cafe", "Rating": "3.5", "location": " 319, Behind Mother Dairy, Beta 2, Greater Noida", "Cuisines: ": "North Indian, Chinese", "hours": "24Hours(Mon-Sun)", "Cost for two": "\u20b9450", "votes": "39"}, {"Name": "Dosa Ustaad", "Rating": "3.6", "location": " Plot 11, Ground Floor, Bhera Encalve, Paschim Vihar, New Delhi", "Cuisines: ": "South Indian, Chinese", "hours": "9:30am\u201311pm(Mon-Sun)", "Cost for two": "\u20b9400", "votes": "29"}, {"Name": "AL. Maroosh", "Rating": "3.4", "location": " E/76, West Vinod Nagar, IP Extension, New Delhi", "Cuisines: ": "North Indian, Mughlai, Chinese", "hours": "11am\u201311pm(Mon-Sun)", "Cost for two": "\u20b9500", "votes": "60"}, {"Name": "1990's", "Rating": "3.6", "location": " PVR Tower, Near Ticket Counter PVR Cinemas, Vikaspuri, New Delhi", "Cuisines: ": "North Indian, Mughlai, Chinese", "hours": "11am\u201311pm(Mon,Wed,Thu,Fri,Sat,Sun),Closed...", "Cost for two": "\u20b9400", "votes": "152"}, {"Name": "Bella Italia", "Rating": "3.6", "location": " Ground Floor, MLCP, IGI Terminal 3, Aerocity, New Delhi", "Cuisines: ": "Fast Food, Italian, Pizza", "hours": "24Hours(Mon-Sun)", "Cost for two": "\u20b9550", "votes": "52"}, {"Name": "Sona Chinese", "Rating": "3.4", "location": " F-211, Gate 6, Vyapar Kendra, Palam Vihar, Gurgaon", "Cuisines: ": "Chinese", "hours": "11am\u201310:30pm(Mon-Sun)", "Cost for two": "\u20b9350", "votes": "72"}]