[{"Name": "Chaska Chaap", "Rating": "3.4", "votes": "21", "location": " Shop 3, D 86, Near Gaur Square, Govind Puram, Ghaziabad", "Cuisines: ": "North Indian, Rolls, Chinese", "hours": "12noon\u201311pm(Mon-Sun)", "Cost for two": "\u20b9400"}, {"Name": "Variety Of Rolls", "Rating": "3.5", "votes": "21", "location": " C-143, West Patel Nagar, New Delhi", "Cuisines: ": "Rolls", "hours": "11am\u201311pm(Mon-Sun)", "Cost for two": "\u20b9200"}, {"Name": "Lebanese Wonder", "Rating": "3.8", "votes": "46", "location": " Shop F-27, 1st Floor, Baani Square, Sector 50, Gurgaon", "Cuisines: ": "Lebanese, Healthy Food, Salad", "hours": "7am\u201312midnight(Mon-Sun)", "Cost for two": "\u20b9400"}, {"Name": "Tirupathi South Indian Fast Food", "Rating": "NEW", "votes": "46", "location": " 11/71, Near Police Station, Geeta Colony, New Delhi", "Cuisines: ": "South Indian, Chinese", "hours": "11am\u201311pm(Mon-Sun)", "Cost for two": "\u20b9200"}, {"Name": "Paradise Inn", "Rating": "3.5", "votes": "288", "location": " 124, Near OBC Bank, Sector 17 Market, Sector 17, Faridabad", "Cuisines: ": "North Indian, Mughlai, Chinese", "hours": "11am\u201310:30pm(Mon-Sun)", "Cost for two": "\u20b9400"}, {"Name": "Rollhub Exclusive", "Rating": "3.7", "votes": "119", "location": " A/229, Ground Floor, Kalkaji, New Delhi", "Cuisines: ": "North Indian, Rolls", "hours": "Closed(Mon),1pm\u201311pm(Tue-Sun)", "Cost for two": "\u20b9500"}, {"Name": "Aggarwal Sweet Corner", "Rating": "3.2", "votes": "12", "location": " 1552 - C/15, Nirankari Bhawan Road, Govindpuri, Opposite Pooja Masala Store, Kalkaji, New Delhi", "Cuisines: ": "Mithai, Chinese, North Indian", "hours": "8am\u201311pm(Mon-Sun)", "Cost for two": "\u20b9300"}, {"Name": "Kaka Ji Corner", "Rating": "-", "votes": "12", "location": " G7, Alakanda Shopping Complex, Kalkaji, New Delhi", "Cuisines: ": "Street Food", "hours": "8:30am\u20138:30pm(Mon-Sun)", "Cost for two": "\u20b9150"}, {"Name": "Al Halal Pizza Express", "Rating": "-", "votes": "12", "location": " C 54, Abul Fazal Enclave, Jamia Nagar, Okhla Phase 1, New Delhi", "Cuisines: ": "Pizza, Chinese", "hours": "11am\u201311pm(Mon-Sun)", "Cost for two": "\u20b9300"}, {"Name": "Shiv Indian & Chinese Cuisine", "Rating": "3.7", "votes": "166", "location": " B-39/B, Main Road, Kalkaji, New Delhi", "Cuisines: ": "North Indian, Chinese", "hours": "12noon\u20134pm,7pm\u201311pm(Mon-Sun)", "Cost for two": "\u20b9700"}, {"Name": "Being Bong", "Rating": "3.2", "votes": "9", "location": " Shop 51, Market 1, Chittaranjan Park, New Delhi", "Cuisines: ": "Bengali", "hours": "12noon\u201311pm(Mon-Sun)", "Cost for two": "\u20b9400"}, {"Name": "Ok Restaurant", "Rating": "3.0", "votes": "19", "location": " Near Post Office, Badarpur Main Market, Badarpur Border, Faridabad", "Cuisines: ": "North Indian", "hours": "11am\u201311pm(Mon-Sun)", "Cost for two": "\u20b9400"}, {"Name": "KKR Kolkata Kathi Roll", "Rating": "3.3", "votes": "13", "location": " 1552/B, Govind Puri, Kalkaji, New Delhi", "Cuisines: ": "Rolls, Chinese", "hours": "12noon\u20134am(Mon-Sun)", "Cost for two": "\u20b9250"}, {"Name": "Yummy Paratha", "Rating": "3.4", "votes": "9", "location": " 121, Bal Mukund, Khand, Govindpuri, Kalakaji, New Delhi 110019", "Cuisines: ": "North Indian", "hours": "9am\u20134pm,7pm\u20131am(Mon-Sun)", "Cost for two": "\u20b9300"}, {"Name": "Haris Kitchen", "Rating": "3.5", "votes": "22", "location": " 71, Ring Road, Lajpat Nagar 3, New Delhi", "Cuisines: ": "North Indian, Chinese, Fast Food", "hours": "12noon\u201312midnight(Mon-Sun)", "Cost for two": "\u20b9600"}]