[{"Name": "Lokenath Hotel & Lodge", "Rating": "-", "location": " 5607, Basant Raod, Near New Delhi Railway Station, Paharganj, New Delhi", "Cuisines: ": "North Indian, Chinese", "hours": "9am\u201311pm(Mon-Sun)", "Cost for two": "\u20b9300"}, {"Name": "Subhash Sweets", "Rating": "2.9", "location": " 42, Baird Lane, Near Shaheed Bhagat Singh, Gole Market, New Delhi", "Cuisines: ": "Mithai, Street Food", "hours": "11am\u201311pm(Mon-Sun)", "Cost for two": "\u20b9200", "votes": "14"}, {"Name": "New Apna Hotel", "Rating": "-", "location": " Amrit Kaur Market, Opposite New Delhi Railway Station Gate 12, Paharganj, New Delhi", "Cuisines: ": "North Indian, Mughlai", "hours": "9am\u201312midnight(Mon-Sun)", "Cost for two": "\u20b9500", "votes": "14"}, {"Name": "Punjabi Vaishno Dhaba", "Rating": "-", "location": " 116, Amrit Kaur Market, Opposite New Delhi Railway Station, Gate 1, Paharganj, New Delhi", "Cuisines: ": "North Indian", "hours": "9am\u201310pm(Mon-Sun)", "Cost for two": "\u20b9300", "votes": "14"}, {"Name": "Bajaj Vaishno Dhaba", "Rating": "2.2", "location": " 117, Amrit Kaur Market, Opposite New Delhi Railway Station Gate 2, Paharganj, New Delhi", "Cuisines: ": "North Indian", "hours": "9am\u20139pm(Mon-Sun)", "Cost for two": "\u20b9400", "votes": "21"}, {"Name": "Chinese fast food", "Rating": "-", "location": " Amrit Kunj, Paharganj, New Delhi", "Cuisines: ": "Fast Food", "hours": "11am\u201311pm(Mon-Sun)", "Cost for two": "\u20b9100", "votes": "21"}, {"Name": "Kala Ram Chand", "Rating": "-", "location": " Shop 1178, Six Tooti Road, Paharganj, New Delhi", "Cuisines: ": "Mithai", "hours": "10am\u201310pm(Mon-Sun)", "Cost for two": "\u20b9100", "votes": "21"}, {"Name": "The Charlie Cafe & Restaurant", "Rating": "-", "location": " Shop 899, Gali Chandi Wali, Paharganj, New Delhi", "Cuisines: ": "North Indian, Chinese, Fast Food", "hours": "8am\u201312midnight(Mon-Sun)", "Cost for two": "\u20b9550", "votes": "21"}, {"Name": "Gulshan Dhaba", "Rating": "-", "location": " Shop 139, Blue Line, Gole Market, New Delhi", "Cuisines: ": "North Indian", "hours": "10am\u201310pm(Mon-Sun)", "Cost for two": "\u20b9300", "votes": "21"}, {"Name": "Sahib Hotel", "Rating": "-", "location": " 121, Amrit Kaur Market, Opposite New Delhi Railway Station Gate 4, Paharganj, New Delhi", "Cuisines: ": "North Indian", "hours": "6am\u201311:30pm,12midnight\u20131am(Mon-Sun)", "Cost for two": "\u20b9300", "votes": "21"}, {"Name": "R2 Lounge & Restaurant", "Rating": "-", "location": " 4744, Opposite Citizen Bank ATM, Chuna Mandi, Paharganj, New Delhi", "Cuisines: ": "North Indian", "hours": "11:30am\u201311pm(Mon-Sun)", "Cost for two": "\u20b9500", "votes": "21"}, {"Name": "Gauri Shankar Lalkunal Chole Bhathure Wale", "Rating": "-", "location": " 1022-1023, Gali Halwai Wali, New Delhi Railway Station, Paharganj, New Delhi", "Cuisines: ": "Street Food, North Indian", "hours": "8am\u20134pm(Mon-Sun)", "Cost for two": "\u20b9150", "votes": "21"}, {"Name": "New Janta Dhaba", "Rating": "-", "location": " 3989, Kaseru Walan, Near PG International Hotel, Paharganj, New Delhi", "Cuisines: ": "North Indian", "hours": "9am\u20133:30pm,7pm\u201312midnight(Mon-Sun)", "Cost for two": "\u20b9250", "votes": "21"}, {"Name": "Raju Punjabi Dhaba", "Rating": "-", "location": " Shop 7, Kashmiri Market, Janpath, New Delhi", "Cuisines: ": "North Indian", "hours": "8am\u201311pm(Mon-Sun)", "Cost for two": "\u20b9200", "votes": "21"}, {"Name": "Exotic Rooftop Restaurant", "Rating": "3.7", "location": " 4792, Main Bazar, 6 Tooti Chowk, Paharganj, New Delhi", "Cuisines: ": "Chinese, North Indian, Seafood", "hours": "8am\u201311pm(Mon-Sun)", "Cost for two": "\u20b9600", "votes": "45"}]