[{"Name": "RPM", "Rating": "2.8", "votes": "184", "location": " 40, Basant Lok Market, Vasant Vihar, New Delhi", "Cuisines: ": "Fast Food, Bar Food, Beverages", "hours": "12noon\u20131am(Mon-Sun)", "Cost for two": "\u20b92,000"}, {"Name": "Delhi Chow", "Rating": "3.7", "votes": "57", "location": " Gate 3, Near BSES Office, Hauz Khas Metro Station, Hauz Khas, New Delhi", "Cuisines: ": "Fast Food", "hours": "12noon\u201310pm(Mon-Sun)", "Cost for two": "\u20b9250"}, {"Name": "Wake Up Cafe", "Rating": "3.8", "votes": "59", "location": " Champa Gali, Khasra 258, Lane 3, Westend Marg, Saidullajab, Saket, New Delhi", "Cuisines: ": "Cafe, Healthy Food", "hours": "11am\u201310:30pm(Mon-Sun)", "Cost for two": "\u20b9550"}, {"Name": "Chinese Bowl", "Rating": "3.2", "votes": "9", "location": " Shop 17, Huda Market 2, Sector 19, Faridabad", "Cuisines: ": "Chinese", "hours": "12noon\u201310:30pm(Mon-Sun)", "Cost for two": "\u20b9450"}, {"Name": "Chimney Sizzlers", "Rating": "3.8", "votes": "364", "location": " V-10 & 16, Yashwant Place Commercial Complex, Chanakyapuri, New Delhi", "Cuisines: ": "Chinese, Fast Food", "hours": "11am\u201312midnight(Mon-Sun)", "Cost for two": "\u20b9700"}, {"Name": "Hot & Tasty", "Rating": "3.6", "votes": "40", "location": " 128 A, Mohammad Pur, R K Puram, New Delhi", "Cuisines: ": "North Indian, Chinese", "hours": "11am\u201311pm(Mon-Sun)", "Cost for two": "\u20b9400"}, {"Name": "Vero Gusto", "Rating": "3.9", "votes": "333", "location": " Shop 4, H 12/16, Malviya Nagar, New Delhi", "Cuisines: ": "Bakery, Fast Food, Ice Cream, Beverages", "hours": "7am\u201312midnight(Mon-Sun)", "Cost for two": "\u20b9600"}, {"Name": "Cafe Legato", "Rating": "NEW", "votes": "333", "location": " Shop 108, 1st Floor, Living Style Mall, Kalindi Kunj Road, Near Jasola Vihar Metro Station, Jasola, New Delhi", "Cuisines: ": "Cafe, Bakery, Beverages", "hours": "9am\u201310:30pm(Mon-Sun)", "Cost for two": "\u20b9500"}, {"Name": "Mean Bean Cafe", "Rating": "3.8", "votes": "51", "location": " Vipul Tech Square, Sector 43, Golf Course Road, Gurgaon", "Cuisines: ": "Cafe, Beverages", "hours": "9am\u20139pm(Mon-Sat),Closed(Sun)", "Cost for two": "\u20b9550"}, {"Name": "Super Waffle Restaurant", "Rating": "3.4", "votes": "18", "location": " C 318 A, Basement, Sushant Lok, Gurgaon", "Cuisines: ": "Desserts, Burger, Fast Food, Ice Cream", "hours": "24Hours(Mon-Sun)", "Cost for two": "\u20b9500"}, {"Name": "Chinese Hot Corner", "Rating": "3.7", "votes": "265", "location": " G-15, Vardhman Sunrise Plaza, Vasundhara Enclave, New Delhi", "Cuisines: ": "Chinese, Momos", "hours": "11am\u20132am(Mon-Sun)", "Cost for two": "\u20b9300"}, {"Name": "Bikaner Cornerwala", "Rating": "3.4", "votes": "79", "location": " 457, Behra Enclave, Paschim Vihar, New Delhi", "Cuisines: ": "Mithai, Street Food, Chinese", "hours": "8am\u201310pm(Mon-Sun)", "Cost for two": "\u20b9150"}, {"Name": "Khana Khajana", "Rating": "3.7", "votes": "83", "location": " 66, Gopal Park, Steert 5, Chander Nagar, New Delhi", "Cuisines: ": "North Indian, Beverages", "hours": "12midnight\u20134am,12:30pm\u201312midnight(Mon-Sun)", "Cost for two": "\u20b9500"}, {"Name": "Cakes Sarovar", "Rating": "NEW", "votes": "83", "location": " S 27/9 E, DLF Phase 3, Gurgaon", "Cuisines: ": "Bakery, Desserts", "hours": "11am\u201311pm(Mon-Sun)", "Cost for two": "\u20b9250"}, {"Name": "Desi Urban Cafe", "Rating": "3.7", "votes": "86", "location": " U 15/34, Ground Floor, DLF Phase 3, Gurgaon", "Cuisines: ": "Biryani, North Indian, Hyderabadi, Fast Food", "hours": "12noon\u201312midnight(Mon-Sun)", "Cost for two": "\u20b9700"}]