[{"Name": "Puratan - Family Restaurant & Bar", "Rating": "3.5", "votes": "255", "location": " Garg Trade Center, Sector 11, Rohini, New Delhi", "Cuisines: ": "North Indian, Chinese, Beverages", "hours": "12noon\u201311:30pm(Mon-Sun)", "Cost for two": "\u20b91,000"}, {"Name": "Big Bite Pizza Corner", "Rating": "3.1", "votes": "7", "location": " Shop 31, Dhramshala Road Part 2, Mithapur, Near SBI ATM, Badarpur Border, Faridabad", "Cuisines: ": "Pizza", "hours": "11am\u201311pm(Mon-Sun)", "Cost for two": "\u20b9350"}, {"Name": "Sikkim Tourism Tashi Delek Food Stall", "Rating": "4.1", "votes": "111", "location": " 11, Dilli Haat, INA, New Delhi", "Cuisines: ": "Chinese, North Eastern, Momos", "hours": "12noon\u20139:30pm(Mon-Sun)", "Cost for two": "\u20b9300"}, {"Name": "JW Solitaire", "Rating": "3.7", "votes": "600", "location": " 2nd Floor, NN Mall, Near M2K Cinema, Rohini, New Delhi", "Cuisines: ": "North Indian, Chinese, Continental", "hours": "10:30am\u201311:30pm(Mon-Sun)", "Cost for two": "\u20b91,200"}, {"Name": "Dosa Expert", "Rating": "3.2", "votes": "15", "location": " Shop 1, 873, Mukherjee Nagar, New Delhi", "Cuisines: ": "South Indian", "hours": "10am\u201311pm(Mon-Sun)", "Cost for two": "\u20b9250"}, {"Name": "The Shawarma Seekers", "Rating": "3.5", "votes": "39", "location": " Near Vardhaman Plaza, Bhera Enclave, Paschim Vihar, New Delhi", "Cuisines: ": "North Indian, Lebanese, Chinese", "hours": "1pm\u201311:30pm(Mon,Thu,Fri,Sat,Sun),Closed...", "Cost for two": "\u20b9300"}, {"Name": "Ba Se Biryani", "Rating": "3.6", "votes": "16", "location": " Shop 220, 2nd Floor, Panchsheel Square Mall, Crossing Republik, Ghaziabad", "Cuisines: ": "North Indian, Mughlai, Biryani", "hours": "12noon\u201312midnight(Mon-Sun)", "Cost for two": "\u20b9600"}, {"Name": "The Aravali Story", "Rating": "3.6", "votes": "64", "location": " Opposite Aravali International School, Sector 43, Faridabad", "Cuisines: ": "Continental, North Indian, Italian", "hours": "11am\u201312midnight(Mon-Sun)", "Cost for two": "\u20b9900"}, {"Name": "Rolls Heaven", "Rating": "-", "votes": "64", "location": " Delivery Only", "Cuisines: ": "Rolls, Fast Food", "hours": "12noon\u20134am(Mon-Sun)", "Cost for two": "\u20b9250"}, {"Name": "Lets Bake Love", "Rating": "3.9", "votes": "109", "location": " C 7, Central Market, Next to Roxy Dry Cleaners, New Delhi, Lajpat Nagar 2, New Delhi", "Cuisines: ": "Bakery, Desserts", "hours": "Closed(Mon),8am\u201312midnight(Tue-Sun)", "Cost for two": "\u20b9600"}, {"Name": "Chetan Punjabi Kitchen", "Rating": "NEW", "votes": "109", "location": " 138A/9, Kishangarh, Vasant Kunj, New Delhi", "Cuisines: ": "North Indian", "hours": "12noon\u201310pm(Mon-Sun)", "Cost for two": "\u20b9150"}, {"Name": "Desi Chutney", "Rating": "3.1", "votes": "6", "location": " A304, Aditya Urban Casa, Opposite Mahagun Moderne, Sector 78, Near Sector 83, Noida", "Cuisines: ": "North Indian, Street Food", "hours": "9am\u201312midnight(Mon-Sun)", "Cost for two": "\u20b9300"}, {"Name": "Chachu Chicken Corner", "Rating": "NEW", "votes": "6", "location": " Plot 50/51, Industrial Area, Near Central Bank Of India, NIT, Faridabad", "Cuisines: ": "North Indian, Fast Food", "hours": "11am\u201311pm(Mon-Sun)", "Cost for two": "\u20b9300"}, {"Name": "Eatalia's", "Rating": "-", "votes": "6", "location": " House 9/1, Ground Floor, Block C 2, Rama Vihar, Village Karala, Rohini, New Delhi", "Cuisines: ": "Fast Food, Chinese", "hours": "10am\u201310pm(Mon-Sun)", "Cost for two": "\u20b9250"}, {"Name": "Sandhu's Curry Magic", "Rating": "-", "votes": "6", "location": " Delivery Only", "Cuisines: ": "North Indian, Mughlai, Chinese", "hours": "11:30am\u201311:30pm(Mon-Sun)", "Cost for two": "\u20b9600"}]