[{"Name": "Zaid Roll Corner", "Rating": "3.6", "votes": "73", "location": " Jagat Farm, Opposite Gurubaksh Plaza, Gamma 1, Greater Noida", "Cuisines: ": "Fast Food, Rolls, Chinese", "hours": "10am\u201310pm(Mon-Sun)", "Cost for two": "\u20b9250"}, {"Name": "Satyam Restaurant", "Rating": "3.8", "votes": "103", "location": " 93, Block A, Adchini, New Delhi", "Cuisines: ": "North Indian, South Indian, Chinese", "hours": "11am\u201311pm(Mon-Sat),9am\u201311pm(Sun)", "Cost for two": "\u20b9800"}, {"Name": "Noodle & Curry", "Rating": "NEW", "votes": "103", "location": " Shop G-6, Plot 5, Ground Floor, Wadhwa Plaza, Sector 10, Dwarka, New Delhi", "Cuisines: ": "Momos, Chinese, North Indian", "hours": "12noon\u20135:30pm,6:30pm\u201311:30pm(Mon-Sun)", "Cost for two": "\u20b9450"}, {"Name": "Juice Land", "Rating": "NEW", "votes": "103", "location": " New Colony, Sector 7, Gurgaon", "Cuisines: ": "Juices, Beverages, Fast Food", "hours": "8:15am\u201312:15am(Mon-Sun)", "Cost for two": "\u20b9250"}, {"Name": "Bank Bar & Lounge", "Rating": "2.9", "votes": "7", "location": " Lower Ground Floor, Mangalam Paradise Mall, Near Kali Mandir, Sector 3, Rohini, New Delhi", "Cuisines: ": "North Indian, Chinese", "hours": "12noon\u201312midnight(Mon-Sun)", "Cost for two": "\u20b91,000"}, {"Name": "FooBar", "Rating": "3.9", "votes": "23", "location": " Defence Colony, New Delhi", "Cuisines: ": "Burger, Sandwich, North Indian, Chinese", "hours": "11am\u20133am(Mon-Sun)", "Cost for two": "\u20b9400"}, {"Name": "Tandoori Khazan", "Rating": "3.5", "votes": "49", "location": " Shop 2, Opposite SRS Royal Hills, Sector 87, Near Sector 86, Faridabad", "Cuisines: ": "Mughlai, Chinese, North Indian, BBQ", "hours": "8am\u201312midnight(Mon-Sun)", "Cost for two": "\u20b9500"}, {"Name": "Noor Chicken Point & Restaurant", "Rating": "3.5", "votes": "90", "location": " Yamuna Vihar Road, North Ghonda, Shahdara, New Delhi", "Cuisines: ": "North Indian", "hours": "6:30pm\u201312midnight(Mon-Sun)", "Cost for two": "\u20b9400"}, {"Name": "Diya - The Leela Ambience", "Rating": "3.9", "votes": "241", "location": " The Leela Ambience, Ambience Island, DLF Phase 3, Gurgaon", "Cuisines: ": "North Indian", "hours": "6:30pm\u201311:30pm(Mon-Sun)", "Cost for two": "\u20b93,500"}, {"Name": "Shreshtham Foods", "Rating": "NEW", "votes": "241", "location": " 1061, Opposite Government Boys School, Mukherjee Nagar, New Delhi", "Cuisines: ": "North Indian, Chinese", "hours": "7:30am\u201311pm(Mon-Sun)", "Cost for two": "\u20b9300"}, {"Name": "Amritsari Kulcha Hub", "Rating": "NEW", "votes": "241", "location": " 11/25, Darbar Marg, Geeta Colony, New Delhi", "Cuisines: ": "Street Food", "hours": "9am\u20135pm(Mon-Sun)", "Cost for two": "\u20b9200"}, {"Name": "Laajwaab Foods", "Rating": "-", "votes": "241", "location": " Plot A 51, Behind ITM Enclave, Sector 23, Gurgaon", "Cuisines: ": "North Indian, Chinese", "hours": "11am\u20134pm,6pm\u20134am(Mon-Sun)", "Cost for two": "\u20b9400"}, {"Name": "Mumma's Indian Kitchen", "Rating": "2.8", "votes": "153", "location": " 27/4, Indra Vikas Colony, Mukherjee Nagar, New Delhi", "Cuisines: ": "North Indian, Mughlai", "hours": "9am\u20134am(Mon-Sun)", "Cost for two": "\u20b9450"}, {"Name": "Kuick Bite", "Rating": "NEW", "votes": "153", "location": " 221, Manish Plaza 3rd, Pocket 1, Sector 10, Dwarka, New Delhi", "Cuisines: ": "Momos, Rolls", "hours": "5pm\u201310:30pm(Mon-Sun)", "Cost for two": "\u20b9150"}, {"Name": "Spicy Bite", "Rating": "3.2", "votes": "5", "location": " WZ 137, K-91, Gali 3, Monday Market, Tihar Village, Rajouri Garden, New Delhi", "Cuisines: ": "North Indian", "hours": "11am\u201311pm(Mon-Sun)", "Cost for two": "\u20b9500"}]