[{"Name": "Srri Rudra", "Rating": "3.2", "votes": "12", "location": " 1067/1069 Main Bazaar, Near New Deli Railway Station, Paharganj, New Delhi", "Cuisines: ": "North Indian", "hours": "8:30am\u201311pm(Mon-Sun)", "Cost for two": "\u20b9400"}, {"Name": "Moti Mahal Dx Rajputana Cuisine", "Rating": "3.6", "votes": "24", "location": " 17, Panchkuian Road, Opposite Metro Pillar 14, Near RK Ashram Metro Station, Paharganj, New Delhi", "Cuisines: ": "North Indian, Mughlai, Chinese", "hours": "11am\u201312midnight(Mon-Sun)", "Cost for two": "\u20b91,200"}, {"Name": "Kishori Ki Rasoi", "Rating": "3.1", "votes": "4", "location": " 92-94, Krishna Gali, Near New Delhi Railway Station, Paharganj, New Delhi", "Cuisines: ": "North Indian, Desserts", "hours": "11am\u201310pm(Mon-Sun)", "Cost for two": "\u20b9350"}, {"Name": "Sachdeva Confectionery", "Rating": "NEW", "votes": "4", "location": " 1, Gandhi Market, Mirdard Road, Barakhamba Road, New Delhi", "Cuisines: ": "Bakery", "hours": "9am\u20139pm(Mon-Sun)", "Cost for two": "\u20b9200"}, {"Name": "Karachi Bakery", "Rating": "3.6", "votes": "29", "location": " Shop 21, Bengali Market, Mandi House, New Delhi", "Cuisines: ": "Bakery, Fast Food, Beverages", "hours": "9am\u201310pm(Mon-Sun)", "Cost for two": "\u20b9500"}, {"Name": "Chakhna By BarShala", "Rating": "-", "votes": "29", "location": " 4, New Delhi Airport Express Mall, Opposite New Delhi Railway Station, Ajmeri Gate, Paharganj, New Delhi", "Cuisines: ": "Fast Food, Street Food, Bar Food", "hours": "11:30am\u201311pm(Mon-Sun)", "Cost for two": "\u20b9600"}, {"Name": "RJ Food Point", "Rating": "NEW", "votes": "29", "location": " 5147, Maha Laxmi Building, Chuna Mandi, Paharganj, New Delhi", "Cuisines: ": "North Indian, Chinese", "hours": "11am\u20131am(Mon-Sun)", "Cost for two": "\u20b9300"}, {"Name": "Nanda Vaishno Dhaba", "Rating": "3.0", "votes": "7", "location": " 174, Amrit Kaur Market, Opposite New Delhi Railway Station Gate 15, Paharganj, New Delhi", "Cuisines: ": "North Indian", "hours": "24Hours(Mon-Sun)", "Cost for two": "\u20b9200"}, {"Name": "La Baguette - The Imperial", "Rating": "3.8", "votes": "58", "location": " The Imperial, Janpath, New Delhi", "Cuisines: ": "Desserts, Bakery", "hours": "10am\u201310pm(Mon-Sun)", "Cost for two": "\u20b91,000"}, {"Name": "Grand Sindhi Restaurant", "Rating": "3.0", "votes": "173", "location": " 1554, Main Bazar, Paharganj, New Delhi", "Cuisines: ": "North Indian, Chinese, Italian", "hours": "8am\u201312midnight(Mon),8am\u20132:30am(Tue-Sun)", "Cost for two": "\u20b9550"}, {"Name": "1911 Bar - The Imperial", "Rating": "3.6", "votes": "17", "location": " The Imperial, Janpath, New Delhi", "Cuisines: ": "Finger Food", "hours": "11:45am\u201312:45am(Mon-Sun)", "Cost for two": "\u20b92,000"}, {"Name": "Monga Snacks", "Rating": "3.3", "votes": "8", "location": " Near Barakhamba Metro Station, Barakhamba Road, New Delhi", "Cuisines: ": "North Indian", "hours": "8:30am\u20139pm(Mon-Sun)", "Cost for two": "\u20b9500"}, {"Name": "Aggarwal Pavitra Bhojanalaya", "Rating": "-", "votes": "8", "location": " 15, Amrit Kaur Market, Opposite New Delhi Railway Station, Gate 12, Paharganj, New Delhi", "Cuisines: ": "North Indian", "hours": "8:30am\u201312midnight(Mon-Sun)", "Cost for two": "\u20b9200"}, {"Name": "Deluxe Chicken", "Rating": "3.4", "votes": "26", "location": " 1, Bhagat Singh Market, Near Gole Market, New Delhi", "Cuisines: ": "Mughlai, Naga", "hours": "10am\u201310pm(Mon-Sun)", "Cost for two": "\u20b9600"}, {"Name": "Amar Biscuit Bakery", "Rating": "3.4", "votes": "17", "location": " 159, Bhagat Singh Market, Gole Market, New Delhi", "Cuisines: ": "Bakery", "hours": "9am\u20139pm(Mon-Sun)", "Cost for two": "\u20b9200"}]