[{"Name": "VFC Food Corner", "Rating": "3.5", "votes": "45", "location": " 1, Okhla Industrial Estate, Near Fire Station, Okhla Phase 3, New Delhi", "Cuisines: ": "North Indian", "hours": "11am\u201311pm(Mon-Sun)", "Cost for two": "\u20b9400"}, {"Name": "The Funnel Hill Creamery", "Rating": "4.1", "votes": "544", "location": " G-55, Ground Floor, Main Market, Green Park, New Delhi", "Cuisines: ": "Cafe, Desserts, Ice Cream", "hours": "12noon\u201311pm(Mon-Sun)", "Cost for two": "\u20b9500"}, {"Name": "Mughal Bistro", "Rating": "3.6", "votes": "87", "location": " C-31, Ground Floor, Main Market, Amar Colony, New Delhi", "Cuisines: ": "North Indian, Mughlai, Italian, Continental", "hours": "12midnight\u20132:30am,11:30am\u201312midnight...", "Cost for two": "\u20b91,300"}, {"Name": "Choolah", "Rating": "3.8", "votes": "121", "location": " Shop 6, BB Block, DDA Market, Janakpuri, New Delhi", "Cuisines: ": "North Indian, Chinese, Biryani, Momos, Rolls", "hours": "6:30pm\u201312:30am(Mon-Sun)", "Cost for two": "\u20b9700"}, {"Name": "Shama Chicken Corner", "Rating": "3.6", "votes": "72", "location": " Sangam Guest House, Nayabans, Sector 15, Noida", "Cuisines: ": "Mughlai", "hours": "10am\u201311pm(Mon-Sun)", "Cost for two": "\u20b9300"}, {"Name": "Balaji Restaurant & Caters", "Rating": "3.5", "votes": "27", "location": " Shop B -6/7, Challera, Near Steller Green Apartments, Sector 44, Noida", "Cuisines: ": "North Indian", "hours": "10am\u201312midnight(Mon-Sun)", "Cost for two": "\u20b9250"}, {"Name": "Kebabchi - The Thrill Of The Grill", "Rating": "3.8", "votes": "25", "location": " Shop 8-9-10, O 14, Lajpat Nagar 2, New Delhi", "Cuisines: ": "North Indian, Chinese", "hours": "12noon\u201311pm(Mon-Sun)", "Cost for two": "\u20b9800"}, {"Name": "Kadimi Dukan", "Rating": "3.6", "votes": "95", "location": " 38, Central Road, Bhogal, Jangpura, New Delhi", "Cuisines: ": "Mithai, North Indian, Street Food, Chinese", "hours": "7:30am\u20139:30pm(Mon-Sun)", "Cost for two": "\u20b9300"}, {"Name": "Mvees", "Rating": "NEW", "votes": "95", "location": " 141, Sant Nagar, East of Kailash, New Delhi", "Cuisines: ": "Fast Food", "hours": "12noon\u201310pm(Mon-Sun)", "Cost for two": "\u20b9200"}, {"Name": "The Champaran Meat House", "Rating": "3.6", "votes": "28", "location": " U 5/50, U Block, DLF Phase 3, Gurgaon", "Cuisines: ": "North Indian", "hours": "12noon\u20134am(Mon-Sun)", "Cost for two": "\u20b9500"}, {"Name": "I Food You", "Rating": "3.8", "votes": "251", "location": " 1 and 9, Sandesh Vihar, DDA Market, Pitampura, New Delhi", "Cuisines: ": "North Indian, Fast Food", "hours": "3pm\u20133am(Mon-Sun)", "Cost for two": "\u20b9500"}, {"Name": "Jugnu Chaap", "Rating": "3.5", "votes": "73", "location": " F-24/1C, Near Sector 7, Rohini, New Delhi", "Cuisines: ": "Fast Food, North Indian", "hours": "1pm\u201311pm(Mon-Sun)", "Cost for two": "\u20b9400"}, {"Name": "Rao Bhojanalay", "Rating": "3.6", "votes": "81", "location": " Dundahera Border, Near Kapashera, New Delhi", "Cuisines: ": "North Indian", "hours": "11am\u201311pm(Mon-Sun)", "Cost for two": "\u20b9300"}, {"Name": "Siya Continental", "Rating": "NEW", "votes": "81", "location": " C1-110, 1st Floor, Main Thursday Market Road, Sanjay Enclave, Uttam Nagar, New Delhi", "Cuisines: ": "North Indian", "hours": "8am\u201311pm,12midnight\u20134am(Mon-Sun)", "Cost for two": "\u20b9350"}, {"Name": "Anushka Di Rasoi", "Rating": "3.3", "votes": "11", "location": " Old Delhi Gurgaon Road, Jwala Mil Road, Nipat Bai 55, Dharam Kanta, Sector 22, Gurgaon", "Cuisines: ": "North Indian", "hours": "8am\u20133pm,6pm\u20132:30am(Mon-Sun)", "Cost for two": "\u20b9350"}]