[{"Name": "Fahad Foods", "Rating": "-", "location": " 981, Matia Mahal, Jama Masjid Gate 1, Jama Masjid, New Delhi", "Cuisines: ": "Biryani, Fast Food, Kebab", "hours": "12noon\u201312midnight(Mon-Sun)", "Cost for two": "\u20b9200"}, {"Name": "S.M.K Mess", "Rating": "3.1", "location": " 7A/7, Channa Market, W.E.A, Karol Bagh New Delhi", "Cuisines: ": "South Indian", "hours": "10am\u201311pm(Mon-Sun)", "Cost for two": "\u20b9300", "votes": "5"}, {"Name": "Riya Grilled Corner", "Rating": "-", "location": " Gurdwara Road, Near Karol Bagh Metro Station Gate 7, Karol Bagh, New Delhi", "Cuisines: ": "Fast Food", "hours": "4pm\u201311pm(Mon-Sun)", "Cost for two": "\u20b9150", "votes": "5"}, {"Name": "Al-Samir Foods", "Rating": "-", "location": " Baint Wali Gali, MD Ismail Marg, Bara Hindu Rao, Sadar Bazar, Near Chandni Chowk, New Delhi", "Cuisines: ": "Fast Food", "hours": "11am\u201311pm(Mon-Sun)", "Cost for two": "\u20b9150", "votes": "5"}, {"Name": "Anil Dhaba", "Rating": "-", "location": " 171, Netaji Subhash Market, Ajmal Khan Road, Karol Bagh, New Delhi", "Cuisines: ": "North Indian", "hours": "11am\u201311pm(Mon-Sun)", "Cost for two": "\u20b9250", "votes": "5"}, {"Name": "Piara Singh & Sons", "Rating": "-", "location": " 1170, Bahadurgarh Road, Sadar Bazaar, Near Chandani Chowk, New Delhi", "Cuisines: ": "Bakery, Fast Food", "hours": "6:30am\u20139am(Mon-Sun)", "Cost for two": "\u20b9150", "votes": "5"}, {"Name": "Savi Tiffin Service", "Rating": "-", "location": " Gurunanak Market, Karol Bagh, New Delhi", "Cuisines: ": "North Indian", "hours": "10am\u20134pm,6:30pm\u201310pm(Mon-Sun)", "Cost for two": "\u20b9100", "votes": "5"}, {"Name": "Karol Bagh Street Food", "Rating": "-", "location": " Padam Singh Road, Main Market, Karol Bagh, New Delhi", "Cuisines: ": "North Indian", "hours": "10:30am\u20137pm(Mon-Sun)", "Cost for two": "\u20b9100", "votes": "5"}, {"Name": "Fruits Cream", "Rating": "-", "location": " Azad Bhawan Road, Next To Income Tax Department, ITO, New Delhi", "Cuisines: ": "Desserts", "hours": "10am\u20135pm(Mon-Sun)", "Cost for two": "\u20b9150", "votes": "5"}, {"Name": "Brijwasi Mart", "Rating": "-", "location": " 376, Ground Floor, Kucha Ghasi Ram, Chandni Chowk, New Delhi", "Cuisines: ": "Beverages", "hours": "12noon\u201311pm(Mon-Sun)", "Cost for two": "\u20b9250", "votes": "5"}, {"Name": "Sweet Nation", "Rating": "-", "location": " 11170, New Rohtak Road, Karol Bagh, New Delhi", "Cuisines: ": "Desserts", "hours": "1pm\u201312midnight(Mon-Sun)", "Cost for two": "\u20b9150", "votes": "5"}, {"Name": "Khau Gail", "Rating": "NEW", "location": " Shop 1, Anarkali Complex, Jhandewalan, Karol Bagh, New Delhi.", "Cuisines: ": "Street Food, North Indian", "hours": "7am\u20136pm(Mon-Sun)", "Cost for two": "\u20b9150", "votes": "5"}, {"Name": "Gulshan Juice Corner", "Rating": "-", "location": " 5091/1, Gali 1, Krishan Nagar, Near Khalsa College, Karol Bagh, New Delhi", "Cuisines: ": "Juices", "hours": "9am\u201310:30pm(Mon-Sun)", "Cost for two": "\u20b9100", "votes": "5"}, {"Name": "Ladi Restro", "Rating": "NEW", "location": " A 11, Rajendra Market, Mori Gate, near Indian Petrol Pump, Chandni Chowk, New Delhi", "Cuisines: ": "North Indian, Street Food", "hours": "8am\u20138pm(Mon-Sun)", "Cost for two": "\u20b9100", "votes": "5"}, {"Name": "Purana Zaika", "Rating": "NEW", "location": " Shop 2820, Shankar Gali, Sita Ram Bazaar, Delhi 6, Chawri Bazar, New Delhi", "Cuisines: ": "Mughlai", "hours": "4pm\u20131am(Mon-Sun)", "Cost for two": "\u20b9600", "votes": "5"}]