[{"Name": "Dhaba Up 22", "Rating": "3.3", "votes": "11", "location": " Plot 90, Road U 15, DLF Phase 3, Gurgaon", "Cuisines: ": "North Indian, Chinese", "hours": "11am\u201311pm(Mon-Sun)", "Cost for two": "\u20b9500"}, {"Name": "Masala Handi", "Rating": "3.6", "votes": "77", "location": " SD 130, Jaipuriya Sunrise Plaza, Indirapuram, Ghaziabad", "Cuisines: ": "North Indian, Mughlai", "hours": "11am\u20134am(Mon-Sun)", "Cost for two": "\u20b9400"}, {"Name": "New Khalsa Restaurant", "Rating": "3.6", "votes": "300", "location": " C-212, Near Hotel Maya Place, Mayapuri Phase 2, New Delhi", "Cuisines: ": "North Indian, Chinese", "hours": "12noon\u201311pm(Mon-Sun)", "Cost for two": "\u20b9650"}, {"Name": "Urban Tadka", "Rating": "3.8", "votes": "107", "location": " 1A/95, NIT, Faridabad", "Cuisines: ": "North Indian, Mughlai", "hours": "2pm\u201311:30pm(Mon,Wed,Thu,Fri,Sat,Sun)...", "Cost for two": "\u20b9600"}, {"Name": "Shawarma Buzz Rolls", "Rating": "3.4", "votes": "16", "location": " D-525, Block D, Tagore Garden, New Delhi", "Cuisines: ": "Street Food", "hours": "6pm\u201311pm(Mon-Sun)", "Cost for two": "\u20b9200"}, {"Name": "Guru Ji Shandar", "Rating": "3.2", "votes": "8", "location": " A5B/77A, Janakpuri, New Delhi", "Cuisines: ": "North Indian, South Indian", "hours": "9am\u20139pm(Mon-Sun)", "Cost for two": "\u20b9200"}, {"Name": "Burger Art", "Rating": "NEW", "votes": "8", "location": " Mother Dairy Market, Near IndusInd Bank ATM, Sector 34, Noida", "Cuisines: ": "Burger, Fast Food, Beverages", "hours": "5pm\u201310:30pm(Mon-Sun)", "Cost for two": "\u20b9300"}, {"Name": "Punjabi Dhaba", "Rating": "3.4", "votes": "11", "location": " A 2/59 & 60, New Kondli, Near Vasundhara Enclave, New Delhi", "Cuisines: ": "North Indian", "hours": "11am\u20134pm,7pm\u201311pm(Mon-Sun)", "Cost for two": "\u20b9250"}, {"Name": "Navarasam", "Rating": "3.5", "votes": "21", "location": " Plot-45, First Floor Bharat Complex, Maura, Sector 66, Sector 65, Noida", "Cuisines: ": "South Indian", "hours": "10am\u20131am(Mon-Sun)", "Cost for two": "\u20b9450"}, {"Name": "Curry On Jatta", "Rating": "3.6", "votes": "41", "location": " Shop 32, Huda Market 2, Sector 19, Faridabad", "Cuisines: ": "North Indian, Chinese, Mughlai", "hours": "1:30pm\u201312midnight(Mon-Sun)", "Cost for two": "\u20b9550"}, {"Name": "Chulha Chonkha", "Rating": "3.7", "votes": "186", "location": " 1F-26, Opposite Bus Stand Road, Kalyan Singh Chowk, NIT, Faridabad", "Cuisines: ": "North Indian, Fast Food", "hours": "5:30pm\u201311pm(Mon-Sun)", "Cost for two": "\u20b9400"}, {"Name": "Burger Brawn", "Rating": "3.2", "votes": "11", "location": " Sandal Street, Tower 1, Assotech Business Cresterra, Sector 135, Noida", "Cuisines: ": "Fast Food", "hours": "12midnight\u20134am,11am\u201312midnight(Mon-Sun)", "Cost for two": "\u20b9300"}, {"Name": "Just Pizzas", "Rating": "3.6", "votes": "41", "location": " 70, Near Apna Store, Baldev Park, Parwana Road, Gandhi Nagar, Chander Nagar, New Delhi", "Cuisines: ": "Pizza", "hours": "12noon\u201310:30pm(Mon-Sun)", "Cost for two": "\u20b9400"}, {"Name": "Cake Villah", "Rating": "3.6", "votes": "24", "location": " 3026, Basement, Near Vihari Mandi, DLF Phase 4, Gurgaon", "Cuisines: ": "Bakery", "hours": "10am\u20134am(Mon-Sun)", "Cost for two": "\u20b9400"}, {"Name": "RPM", "Rating": "2.8", "votes": "184", "location": " 40, Basant Lok Market, Vasant Vihar, New Delhi", "Cuisines: ": "Fast Food, Bar Food, Beverages", "hours": "12noon\u20131am(Mon-Sun)", "Cost for two": "\u20b92,000"}]