[{"Name": "Food Plaza", "Rating": "3.0", "votes": "4", "location": " Vipul Plaza, Sector 81, Faridabad", "Cuisines: ": "Chinese, North Indian", "hours": "5:30pm\u201310:30pm(Mon-Sun)", "Cost for two": "\u20b9500"}, {"Name": "Daarji Bread Omelette Wale", "Rating": "3.5", "votes": "41", "location": " 90, Dr Pushkarna Marg, Block J, Beri Wala Bagh, Tilak Nagar, New Delhi", "Cuisines: ": "Street Food", "hours": "8am\u201311pm(Mon-Sun)", "Cost for two": "\u20b9200"}, {"Name": "Al Aseem Pizza", "Rating": "3.6", "votes": "52", "location": " M-29, Batla House, Near Masjid Khalilullah, Okhla Phase 1, New Delhi", "Cuisines: ": "Pizza, Fast Food", "hours": "12noon\u201311pm(Mon-Sun)", "Cost for two": "\u20b9500"}, {"Name": "Towns Kitchen", "Rating": "NEW", "votes": "52", "location": " RN-44, B Block, Sector 62, Noida", "Cuisines: ": "North Indian, Chinese", "hours": "11am\u201311pm(Mon-Sun)", "Cost for two": "\u20b9400"}, {"Name": "Ds Dosa Factory", "Rating": "4.0", "votes": "303", "location": " Plot 1, Ground Floor, Near Mahagun Mall, Vaishali, Ghaziabad", "Cuisines: ": "South Indian, Chinese", "hours": "10am\u201311pm(Mon-Sun)", "Cost for two": "\u20b9500"}, {"Name": "The Royale", "Rating": "4.1", "votes": "152", "location": " 515 & 516, Keshari Plaza, Near Express Way, Sector 104, Near Sector 110, Noida", "Cuisines: ": "North Indian, Continental, Chinese", "hours": "12noon\u201312midnight(Mon-Sun)", "Cost for two": "\u20b91,400"}, {"Name": "Hori Lal Paan", "Rating": "3.4", "votes": "27", "location": " G 81, Garg Trade Center, Sector 11, Rohini, New Delhi", "Cuisines: ": "Paan, Beverages", "hours": "8:30am\u201312midnight(Mon-Sun)", "Cost for two": "\u20b9100"}, {"Name": "Lamba Hotel", "Rating": "3.7", "votes": "74", "location": " Khandsa Road, Near Dav School, Sector 37, Gurgaon", "Cuisines: ": "North Indian", "hours": "11am\u20134pm,6:30pm\u201311pm(Mon-Sun)", "Cost for two": "\u20b9250"}, {"Name": "Ki Hangla", "Rating": "3.8", "votes": "1218", "location": " A-201, Supermart 1, DLF Phase 4, Gurgaon", "Cuisines: ": "Rolls, Bengali", "hours": "11:30am\u201311:15pm(Mon-Sun)", "Cost for two": "\u20b9800"}, {"Name": "Dosa Express", "Rating": "3.7", "votes": "103", "location": " Shop 11, Galactic Food Court, Galaxy Business Park, Sector 62, Noida", "Cuisines: ": "South Indian", "hours": "11am\u201311pm(Mon-Sun)", "Cost for two": "\u20b9400"}, {"Name": "De Daru", "Rating": "3.4", "votes": "15", "location": " R 2, Ground Floor, Unit 1 & 2, Rectangle Building 1, Saket, New Delhi", "Cuisines: ": "Bar Food, Finger Food", "hours": "12noon\u201312midnight(Mon-Sun)", "Cost for two": "\u20b91,000"}, {"Name": "Bintang Sweet Thrills", "Rating": "4.0", "votes": "125", "location": " Shop 1, 176-A,  LIG Flats, Rajouri Garden, New Delhi", "Cuisines: ": "Desserts, Ice Cream, Fast Food, Pizza, Salad, Momos", "hours": "12noon\u201311:30pm(Mon-Sun)", "Cost for two": "\u20b9200"}, {"Name": "Oye Chinese & Wraps", "Rating": "3.2", "votes": "13", "location": " Sector 62, Noida", "Cuisines: ": "Chinese, North Indian", "hours": "10am\u201311pm(Mon-Sun)", "Cost for two": "\u20b9350"}, {"Name": "Saal Kitchen", "Rating": "4.3", "votes": "40", "location": " R 292, Ganga Shopping Complex, Sector 29, Noida", "Cuisines: ": "North Indian, Mughlai, Chinese, Rolls, Asian", "hours": "12noon\u201310:30pm(Mon-Sun)", "Cost for two": "\u20b9600"}, {"Name": "Taj Darbar", "Rating": "3.4", "votes": "17", "location": " A 21, 1st Floor, Near SBI Bank, Gokalpuri, Shahdara, New Delhi", "Cuisines: ": "Fast Food, North Indian", "hours": "9am\u201311pm(Mon-Sun)", "Cost for two": "\u20b9250"}]