[{"Name": "Omazoni", "Rating": "3.1", "votes": "123", "location": " 48, Prithviraj Market, Khan Market, New Delhi", "Cuisines: ": "Rolls, North Indian, Chinese", "hours": "11am\u20137pm(Mon-Sun)", "Cost for two": "\u20b9650"}, {"Name": "The WOK-N-ROLL", "Rating": "3.6", "votes": "55", "location": " Shop 3407, D.B. Gupta Road, Near Khalsa College, Karol Bagh, New Delhi", "Cuisines: ": "Rolls, Fast Food", "hours": "1pm\u201311:30pm(Mon-Sun)", "Cost for two": "\u20b9300"}, {"Name": "Kerala Hotel", "Rating": "3.0", "votes": "10", "location": " 11/7A, Channa Market, WEA, Karol Bagh, New Delhi", "Cuisines: ": "Kerala", "hours": "8am\u201310pm(Mon-Sun)", "Cost for two": "\u20b9300"}, {"Name": "Khaane Bhee Do Yaaron", "Rating": "-", "votes": "10", "location": " 3706, Neta Ji Subhash Marg, Main Road, Daryaganj, New Delhi", "Cuisines: ": "North Indian", "hours": "7am\u20137pm(Mon-Sun)", "Cost for two": "\u20b9300"}, {"Name": "Shree Krishna Dhaba", "Rating": "-", "votes": "10", "location": " Netaji Subhash Marg, Daryaganj, New Delhi", "Cuisines: ": "North Indian", "hours": "11am\u20134pm,7pm\u201311:30pm(Mon-Sun)", "Cost for two": "\u20b9200"}, {"Name": "Bridges", "Rating": "3.0", "votes": "53", "location": " 7/50, Main Shankar Road, Karol Bagh, New Delhi", "Cuisines: ": "North Indian, Mughlai", "hours": "7:30pm\u201311pm(Mon-Sun)", "Cost for two": "\u20b9700"}, {"Name": "Brijwasi Bhoj", "Rating": "3.6", "votes": "45", "location": " 376, Near Kucha Ghasi Ram, Chandni Chowk, New Delhi", "Cuisines: ": "North Indian", "hours": "11am\u201311pm(Mon-Sun)", "Cost for two": "\u20b9300"}, {"Name": "Fresh Food And Caterers", "Rating": "3.1", "votes": "9", "location": " 6A/58, WEA, Channa Market, Karol Bagh, New Delhi", "Cuisines: ": "North Indian, Fast Food", "hours": "5am\u201312midnight(Mon-Sun)", "Cost for two": "\u20b9300"}, {"Name": "Al Amaan Foods", "Rating": "3.6", "votes": "16", "location": " Shop 359, Jama Masjid, New Delhi", "Cuisines: ": "North Indian", "hours": "3pm\u201311:30pm(Mon-Sun)", "Cost for two": "\u20b9300"}, {"Name": "Al-Rasheed", "Rating": "-", "votes": "16", "location": " 3441, Peer Ji Chowk, Near Chhoti Masjid, Bada Hindu Rav, Azad Market, Kamla Nagar, New Delhi", "Cuisines: ": "Mughlai", "hours": "5pm\u20131am(Mon-Sun)", "Cost for two": "\u20b9300"}, {"Name": "New Grilled Corner", "Rating": "-", "votes": "16", "location": " Shop 4, Akalibaba Phula Singh Marg, Near Karol Bagh Metro Gate 7, Karol Bagh, New Delhi", "Cuisines: ": "Fast Food, Sandwich", "hours": "12noon\u201310pm(Mon-Sun)", "Cost for two": "\u20b9120"}, {"Name": "Al-Nafees Kabab & Tikka", "Rating": "-", "votes": "16", "location": " 3440, Bada Hindu Rav, Chhoti Masjid, Azad Market, Kamla Nagar, New Delhi", "Cuisines: ": "North Indian", "hours": "5pm\u20131am(Mon-Sun)", "Cost for two": "\u20b9150"}, {"Name": "Shri Gujrat Namkeen Bhandar", "Rating": "3.7", "votes": "51", "location": " 3775, Charkhiwalan Gali, Khush Dil, Chawri Bazar, New Delhi", "Cuisines: ": "Mithai, Street Food", "hours": "7am\u201310pm(Mon-Sun)", "Cost for two": "\u20b9100"}, {"Name": "Sardar A Pure Meat Shop", "Rating": "3.4", "votes": "45", "location": " 5/46, Shankar Road, Old Rajinder Nagar, Rajinder Nagar, New Delhi", "Cuisines: ": "Raw Meats, Fast Food", "hours": "10:30am\u201310pm(Mon-Sun)", "Cost for two": "\u20b9300"}, {"Name": "Matkapeers Mughlai Foods", "Rating": "3.6", "votes": "41", "location": " Shop 3, Dargah Matka Peer, Pragati Maidan, New Delhi", "Cuisines: ": "North Indian", "hours": "11am\u20139pm(Mon-Sun)", "Cost for two": "\u20b9400"}]