[{"Name": "Foodie Nut", "Rating": "NEW", "location": " Pristine Avenue Market, Gaur City 2, Greater Noida", "Cuisines: ": "Cafe, Fast Food", "hours": "8:30am\u201311:30pm(Mon-Sun)", "Cost for two": "\u20b9400"}, {"Name": "Curry Gone Crazy", "Rating": "4.1", "location": " Shop 14, PGM Plaza, Opposite Mayom Hospital, South City 1, Gurgaon", "Cuisines: ": "North Indian", "hours": "12noon\u20133am(Mon,Wed,Thu,Fri,Sat,Sun),6pm...", "Cost for two": "\u20b9550", "votes": "54"}, {"Name": "Samose", "Rating": "4.0", "location": " Shop 1, Lower Ground Floor, HRC Shopping Complex, 1/2 Vaibhav Khand, Near Shipra Mall, Indirapuram, Ghaziabad", "Cuisines: ": "Fast Food", "hours": "5:30am\u20139pm(Mon-Sun)", "Cost for two": "\u20b9100", "votes": "168"}, {"Name": "Makhan Bhog Kheer", "Rating": "3.6", "location": " Delivery Only", "Cuisines: ": "Desserts", "hours": "8am\u20131am(Mon-Sun)", "Cost for two": "\u20b9100", "votes": "45"}, {"Name": "Roti Haat", "Rating": "NEW", "location": " 201, Top Floor, City Plaza Mall, Gaur City 1, Greater Noida", "Cuisines: ": "North Indian, Chinese", "hours": "11am\u20131am(Mon-Sun)", "Cost for two": "\u20b9400", "votes": "45"}, {"Name": "Aanya Chicken Noisse", "Rating": "3.4", "location": " Building 38-39, Bhagwan Park, Jharodha Majra, Azadpur, New Delhi", "Cuisines: ": "North Indian, Fast Food", "hours": "11am\u201311pm(Mon-Sun)", "Cost for two": "\u20b9500", "votes": "32"}, {"Name": "Dom's Pizza", "Rating": "3.6", "location": " Shop 2, Building 802, Near Delhi Convent Public School, Shalimar Garden, Ghaziabad", "Cuisines: ": "Pizza, Fast Food", "hours": "11am\u201311pm(Mon-Sun)", "Cost for two": "\u20b9400", "votes": "15"}, {"Name": "Express By Abs", "Rating": "3.6", "location": " Shop Lg-1-2-3, Metropolis Mall, MG Road, Gurgaon", "Cuisines: ": "North Indian, Biryani, Kebab, BBQ", "hours": "12noon\u20134pm,6:30pm\u201311pm(Mon-Sun)", "Cost for two": "\u20b9500", "votes": "22"}, {"Name": "My Choice Pasta", "Rating": "NEW", "location": " G 40, Baani, Golf Course Road, Sector 56, Gurgaon", "Cuisines: ": "Italian", "hours": "12noon\u201310pm(Mon-Sun)", "Cost for two": "\u20b9350", "votes": "22"}, {"Name": "Malhotra Kitchen Point", "Rating": "3.5", "location": " A 38, Mansarovar Park, G T Road, Near Mother Dairy, Shahdara, New Delhi", "Cuisines: ": "North Indian", "hours": "12noon\u20133:30pm,7:15pm\u201310:30pm(Mon-Sun)", "Cost for two": "\u20b9300", "votes": "39"}, {"Name": "New Khushboo Vaishno Dhaba", "Rating": "3.5", "location": " Shop 16-13, Kolapur Road, Opposite Famous Matti Wala, Ghanta Ghar, Civil Lines, New Delhi", "Cuisines: ": "North Indian", "hours": "11am\u20132am(Mon-Sun)", "Cost for two": "\u20b9300", "votes": "32"}, {"Name": "Hardyz", "Rating": "NEW", "location": " 1270, Kilhore Patti, Behind Unitech Cyber Park, Jharsa, Sector 39, Gurgaon", "Cuisines: ": "North Indian, Fast Food", "hours": "12midnight\u20134am,12noon\u201312midnight(Mon-Sun)", "Cost for two": "\u20b9450", "votes": "32"}, {"Name": "Hello Burger", "Rating": "NEW", "location": " D-88, Upper Ground Floor, 100 Feet Road, Chhatarpur, New Delhi", "Cuisines: ": "Burger, Fast Food", "hours": "10am\u201311pm(Mon-Sun)", "Cost for two": "\u20b9300", "votes": "32"}, {"Name": "Aunty Momo", "Rating": "3.7", "location": " Shop 1, Property Bearing C-34, Ground Floor, Lajpat Nagar 4, New Delhi", "Cuisines: ": "Chinese, Momos", "hours": "1pm\u201310:30pm(Mon-Sun)", "Cost for two": "\u20b9150", "votes": "196"}, {"Name": "The Punjabi Story", "Rating": "4.0", "location": " A71, Double Storey, Opposite HDFC Bank, Main Road, Kalkaji, New Delhi", "Cuisines: ": "North Indian, Mughlai, Chinese", "hours": "11:30am\u201312midnight(Mon-Sun)", "Cost for two": "\u20b9600", "votes": "151"}]