[{"Name": "Tadka by Choice", "Rating": "NEW", "location": " 118A, Palam Extension, Near Vijay Sales, Sector 7, Dwarka, New Delhi", "Cuisines: ": "North Indian", "hours": "9am\u201311pm(Mon-Sun)", "Cost for two": "\u20b9300"}, {"Name": "Make My Platter", "Rating": "4.0", "location": " 879 T-3, Housing Board Colony, Saraswati Vihar, Chakarpur, MG Road, Gurgaon", "Cuisines: ": "North Indian", "hours": "11am\u201312:30am(Mon-Sun)", "Cost for two": "\u20b9300", "votes": "97"}, {"Name": "Yuvi Hot Spot Chinese Fast Food", "Rating": "3.0", "location": " Shop 1, G-15, Gali 8, Vishwas Park Extension, Near ICICI Bank ATM, Uttam Nagar, New Delhi", "Cuisines: ": "Chinese, Momos", "hours": "9am\u201311pm(Mon-Sun)", "Cost for two": "\u20b9300", "votes": "258"}, {"Name": "Barbeque Destination", "Rating": "3.8", "location": " 128, Part 2, Sector 15, Gurgaon", "Cuisines: ": "North Indian, Chinese", "hours": "9:30am\u201310:30pm(Mon-Sun)", "Cost for two": "\u20b9500", "votes": "98"}, {"Name": "Vaishno Shakti Dhaba", "Rating": "3.7", "location": " 36, DDU Market, Main Najafgarh Road, Rajouri Garden, New Delhi", "Cuisines: ": "North Indian", "hours": "12noon\u20134pm,7pm\u201311pm(Mon-Sun)", "Cost for two": "\u20b9400", "votes": "66"}, {"Name": "Kesariya Cafe", "Rating": "3.2", "location": " Shop 1, C-66, RDC, Raj Nagar, Ghaziabad", "Cuisines: ": "Cafe, Street Food, Fast Food", "hours": "12noon\u201311pm(Mon-Sun)", "Cost for two": "\u20b9550", "votes": "9"}, {"Name": "Food Central", "Rating": "3.6", "location": " 65, Sewak Park, In Front Of Dwarka Mor Metro Station Gate 2, Uttam Nagar, New Delhi", "Cuisines: ": "Chinese, North Indian", "hours": "12noon\u201311pm(Mon-Sun)", "Cost for two": "\u20b9350", "votes": "48"}, {"Name": "Curry Knights", "Rating": "3.4", "location": " D 2/18, Model Town 3, Near Model Town 2, New Delhi", "Cuisines: ": "North Indian, Chinese, Momos", "hours": "12noon\u201311pm(Mon-Sun)", "Cost for two": "\u20b9500", "votes": "215"}, {"Name": "DC Burger", "Rating": "3.7", "location": " K-26, Main Vasant Kunj Road, Mahipalpur, New Delhi", "Cuisines: ": "Burger, Fast Food", "hours": "8am\u20134am(Mon),11am\u20134am(Tue-Sun)", "Cost for two": "\u20b9200", "votes": "125"}, {"Name": "Shree Bikaner Mishthan Bhandar", "Rating": "3.5", "location": " Shop 5K/105, 4-5, Near Bhavishya Medical Store, NIT, Faridabad", "Cuisines: ": "Mithai, Street Food", "hours": "9am\u201311pm(Mon-Sun)", "Cost for two": "\u20b9500", "votes": "17"}, {"Name": "Ritika Creation", "Rating": "NEW", "location": " A-243, Shastri Nagar, Rohini, New Delhi", "Cuisines: ": "North Indian", "hours": "8am\u201311pm(Mon-Sun)", "Cost for two": "\u20b9300", "votes": "17"}, {"Name": "Baked Buns", "Rating": "3.7", "location": " C-3/85, New Kondli, Mayur Vihar Phase 3, New Delhi", "Cuisines: ": "Fast Food", "hours": "11am\u201310:30pm(Mon-Sun)", "Cost for two": "\u20b9450", "votes": "216"}, {"Name": "Kohli Hut's", "Rating": "NEW", "location": " 1, Ajay Enclave Extension, Tihar Camp, Tilak Nagar, New Delhi", "Cuisines: ": "North Indian", "hours": "7am\u201311am,12noon\u20134pm,7pm\u201312midnight...", "Cost for two": "\u20b9200", "votes": "216"}, {"Name": "Punjabi Food Corner", "Rating": "-", "location": " RZ 3B, Gali 5, Tughlakabad Extension, Tughlakabad Institutional Area, New Delhi", "Cuisines: ": "North Indian", "hours": "6pm\u201311pm(Mon-Sun)", "Cost for two": "\u20b9350", "votes": "216"}, {"Name": "Bizibean", "Rating": "3.7", "location": " GK-1, Upper Basement, DLF South Point Mall, Golf Course Road, Gurgaon", "Cuisines: ": "Cafe, Fast Food", "hours": "10am\u201310pm(Mon-Sun)", "Cost for two": "\u20b9600", "votes": "101"}]