[{"Name": "Boozy's Snacks & Pizza", "Rating": "3.4", "votes": "23", "location": " 101/18, Laxmi Garden, Opposite NICT Computers, Sector 37, Gurgaon", "Cuisines: ": "Fast Food", "hours": "4pm\u201310pm(Mon-Sun)", "Cost for two": "\u20b9150"}, {"Name": "Pandat Ji Puri Wale", "Rating": "-", "votes": "23", "location": " Plot 20, Khasra 13/22, V Block, Nihal Vihar, Punjabi Bagh, New Delhi", "Cuisines: ": "Street Food", "hours": "8am\u20138pm(Mon-Sun)", "Cost for two": "\u20b9100"}, {"Name": "Red Chilli", "Rating": "3.5", "votes": "283", "location": " Shop 144, Opposite Main Market, Sector 17, Faridabad", "Cuisines: ": "Chinese, Momos", "hours": "11am\u201310:30pm(Mon-Sun)", "Cost for two": "\u20b9300"}, {"Name": "D=Dosa", "Rating": "NEW", "votes": "283", "location": " Shop 2, Plot 140 A, Pocket A 3, Opposite CRPF Camp, Mayur Vihar Phase 3, New Delhi", "Cuisines: ": "South Indian", "hours": "4pm\u201310pm(Mon),9am\u201310pm(Tue-Sun)", "Cost for two": "\u20b9250"}, {"Name": "I'm Vada Pav", "Rating": "3.3", "votes": "5", "location": " 37, Nai Sabji Mandi Nala Market, West Patel Nagar, New Delhi", "Cuisines: ": "Street Food", "hours": "10am\u201311pm(Mon-Sun)", "Cost for two": "\u20b9200"}, {"Name": "LUV Burger Hut", "Rating": "3.3", "votes": "10", "location": " Upper Ground Floor, DLF Star Mall, Sector 30, Gurgaon", "Cuisines: ": "Fast Food", "hours": "11am\u201310pm(Mon-Sun)", "Cost for two": "\u20b9100"}, {"Name": "The Red Dragon", "Rating": "3.3", "votes": "45", "location": " L 99, Jagat Ram Park, Sabzi Mandi, Laxmi Nagar, New Delhi", "Cuisines: ": "Chinese, Fast Food, North Indian", "hours": "2pm\u201312midnight(Mon-Sun)", "Cost for two": "\u20b9400"}, {"Name": "Burger Bros", "Rating": "3.2", "votes": "94", "location": " House 54, Shop PVT-1, F Block, Moti Nagar, New Delhi", "Cuisines: ": "Burger, Fast Food, Italian", "hours": "1pm\u201310pm(Mon-Sun)", "Cost for two": "\u20b9300"}, {"Name": "Moteram De Chapate Foods", "Rating": "3.4", "votes": "25", "location": " Plot 77, Sunday Market, Pocket 10, Rohini, New Delhi", "Cuisines: ": "Chinese", "hours": "10am\u201310:30pm(Mon-Sun)", "Cost for two": "\u20b9350"}, {"Name": "Handi Chic-Fish", "Rating": "3.7", "votes": "286", "location": " Shop 2, CSC 3, DDA Market, Near Pocket D-2, Sector 11, Rohini, New Delhi", "Cuisines: ": "North Indian, Mughlai, Chinese", "hours": "11am\u201311pm(Mon-Sun)", "Cost for two": "\u20b9500"}, {"Name": "Shama Chicken Corner", "Rating": "3.5", "votes": "28", "location": " Pocket 8, Sector 24, Rohini, New Delhi", "Cuisines: ": "North Indian", "hours": "10am\u201312midnight(Mon-Sun)", "Cost for two": "\u20b9500"}, {"Name": "Kitchen Express", "Rating": "3.5", "votes": "22", "location": " Plot 211, Shakti Khand 4, Near Harsha City Mall, Indirapuram, Ghaziabad", "Cuisines: ": "Chinese, North Indian", "hours": "11am\u20134am(Mon-Sun)", "Cost for two": "\u20b9450"}, {"Name": "Standard Pastry Shop", "Rating": "3.5", "votes": "24", "location": " Shop 4, Cottage 11 A, West Patel Nagar, New Delhi", "Cuisines: ": "Bakery, Fast Food", "hours": "10am\u201310pm(Mon-Sun)", "Cost for two": "\u20b9300"}, {"Name": "Bikaner Sweets", "Rating": "3.3", "votes": "9", "location": " Sector 43, Gurgaon", "Cuisines: ": "Mithai, Street Food", "hours": "8:30am\u201311:30pm(Mon-Sun)", "Cost for two": "\u20b9400"}, {"Name": "Cold Love Ice Cream", "Rating": "3.9", "votes": "69", "location": " D 157, Defence Colony, New Delhi", "Cuisines: ": "Desserts, Ice Cream", "hours": "10am\u201312midnight(Mon-Sat),10am\u20131am(Sun)", "Cost for two": "\u20b9250"}]