[{"Name": "Madras Cafe", "Rating": "3.5", "votes": "29", "location": " Shop A 14/15, Gokal Puri Main Road, Shahdara, New Delhi", "Cuisines: ": "South Indian", "hours": "10am\u201311pm(Mon-Sun)", "Cost for two": "\u20b9200"}, {"Name": "Breakfast Hut", "Rating": "3.1", "votes": "5", "location": " Satnam Park, Near Union Bank Of India, Krishna Nagar, New Delhi", "Cuisines: ": "North Indian", "hours": "8am\u20136pm(Mon-Sun)", "Cost for two": "\u20b9200"}, {"Name": "Friendzone Cafe", "Rating": "3.6", "votes": "35", "location": " 31, B 8 Pocket, Sector 11, Rohini, New Delhi", "Cuisines: ": "Fast Food", "hours": "11am\u20131am(Mon-Sun)", "Cost for two": "\u20b9350"}, {"Name": "Chip Chap Shahi Corner", "Rating": "3.6", "votes": "29", "location": " C-117, Near Kohli Dharam Kanta, Sector 10, Noida", "Cuisines: ": "North Indian", "hours": "12noon\u20134pm,7pm\u201311pm(Mon-Sun)", "Cost for two": "\u20b9200"}, {"Name": "Al - Changezi", "Rating": "3.6", "votes": "37", "location": " B 593 - 594, JJ Colony, Raghubir Nagar, Tagore Garden, New Delhi", "Cuisines: ": "Mughlai, North Indian", "hours": "11am\u20131am(Mon-Sun)", "Cost for two": "\u20b9400"}, {"Name": "Mummy Di Rasoi", "Rating": "3.4", "votes": "12", "location": " Flat 3/3-A, Double Storey, Moti Nagar, New Delhi", "Cuisines: ": "North Indian", "hours": "8am\u201311pm(Mon-Sun)", "Cost for two": "\u20b9300"}, {"Name": "Food Moments Galleria", "Rating": "3.8", "votes": "55", "location": " 1714, 2nd Floor, Emerald Enclave, Sector 28, Near Cross Point, Near Sector 29, Gurgaon", "Cuisines: ": "North Indian, Chinese", "hours": "1:30pm\u201312midnight(Mon-Sun)", "Cost for two": "\u20b9400"}, {"Name": "Bikaner Desi Ghee Wala", "Rating": "3.2", "votes": "16", "location": " A- 655, Madipur JJ Colony, Block A, Punjabi Bagh, New Delhi", "Cuisines: ": "Mithai, North Indian", "hours": "8am\u201311pm(Mon-Sun)", "Cost for two": "\u20b9400"}, {"Name": "Gajraj Sweets", "Rating": "3.5", "votes": "194", "location": " Shop 16, GDA Market, Shakti Khand 1, Indirapuram, Ghaziabad", "Cuisines: ": "Mithai, Chinese, South Indian", "hours": "8am\u201311:30pm(Mon-Sun)", "Cost for two": "\u20b9300"}, {"Name": "Jolly Tea Stall", "Rating": "3.5", "votes": "26", "location": " Shop 5, Plot WA-66, Krishna Mandir Road, Main Market, Shakarpur, New Delhi", "Cuisines: ": "Street Food, Fast Food, Tea, Beverages", "hours": "6:30am\u20138pm(Mon-Sun)", "Cost for two": "\u20b9200"}, {"Name": "Blash Foodworks", "Rating": "3.4", "votes": "33", "location": " A 19, Ground Floor, Dayanand Colony, Lajpat Nagar 4, New Delhi", "Cuisines: ": "Fast Food, Chinese, North Indian, Healthy Food", "hours": "1pm\u20132am(Mon,Wed,Thu,Fri,Sat,Sun),Closed...", "Cost for two": "\u20b9600"}, {"Name": "The Cake Kingdom", "Rating": "3.6", "votes": "22", "location": " K-109, Street-5, Abul Fazal Enclave, Jasola, New Delhi", "Cuisines: ": "Bakery, Desserts", "hours": "10:30am\u201311pm(Mon-Sun)", "Cost for two": "\u20b9200"}, {"Name": "Takkar Dhaba", "Rating": "3.5", "votes": "147", "location": " 258, Gali 3, Govindpuri, Kalkaji, New Delhi", "Cuisines: ": "North Indian", "hours": "12:30pm\u20134pm,7:30pm\u201312midnight(Mon,Tue...", "Cost for two": "\u20b9500"}, {"Name": "The Curry Leaf - Millionaire Hotel", "Rating": "3.7", "votes": "66", "location": " Millionaire Hotel, 67, Neelam Bata Road, NIT, Faridabad", "Cuisines: ": "North Indian, Chinese, Continental", "hours": "11am\u201311pm(Mon-Sun)", "Cost for two": "\u20b91,200"}, {"Name": "Bengal Delight", "Rating": "3.6", "votes": "106", "location": " J2/42A, DDA Flats, Opposite Tara Apartments, Kalkaji, New Delhi", "Cuisines: ": "Bengali", "hours": "11am\u201312midnight(Mon-Sun)", "Cost for two": "\u20b9600"}]