[{"Name": "Brown Bites", "Rating": "3.8", "votes": "106", "location": " Shop 5, Tower 1, Paras Seasons Apartment, Near Sector 135, Sector 168, Noida", "Cuisines: ": "Bakery", "hours": "11am\u20139:30pm(Mon-Tue),11am\u20139pm(Wed-Sun)", "Cost for two": "\u20b9250"}, {"Name": "Burger Hut", "Rating": "3.8", "votes": "107", "location": " Shop 15, 1st Floor, Omaxe Celebration Mall, Sohna Road, Gurgaon", "Cuisines: ": "Burger, Fast Food", "hours": "10am\u201311pm(Mon-Sun)", "Cost for two": "\u20b9300"}, {"Name": "Sandburg Shakes", "Rating": "3.9", "votes": "100", "location": " 13 A, 2nd Floor, Food Capital, World Mark 1, Aerocity, New Delhi", "Cuisines: ": "Fast Food", "hours": "11am\u201311pm(Mon-Sun)", "Cost for two": "\u20b9750"}, {"Name": "Food Headquater", "Rating": "3.3", "votes": "8", "location": " 11/157 A, Sector 3, Rajendar Nagar, Ghaziabad", "Cuisines: ": "North Indian, Chinese", "hours": "11am\u201311pm(Mon-Sun)", "Cost for two": "\u20b9550"}, {"Name": "ATW - Aggarwal Tikki Wala", "Rating": "3.4", "votes": "41", "location": " B-263, T Point, Okhla Phase 1, New Delhi", "Cuisines: ": "North Indian, Street Food", "hours": "8am\u20138pm(Mon-Sun)", "Cost for two": "\u20b9350"}, {"Name": "Yo! China", "Rating": "3.8", "votes": "519", "location": " S-2, 2nd Floor, Crown Interiorz Mall, Sector 35, Faridabad", "Cuisines: ": "Chinese, Momos", "hours": "12noon\u201311pm(Mon-Sun)", "Cost for two": "\u20b91,300"}, {"Name": "Radhey Shyam Choley Bhature", "Rating": "3.6", "votes": "47", "location": " Shop J25, Near Center State Mall Sector 18, Noida", "Cuisines: ": "North Indian", "hours": "8am\u20135pm(Mon-Sun)", "Cost for two": "\u20b9200"}, {"Name": "AR Zaika Chicken Corner", "Rating": "3.2", "votes": "8", "location": " B-1363, New Ashok Nagar, Main Metro Road, Near HDFC ATM, Mayur Vihar Phase 1, New Delhi", "Cuisines: ": "North Indian, Biryani", "hours": "12noon\u201312midnight(Mon-Sun)", "Cost for two": "\u20b9350"}, {"Name": "Porusta Bakery and Cake Shop", "Rating": "3.6", "votes": "54", "location": " B 23, West Patel Nagar, New Delhi", "Cuisines: ": "Bakery, Desserts", "hours": "10:30am\u20139:30pm(Mon-Sun)", "Cost for two": "\u20b9200"}, {"Name": "Uttarakhand Express Fast Food Juice And Shakes", "Rating": "3.5", "votes": "29", "location": " Kanhai Village, Near New Look Salon, Sector 45, Gurgaon", "Cuisines: ": "Chinese", "hours": "8am\u201311pm(Mon-Sun)", "Cost for two": "\u20b9100"}, {"Name": "Raju Vaishno Dhaba", "Rating": "3.8", "votes": "141", "location": " 513/18, Rajiv Chowk, Old Railway Road, Gurgaon", "Cuisines: ": "North Indian", "hours": "9am\u201311am,12noon\u20134pm,7pm\u201310:30pm(Mon-Sun)", "Cost for two": "\u20b9250"}, {"Name": "Desi Haryanvi Rasoi", "Rating": "3.4", "votes": "27", "location": " 428, SF-2, Shakti Khand 1, Indirapuram, Ghaziabad", "Cuisines: ": "North Indian, Chinese", "hours": "10:30am\u20132am(Mon-Sun)", "Cost for two": "\u20b9400"}, {"Name": "Opera Cafe", "Rating": "-", "votes": "27", "location": " M71, Majnu Ka Tila, Aruna Nagar, Civil Lines, New Delhi", "Cuisines: ": "Chinese, Beverages", "hours": "10am\u201311:30pm(Mon-Sun)", "Cost for two": "\u20b9300"}, {"Name": "My Shop My Taste !", "Rating": "3.6", "votes": "31", "location": " Shop 1982, Railway Road, Near Meer Singh Market, Lampur Morh, Rajeev Colony, Narela, New Delhi", "Cuisines: ": "Fast Food", "hours": "2pm\u20139:30pm(Mon-Sun)", "Cost for two": "\u20b9200"}, {"Name": "Shri Krishna Thaali", "Rating": "NEW", "votes": "31", "location": " 186/16, Shivaji Nagar, Sector 8, Gurgaon", "Cuisines: ": "North Indian", "hours": "12noon\u20139pm(Mon-Sun)", "Cost for two": "\u20b9250"}]