[{"Name": "Singh's Veg Grill", "Rating": "NEW", "location": " Shop 31, Rajguru Market, Ramesh Nagar, Gol Chakkar, Kirti Nagar, New Delhi", "Cuisines: ": "North Indian", "hours": "5pm\u201311:30pm(Mon-Sun)", "Cost for two": "\u20b9300"}, {"Name": "New Era Food Factory", "Rating": "3.1", "location": " Shakti Nagar Main Road, Tikona Park, Sector 37, Gurgaon", "Cuisines: ": "North Indian, Chinese", "hours": "12noon\u201310pm(Mon-Sun)", "Cost for two": "\u20b9300", "votes": "5"}, {"Name": "Foodjaan", "Rating": "3.5", "location": " Shop 146, Huda Market, Sector 16, Faridabad", "Cuisines: ": "Fast Food, Healthy Food", "hours": "11am\u201311pm(Mon-Sun)", "Cost for two": "\u20b9350", "votes": "27"}, {"Name": "Bittoo Egg & Chicken Corner", "Rating": "3.7", "location": " 2-D/11/8, Opposite Government High School BP, Tikona Park, NIT, Faridabad", "Cuisines: ": "North Indian, Mughlai", "hours": "3pm\u201311:30pm(Mon-Sun)", "Cost for two": "\u20b9300", "votes": "65"}, {"Name": "The Burger Town", "Rating": "2.8", "location": " Rz-K6, Block E, Gurgaon Road, New Roshanpura, Najafgarh, New Delhi", "Cuisines: ": "Fast Food", "hours": "11am\u201310pm(Mon-Sun)", "Cost for two": "\u20b9300", "votes": "15"}, {"Name": "Bebe De Parathe", "Rating": "3.2", "location": " Shop 1, Agapur, Sector 41, Noida", "Cuisines: ": "North Indian", "hours": "24Hours(Mon-Sun)", "Cost for two": "\u20b9350", "votes": "7"}, {"Name": "Anju Sweets", "Rating": "2.8", "location": " E-234, Near Indira Park, Shastri Nagar, Ashok Vihar Phase 1, New Delhi", "Cuisines: ": "Mithai, Street Food", "hours": "8:30am\u20139:30pm(Mon-Sun)", "Cost for two": "\u20b9300", "votes": "8"}, {"Name": "Hungry Heights", "Rating": "3.5", "location": " D 8, Near Sachdeva Marriage Hall, Bhajan Pura, Shahdara, New Delhi", "Cuisines: ": "Chinese", "hours": "1pm\u201310:30pm(Mon),1:30pm\u201310:30pm(Tue-Sun)", "Cost for two": "\u20b9250", "votes": "25"}, {"Name": "Experience Chef", "Rating": "3.6", "location": " Shop 2, DDA, Vardhaman Market, Near Bhaskaracharya College, Sector 2, Dwarka, New Delhi", "Cuisines: ": "Fast Food, Chinese", "hours": "10am\u201310pm(Mon-Sun)", "Cost for two": "\u20b9150", "votes": "103"}, {"Name": "Cake Point", "Rating": "2.8", "location": " Delivery Only", "Cuisines: ": "Bakery", "hours": "9am\u20137pm(Mon-Sun)", "Cost for two": "\u20b9300", "votes": "10"}, {"Name": "Eat N Treat", "Rating": "3.5", "location": " 145, Main Market, Sector 17, Faridabad", "Cuisines: ": "Chinese, North Indian, Momos", "hours": "12noon\u201310pm(Mon,Tue,Wed,Thu,Sat,Sun)...", "Cost for two": "\u20b9400", "votes": "144"}, {"Name": "Snacks Night", "Rating": "NEW", "location": " B-5/158, Sector 7, Rohini, New Delhi", "Cuisines: ": "Fast Food, North Indian", "hours": "4pm\u20134am(Mon-Sun)", "Cost for two": "\u20b9200", "votes": "144"}, {"Name": "Abdul Muradabadi Chicken Corner", "Rating": "3.7", "location": " C 31, C Block, Acharya Niketan, Mayur Vihar Phase 1, New Delhi", "Cuisines: ": "Mughlai", "hours": "10:30am\u201311:15pm(Mon-Sun)", "Cost for two": "\u20b9400", "votes": "98"}, {"Name": "New Chinese Hut", "Rating": "3.7", "location": " UG 1, Supertech Eco Suites, Sector 137, Sector 132, Noida", "Cuisines: ": "Chinese", "hours": "12noon\u201312midnight(Mon-Sun)", "Cost for two": "\u20b9350", "votes": "27"}, {"Name": "Hussain Zaika Roll Centre", "Rating": "NEW", "location": " Shop 20, Sunrise Vardhaman Plaza, MKT Vasundhara Enclave, Mayur Vihar Phase 1, New Delhi", "Cuisines: ": "Fast Food, North Indian", "hours": "12noon\u201312midnight(Mon-Sun)", "Cost for two": "\u20b9300", "votes": "27"}]