[{"Name": "Coffee Cafe 9", "Rating": "3.8", "votes": "79", "location": " 143, Khirki Extension, Malviya Nagar, New Delhi", "Cuisines: ": "Cafe, Fast Food, Desserts", "hours": "9am\u201311pm(Mon-Sun)", "Cost for two": "\u20b9600"}, {"Name": "Uncle's Kitchen", "Rating": "3.5", "votes": "32", "location": " Shop 9, Lotus Panache, Fortune School Road, Sector 110, Noida", "Cuisines: ": "North Indian, Momos, Chinese", "hours": "11am\u201311pm(Mon-Sun)", "Cost for two": "\u20b9350"}, {"Name": "The Fitness Cafe", "Rating": "3.3", "votes": "13", "location": " Shop 3, F-245-A, Near Sai Chowk, Seema Puri, Dilshan Garden, New Delhi", "Cuisines: ": "Fast Food, Beverages", "hours": "8am\u201311pm(Mon-Sun)", "Cost for two": "\u20b9400"}, {"Name": "UnMess", "Rating": "3.1", "votes": "5", "location": " Opposite D-150, Sector 51, Noida", "Cuisines: ": "North Indian", "hours": "12noon\u20133pm,7pm\u201311pm(Mon-Sun)", "Cost for two": "\u20b9200"}, {"Name": "Aao Ji Aao Tandoori Soya Chap", "Rating": "3.5", "votes": "155", "location": " Flat 84, Pocket A1, LIG Flats, Mayur Vihar Phase 3, New Delhi", "Cuisines: ": "North Indian", "hours": "5pm\u201311:30pm(Mon-Sun)", "Cost for two": "\u20b9300"}, {"Name": "A Dessert King", "Rating": "3.3", "votes": "14", "location": " 17/48, Gandhi Nagar, Near Geeta Apartment, Geeta Colony, New Delhi", "Cuisines: ": "Bakery", "hours": "10:30am\u201311pm(Mon-Sun)", "Cost for two": "\u20b9300"}, {"Name": "Paneer Wale Chole Bhature", "Rating": "3.1", "votes": "58", "location": " B-17, School road, Uttam Nagar, New Delhi", "Cuisines: ": "Street Food", "hours": "8:30am\u20136:30pm(Mon-Sun)", "Cost for two": "\u20b9200"}, {"Name": "Chicken Raftaar", "Rating": "3.9", "votes": "141", "location": " R175/3A, Gali 9, Ramesh Park, Near HDFC ATM, Laxmi Nagar, New Delhi", "Cuisines: ": "North Indian, Mughlai", "hours": "12noon\u20134am(Mon-Sun)", "Cost for two": "\u20b9900"}, {"Name": "Sethi's", "Rating": "3.6", "votes": "27", "location": " RA 9, Raipur Khadar, Amity University, Opposite Gate 2, Sector 125, Noida", "Cuisines: ": "North Indian, Hyderabadi", "hours": "11am\u20133pm,7pm\u20132am(Mon-Sun)", "Cost for two": "\u20b9600"}, {"Name": "Jhatpat Khana", "Rating": "3.3", "votes": "15", "location": " Y-372, Near City Hospital, Sector 12, Noida", "Cuisines: ": "North Indian, Mughlai", "hours": "11am\u20134pm,7pm\u201311pm(Mon-Sun)", "Cost for two": "\u20b9500"}, {"Name": "Ghar Ka Khana", "Rating": "NEW", "votes": "15", "location": " AD 104 A, Shalimar Bagh, New Delhi", "Cuisines: ": "North Indian", "hours": "8am\u201311pm,7:30pm\u201310:30pm(Mon-Sun)", "Cost for two": "\u20b9150"}, {"Name": "Mittron Da Dhaba", "Rating": "3.4", "votes": "58", "location": " Shop 1, 100 Futa Road, Chhatarpur, New Delhi", "Cuisines: ": "North Indian", "hours": "4pm\u201311pm(Mon-Sun)", "Cost for two": "\u20b9300"}, {"Name": "Qureshi Kabab Curry", "Rating": "3.1", "votes": "9", "location": " 43A, Lower Ground, Panchsheel Square, Crossing Republik, Ghaziabad", "Cuisines: ": "Kebab, North Indian", "hours": "11am\u201311pm(Mon-Sun)", "Cost for two": "\u20b9300"}, {"Name": "Onn's Pizza", "Rating": "3.2", "votes": "9", "location": " Shop 6, Floor UG, Supertech Eco Citi, Sector 137, Sector 135, Noida", "Cuisines: ": "Fast Food, Pizza", "hours": "11am\u20134am(Mon-Sun)", "Cost for two": "\u20b9400"}, {"Name": "City Park Cafe", "Rating": "3.1", "votes": "5", "location": " Opposite Hanuman Mandir, NDRF Road, Govind Puram, Ghaziabad", "Cuisines: ": "Fast Food, Beverages", "hours": "11am\u201310pm(Mon-Sun)", "Cost for two": "\u20b9300"}]