[{"Name": "Akash Deep", "Rating": "3.6", "votes": "109", "location": " 3627, 1st Floor, Golcha Cinema Corner, Daryaganj, New Delhi", "Cuisines: ": "North Indian, South Indian, Chinese", "hours": "12noon\u20135pm,7pm\u201311pm(Mon-Sun)", "Cost for two": "\u20b9600"}, {"Name": "Marathi Katta", "Rating": "3.6", "votes": "205", "location": " Shop 11, Old Rajinder Nagar Market, Rajinder Nagar, New Delhi", "Cuisines: ": "North Indian, Maharashtrian", "hours": "10:30am\u20134pm,6:30pm\u201310:30pm(Mon-Sun)", "Cost for two": "\u20b9300"}, {"Name": "Southern Masala", "Rating": "3.9", "votes": "95", "location": " 18/2, Hotel Southern Building, Arya Samaj Road, Karol Bagh, New Delhi", "Cuisines: ": "South Indian, North Indian, Chinese", "hours": "6am\u201311pm(Mon-Sun)", "Cost for two": "\u20b9600"}, {"Name": "Shahi Foods", "Rating": "3.3", "votes": "14", "location": " 16/10165, Padam Singh Road, Opposite Shastri Parking, Karol Bagh, New Delhi", "Cuisines: ": "North Indian, Mughlai", "hours": "12noon\u201310:30pm(Mon-Sun)", "Cost for two": "\u20b9400"}, {"Name": "Chinese King", "Rating": "3.9", "votes": "323", "location": " Shop 6, 15-A/5, Near Pooja Park, Karol Bagh, New Delhi", "Cuisines: ": "North Indian, Mughlai, Chinese, Momos", "hours": "11am\u20131am(Mon-Sun)", "Cost for two": "\u20b9450"}, {"Name": "Sindhi Corner", "Rating": "4.1", "votes": "218", "location": " 53/27, Block 53, Ramjas Road, Karol Bagh, New Delhi", "Cuisines: ": "Street Food", "hours": "8:30am\u20139:30pm(Mon-Sun)", "Cost for two": "\u20b9200"}, {"Name": "Apna Dhaba", "Rating": "NEW", "votes": "218", "location": " 65, Block 52, Ramjas Road, Karol Bagh, New Delhi", "Cuisines: ": "North Indian, Chinese", "hours": "6pm\u201312midnight(Mon-Sun)", "Cost for two": "\u20b9500"}, {"Name": "Alkauser", "Rating": "3.9", "votes": "176", "location": " 2/64, Opposite BSES Office, Shankar Road, Old Rajinder Nagar, Rajinder Nagar, New Delhi", "Cuisines: ": "North Indian, Mughlai, Kebab", "hours": "7pm\u201311pm(Mon,Wed,Thu,Fri,Sat,Sun),5pm\u2013...", "Cost for two": "\u20b9850"}, {"Name": "Mad About Desert", "Rating": "-", "votes": "176", "location": " 17/2864, 1st Floor, Beadonpura, Karol Bagh, New Delhi", "Cuisines: ": "Desserts", "hours": "11am\u201311pm(Mon-Sun)", "Cost for two": "\u20b9300"}, {"Name": "Vasanth Mess", "Rating": "3.6", "votes": "73", "location": " Shop 82, Old Rajinder Nagar, Rajinder Nagar, New Delhi", "Cuisines: ": "South Indian, Biryani", "hours": "8am\u201312midnight(Mon-Sun)", "Cost for two": "\u20b9300"}, {"Name": "Hungry Birds Cafe", "Rating": "3.6", "votes": "61", "location": " Shop 7A, Old Rajendar Nagar, Rajendra Place, New Delhi", "Cuisines: ": "Cafe, Chinese, Fast Food", "hours": "10am\u201310pm(Mon-Sun)", "Cost for two": "\u20b9300"}, {"Name": "Indian House", "Rating": "3.9", "votes": "288", "location": " 2637, 2nd Floor Bank Street, Karol Bagh, New Delhi", "Cuisines: ": "North Indian, Mughlai, Chinese", "hours": "24Hours(Mon-Sun)", "Cost for two": "\u20b9500"}, {"Name": "Kallu Nihari", "Rating": "3.8", "votes": "158", "location": " 180, Chhatta Lal Mian, Behind Delite Cinema, Daryaganj, New Delhi", "Cuisines: ": "Mughlai", "hours": "6am\u201310am,5pm\u201310pm(Mon-Sun)", "Cost for two": "\u20b9150"}, {"Name": "Reefuel Express", "Rating": "NEW", "votes": "158", "location": " 15A/59, Ground Floor, Karol Bagh, New Delhi", "Cuisines: ": "North Indian", "hours": "11am\u201312midnight(Mon-Sun)", "Cost for two": "\u20b9700"}, {"Name": "Spicy by Nature", "Rating": "3.1", "votes": "90", "location": " 15/A 55, WEA, Saraswati Marg, Karol Bagh, New Delhi", "Cuisines: ": "North Indian, Mughlai, Chinese", "hours": "11am\u201311:50pm(Mon-Sun)", "Cost for two": "\u20b9900"}]