[{"Name": "Peacock Restaurant", "Rating": "3.4", "votes": "61", "location": " RZ 35, Lane 6, Opposite Gurudwara, Tughlakabad Institutional Area, New Delhi", "Cuisines: ": "North Indian, Chinese", "hours": "11am\u201311pm(Mon-Sun)", "Cost for two": "\u20b9600"}, {"Name": "Tempting Bar-B-Que", "Rating": "3.4", "votes": "96", "location": " 8/36, Birbal Road, Jangpura, New Delhi", "Cuisines: ": "North Indian, Chinese", "hours": "11am\u201311pm(Mon-Sun)", "Cost for two": "\u20b9600"}, {"Name": "Delivery Jack", "Rating": "3.8", "votes": "208", "location": " C-31, Amar Colony Market, Lajpat Nagar 4, New Delhi", "Cuisines: ": "Italian, Chinese, North Indian, Fast Food", "hours": "12midnight\u20132:30am,12noon\u201312midnight...", "Cost for two": "\u20b91,000"}, {"Name": "Pakeeza Burger", "Rating": "3.0", "votes": "34", "location": " Shop 4/10, Bhogal, Jangpura, New Delhi", "Cuisines: ": "Burger, Afghan", "hours": "10am\u201311pm(Mon-Sun)", "Cost for two": "\u20b9450"}, {"Name": "Chennai Express", "Rating": "3.6", "votes": "37", "location": " Shop 114, Ground Floor, Spice Mall, Sector 25, Noida", "Cuisines: ": "South Indian", "hours": "11am\u201311pm(Mon-Sun)", "Cost for two": "\u20b9400"}, {"Name": "Chakh-Le Yaaran Di Hatti", "Rating": "4.0", "votes": "62", "location": " Shop 15, DDA Market, Munirka Vihar, Vasant Vihar, New Delhi", "Cuisines: ": "North Indian, Chinese", "hours": "11:30am\u20132am(Mon-Sun)", "Cost for two": "\u20b9400"}, {"Name": "The Chocolate Box Lounge - Radisson Blu", "Rating": "4.2", "votes": "271", "location": " Radisson Blu, L-2, Sector 18, Noida", "Cuisines: ": "Cafe, Desserts", "hours": "11am\u201311pm(Mon-Sun)", "Cost for two": "\u20b91,000"}, {"Name": "Riddhi Siddhi Food", "Rating": "-", "votes": "271", "location": " 12th Floor, D2, 1204, Nirala Aspire, GH 03, Sector 16, Noida", "Cuisines: ": "North Indian, Chinese, South Indian", "hours": "7am\u201311pm(Mon-Sun)", "Cost for two": "\u20b9300"}, {"Name": "Fresh Chicken Corner", "Rating": "3.5", "votes": "26", "location": " Shop 110, Huda Market, Near Oriental Bank, Sector 7, Faridabad", "Cuisines: ": "North Indian, Mughlai, Fast Food", "hours": "11am\u201311pm(Mon-Sun)", "Cost for two": "\u20b9300"}, {"Name": "Bite Of Kolkatta", "Rating": "NEW", "votes": "26", "location": " Shop 3, E-25, Laxmi Nagar, New Delhi", "Cuisines: ": "Fast Food, Rolls", "hours": "11:30am\u201311:30pm(Mon-Sun)", "Cost for two": "\u20b9250"}, {"Name": "Doodles Cakes", "Rating": "3.8", "votes": "158", "location": " 11, Bijawasan Road, Kapashera, New Delhi", "Cuisines: ": "Bakery, Fast Food", "hours": "10am\u201310pm(Mon-Sun)", "Cost for two": "\u20b9300"}, {"Name": "Sagar Dhaba", "Rating": "3.2", "votes": "68", "location": " Sher Singh Market, Naya Bans, Sector 15, Noida", "Cuisines: ": "North Indian", "hours": "11am\u20134pm,6:30pm\u201311pm(Mon-Sun)", "Cost for two": "\u20b9350"}, {"Name": "Sunrise Bakers", "Rating": "3.6", "votes": "15", "location": " B 6/120, Sector 8, Rohini, New Delhi", "Cuisines: ": "Bakery, Desserts, Beverages", "hours": "11am\u201311pm(Mon-Sun)", "Cost for two": "\u20b9400"}, {"Name": "Yum Yum", "Rating": "3.6", "votes": "160", "location": " Near Kashmiri Market, Opposite Community Center, Malviya Nagar, New Delhi", "Cuisines: ": "Chinese, Fast Food", "hours": "1pm\u201311pm(Mon-Sun)", "Cost for two": "\u20b9400"}, {"Name": "Dhaara Cafe", "Rating": "3.3", "votes": "10", "location": " 428, SF-2, Shakti Khand 1, Indirapuram, Ghaziabad", "Cuisines: ": "Fast Food, Beverages, Sandwich", "hours": "10:30am\u20132am(Mon-Sun)", "Cost for two": "\u20b9350"}]