[{"Name": "Dilli Gate", "Rating": "3.6", "votes": "42", "location": " F&B 31, 2nd Floor, Food Court, Omaxe Mall, Connaught Place, Beta 2, Greater Noida", "Cuisines: ": "North Indian, Chinese", "hours": "11:30am\u201310:30pm(Mon-Sun)", "Cost for two": "\u20b9700"}, {"Name": "Pishori Jayka", "Rating": "3.4", "votes": "18", "location": " Block C2C, Near Bus Stop, Major P Srikumar Marg, Janakpuri, New Delhi", "Cuisines: ": "North Indian", "hours": "6:30pm\u201310:30pm(Mon-Sun)", "Cost for two": "\u20b9300"}, {"Name": "Shiv Shakti Chaap Corner", "Rating": "3.6", "votes": "82", "location": " J-96, Beri Wala Bagh, Subhash Nagar, New Delhi", "Cuisines: ": "North Indian, Rolls, Chinese", "hours": "11am\u201311pm(Mon-Sun)", "Cost for two": "\u20b9300"}, {"Name": "Pinto's Cafe", "Rating": "3.9", "votes": "142", "location": " 1st Floor, SCO-11, Huda Market, Sector 23, Gurgaon", "Cuisines: ": "Cafe, Continental, Italian", "hours": "11am\u201310pm(Mon-Sun)", "Cost for two": "\u20b9600"}, {"Name": "Heyy Sugar", "Rating": "4.0", "votes": "231", "location": " G-9, Baani Square, Sector 50, Gurgaon", "Cuisines: ": "Bakery, Desserts", "hours": "12noon\u20139pm(Mon-Sun)", "Cost for two": "\u20b9350"}, {"Name": "Yo Yo Bar", "Rating": "-", "votes": "231", "location": " 1st Floor, Manish Highway Plaza Sector 20, Dwarka, New Delhi", "Cuisines: ": "Fast Food, Chinese", "hours": "12noon\u201311pm(Mon-Sun)", "Cost for two": "\u20b9500"}, {"Name": "Urban O Chaska", "Rating": "-", "votes": "231", "location": " Shop 3, 4, 1st Floor, Rohtas Market, Village Hazipur, Sector 104, Near Sector 110, Noida", "Cuisines: ": "North Indian, Chinese", "hours": "11am\u201311pm(Mon-Sun)", "Cost for two": "\u20b9300"}, {"Name": "Delhi 78", "Rating": "3.6", "votes": "68", "location": " Shop 15 & 10, LSC, Plot 18/12, Phase 1, Sector 5, Dwarka, New Delhi", "Cuisines: ": "North Indian, Chinese, Mughlai", "hours": "1pm\u201311pm(Mon,Wed,Thu,Fri,Sat,Sun),Closed...", "Cost for two": "\u20b9300"}, {"Name": "Dosaka", "Rating": "3.6", "votes": "60", "location": " Shop 16, Lower Ground Floor, Ajnara Arcade, Crossing Republik, Ghaziabad", "Cuisines: ": "South Indian", "hours": "1pm\u201311pm(Mon-Sun)", "Cost for two": "\u20b9250"}, {"Name": "Roll Point", "Rating": "3.0", "votes": "4", "location": " Shop 5, Tulip Petals & Ace, Pataudi Road, Sector 89, Gurgaon", "Cuisines: ": "Fast Food, Chinese", "hours": "10:30am\u201311pm(Mon-Sun)", "Cost for two": "\u20b9250"}, {"Name": "Lumbini Food Point", "Rating": "3.1", "votes": "9", "location": " 1A, Pocket A-3, Mayur Vihar Phase 3, New Delhi", "Cuisines: ": "Chinese", "hours": "10am\u201310pm(Mon-Sun)", "Cost for two": "\u20b9200"}, {"Name": "Al-Kaleem", "Rating": "3.0", "votes": "10", "location": " 204, F.S. Plaza, Jagat Farm, Gamma 1, Near Knowledge Park, Greater Noida", "Cuisines: ": "North Indian, Chinese", "hours": "11am\u201311pm(Mon-Sun)", "Cost for two": "\u20b9300"}, {"Name": "Soni Restaurant", "Rating": "-", "votes": "10", "location": " 24/1-4, Yusuf Sarai, New Delhi", "Cuisines: ": "North Indian", "hours": "11am\u201311pm(Mon-Sun)", "Cost for two": "\u20b9250"}, {"Name": "Dynistik Chinese Fast Food", "Rating": "3.2", "votes": "7", "location": " Shop 1, Gali 8, Vishwas Park Extension, Near ICICI Bank ATM, Som Bazaar Road, Rajapuri, Uttam Nagar, New Delhi", "Cuisines: ": "Chinese", "hours": "11am\u201310:30pm(Mon-Sun)", "Cost for two": "\u20b9200"}, {"Name": "CC Academy", "Rating": "NEW", "votes": "7", "location": " Shop 113, 1st Floor, M.P Mall, Pitampura, New Delhi", "Cuisines: ": "Bakery", "hours": "10am\u20139pm(Mon-Sun)", "Cost for two": "\u20b9400"}]