[{"Name": "Vikas Prince Food 2", "Rating": "NEW", "location": " Plot 2, Ground Floor, Harijan Colony, DLF Phase 5, Gurgaon", "Cuisines: ": "North Indian, Chinese, Fast Food, Rolls", "hours": "7am\u201312midnight(Mon-Sun)", "Cost for two": "\u20b9550"}, {"Name": "Krishna Fast Food Corner", "Rating": "-", "location": " Shop 3, Gwal Pahari, Opposite ASF Insignia, Sector 56, Gurgaon", "Cuisines: ": "North Indian", "hours": "10am\u201311pm(Mon-Sun)", "Cost for two": "\u20b9350"}, {"Name": "Delight Express", "Rating": "3.4", "location": " Shop 82, HUDA Market, Part 2, Sector 15, Gurgaon", "Cuisines: ": "Chinese, North Indian", "hours": "12noon\u201310pm(Mon-Sun)", "Cost for two": "\u20b9400", "votes": "43"}, {"Name": "Puran Chand Ambala Wale Di Hatti", "Rating": "3.5", "location": " Shop 8, DDA Market, Ashok Vihar Phase 3, New Delhi", "Cuisines: ": "North Indian, Mughlai, Rolls, Chinese", "hours": "11am\u201311pm(Mon,Wed,Thu,Fri,Sat,Sun),Closed...", "Cost for two": "\u20b9600", "votes": "184"}, {"Name": "Village Food Point", "Rating": "-", "location": " House 1600/3, Gali 6, East Rajiv Nagar, Sector 14, Gurgaon", "Cuisines: ": "North Indian", "hours": "7am\u201311pm(Mon-Sun)", "Cost for two": "\u20b9250", "votes": "184"}, {"Name": "Aggarwal Sweets Shop", "Rating": "3.1", "location": " F 23/1, Sector 3, Rohini, New Delhi", "Cuisines: ": "Mithai", "hours": "10am\u20139:30pm(Mon-Sun)", "Cost for two": "\u20b9100", "votes": "4"}, {"Name": "Chopstix", "Rating": "3.9", "location": " Shop 11, Chauhan Market, Sector 141, Near Sector 132, Noida", "Cuisines: ": "Chinese", "hours": "12noon\u20132am(Mon-Sun)", "Cost for two": "\u20b9300", "votes": "144"}, {"Name": "Biryani Spot", "Rating": "3.6", "location": " 32 A, Ground Floor, Behind HDFC Bank Street, Sector 110, Noida", "Cuisines: ": "Biryani", "hours": "11am\u201311pm(Mon-Sun)", "Cost for two": "\u20b9250", "votes": "63"}, {"Name": "Paan House", "Rating": "-", "location": " Shop E-177, Krishna Market, Lajpat Nagar 1, New Delhi", "Cuisines: ": "Paan", "hours": "9am\u201312midnight(Mon-Sun)", "Cost for two": "\u20b9150", "votes": "63"}, {"Name": "Tite Da Dhaba", "Rating": "3.8", "location": " B 595-596, Shivaji College Road, Raghubir Nagar, Rajouri Garden, New Delhi", "Cuisines: ": "North Indian", "hours": "11:30am\u20134pm,7pm\u201311pm(Mon,Wed,Thu,Fri...", "Cost for two": "\u20b9500", "votes": "165"}, {"Name": "Parantha Factory", "Rating": "-", "location": " Shop 9, Yadhuvanshi Market, Behind Supermart 2, Sector 43, Gurgaon", "Cuisines: ": "North Indian, Chinese", "hours": "11am\u201311pm,12midnight\u20134am(Mon-Sun)", "Cost for two": "\u20b9500", "votes": "165"}, {"Name": "Pizza Paradise", "Rating": "3.0", "location": " K B Complex, Near Naveen Hospital, Alpha 2, Greater Noida", "Cuisines: ": "Pizza", "hours": "10am\u201310pm(Mon-Sun)", "Cost for two": "\u20b9400", "votes": "16"}, {"Name": "Oya Momo & Food Factory", "Rating": "3.6", "location": " 488, S -Block Dispensary Wali Gali, Tota Ram Chowk, DLF Phase 3, Gurgaon", "Cuisines: ": "North Indian, Chinese, Fast Food", "hours": "9am\u20131am(Mon-Sun)", "Cost for two": "\u20b9400", "votes": "90"}, {"Name": "Food Freaker", "Rating": "3.1", "location": " U 7/26, Near Shiv Shakti Maindir, DLF Phase 3, Gurgaon", "Cuisines: ": "North Indian", "hours": "8am\u201312midnight(Mon-Sun)", "Cost for two": "\u20b9250", "votes": "6"}, {"Name": "Tandoori Nights and Rolls", "Rating": "3.4", "location": " U 40/40, Basement, Sector 24, DLF Phase 3, Gurgaon", "Cuisines: ": "North Indian", "hours": "11am\u20134am(Mon-Sun)", "Cost for two": "\u20b9400", "votes": "24"}]