[{"Name": "Shake Chilli", "Rating": "3.6", "votes": "44", "location": " Kiosk O3, Plot 9, Ground Floor, Gardenia Gateway, Sector 75, Near Sector 72, Noida", "Cuisines: ": "Chinese, Continental, Italian", "hours": "11am\u20132am(Mon-Sun)", "Cost for two": "\u20b9400"}, {"Name": "Tik Tok House", "Rating": "NEW", "votes": "44", "location": " Ansal Golf Link, Near Pari Chowk, Omega 1, Greater Noida", "Cuisines: ": "Chinese", "hours": "11am\u20134pm(Mon-Sun)", "Cost for two": "\u20b9200"}, {"Name": "Hydrabadi Restaurant", "Rating": "NEW", "votes": "44", "location": " Ansal Golf Link, Near Pari Chowk, Omega 1, Greater Noida", "Cuisines: ": "Chinese", "hours": "11am\u20134pm(Mon-Sun)", "Cost for two": "\u20b9200"}, {"Name": "The Chef Panda", "Rating": "3.6", "votes": "237", "location": " Shop FF-5 6, Ajnara Integrity, Raj Nagar, Ghaziabad", "Cuisines: ": "North Indian, Fast Food, Chinese", "hours": "10am\u201311pm(Mon-Sun)", "Cost for two": "\u20b9500"}, {"Name": "Tandoor Style", "Rating": "4.1", "votes": "183", "location": " Shop 28, Nehru Nagar, Near Friends Colony, New Delhi", "Cuisines: ": "North Indian, Rolls, Kebab", "hours": "11am\u20132am(Mon-Sun)", "Cost for two": "\u20b9600"}, {"Name": "Gupta Restaurant", "Rating": "4.1", "votes": "100", "location": " B 1/9, Near MCD Toll Tax, New Ashok Nagar, Vasundhara Enclave, New Delhi", "Cuisines: ": "North Indian, Chinese, Rolls", "hours": "12noon\u201311:50pm(Mon-Sun)", "Cost for two": "\u20b9500"}, {"Name": "Doughy Delights", "Rating": "3.5", "votes": "25", "location": " C-71, Malviya Nagar, New Delhi", "Cuisines: ": "Bakery", "hours": "9:30am\u201310pm(Mon-Sun)", "Cost for two": "\u20b9300"}, {"Name": "Keshariya Dhaba", "Rating": "3.6", "votes": "33", "location": " Plot 48, Pocket 6, Near Partibha School, Sector A 10, Narela, New Delhi", "Cuisines: ": "North Indian", "hours": "11am\u201310:30pm(Mon,Tue,Wed,Thu,Fri,Sun)...", "Cost for two": "\u20b9200"}, {"Name": "Together At 12th", "Rating": "4.0", "votes": "90", "location": " Le Meridien Hotel, 12th Floor, Sector 26, MG Road, Gurgaon", "Cuisines: ": "European, Continental, Bar Food, Beverages", "hours": "12noon\u201312:30am(Mon-Sun)", "Cost for two": "\u20b92,700"}, {"Name": "Ewa Foods", "Rating": "NEW", "votes": "90", "location": " 163/2, Main Road, Govindpuri, Kalkaji, New Delhi", "Cuisines: ": "Chinese, Mughlai", "hours": "11am\u201311:30pm(Mon-Sun)", "Cost for two": "\u20b9200"}, {"Name": "Dilli Sweets", "Rating": "3.8", "votes": "357", "location": " A 10, Sarai Pipal Thalla, Near Metro Pillar 99, Adarsh Nagar, Azadpur, New Delhi", "Cuisines: ": "North Indian, Mithai, Chinese, Fast Food", "hours": "8:30am\u201310:30pm(Mon-Sun)", "Cost for two": "\u20b9350"}, {"Name": "TCD Cake & Bake", "Rating": "4.0", "votes": "90", "location": " Shop 121, Sai Dham Road, Near Omaxe Chowk, Sector 86, Faridabad", "Cuisines: ": "Bakery", "hours": "11am\u20139:30pm(Mon-Sun)", "Cost for two": "\u20b9300"}, {"Name": "Burger & Rolls", "Rating": "4.1", "votes": "68", "location": " B-261, Ground Floor, Sigma 1, Greater Noida", "Cuisines: ": "Burger, Rolls, Chinese", "hours": "24Hours(Mon-Sun)", "Cost for two": "\u20b9300"}, {"Name": "Royal North Tadka", "Rating": "3.7", "votes": "53", "location": " Shop 9, 2nd Floor, MGF Metropolis Mall, Near MG Road Metro Station, MG Road, Gurgaon", "Cuisines: ": "North Indian, Rolls", "hours": "11:30am\u201311pm(Mon-Sun)", "Cost for two": "\u20b9500"}, {"Name": "The O Pizza", "Rating": "3.7", "votes": "59", "location": " Street 22, Near VDS Market, Sadarpur, Sector 45, Noida", "Cuisines: ": "Pizza, Fast Food", "hours": "11am\u201311pm(Mon-Sun)", "Cost for two": "\u20b9400"}]