[{"Name": "Canteen In Supreme Court", "Rating": "-", "location": " Supreme Court, Tilak Marg, Mandi House, New Delhi", "Cuisines: ": "Street Food, North Indian", "hours": "9am\u20139pm(Mon-Sun)", "Cost for two": "\u20b9300"}, {"Name": "Patiala Peg - The Imperial", "Rating": "3.5", "location": " The Imperial, Janpath, New Delhi", "Cuisines: ": "Finger Food", "hours": "12:30pm\u201311:45pm,12midnight\u20131am(Mon-Sun)", "Cost for two": "\u20b93,000", "votes": "24"}, {"Name": "The Grill Room - The Lalit New Delhi", "Rating": "3.6", "location": " The Lalit, 3rd Floor, Barakhamba Avenue, Barakhamba Road, New Delhi", "Cuisines: ": "European", "hours": "7pm\u201311:45pm(Mon-Sun)", "Cost for two": "\u20b94,500", "votes": "71"}, {"Name": "Gulnar - Hotel Janpath", "Rating": "3.4", "location": " Hotel Janpath, Janpath Road, Janpath, New Delhi", "Cuisines: ": "North Indian, Chinese, Fast Food", "hours": "24Hours(Mon-Sun)", "Cost for two": "\u20b93,000", "votes": "39"}, {"Name": "New Bharat Bakery", "Rating": "3.1", "location": " 39, Nehru Bazar, Paharganj, New Delhi", "Cuisines: ": "Bakery, Desserts", "hours": "10am\u20139pm(Mon-Sun)", "Cost for two": "\u20b9250", "votes": "6"}, {"Name": "Bhog", "Rating": "-", "location": " 1245, Sangat Rashan, Paharganj, New Delhi", "Cuisines: ": "North Indian, South Indian, Chinese, Fast Food", "hours": "24Hours(Mon-Sun)", "Cost for two": "\u20b9300", "votes": "6"}, {"Name": "The Gem Bar & Restaurant", "Rating": "2.6", "location": " 1050, Main Bazaar, Paharganj, New Delhi", "Cuisines: ": "North Indian, Chinese, Continental", "hours": "11am\u201312midnight(Mon-Sun)", "Cost for two": "\u20b9800", "votes": "27"}, {"Name": "Mashaallah Chicken Corner", "Rating": "2.8", "location": " Shop 114, Amrit Kaur Market, New Delhi Railway Station, Paharganj, New Delhi", "Cuisines: ": "North Indian", "hours": "10am\u201312midnight(Mon-Sun)", "Cost for two": "\u20b9300", "votes": "15"}, {"Name": "Cafe CoffeeCo", "Rating": "3.1", "location": " 5111, Main Market, Gali Thanedarwali, Paharganj, New Delhi", "Cuisines: ": "Cafe", "hours": "9:30am\u20139:30pm(Mon-Sat),Closed(Sun)", "Cost for two": "\u20b9350", "votes": "51"}, {"Name": "Leo's Restaurant Lounge", "Rating": "3.7", "location": " Main Bazaar, Near Rama Krishna Ashram Metro Station, Paharganj, New Delhi", "Cuisines: ": "Continental, North Indian, Mughlai, Chinese, Beverages", "hours": "10am\u201311pm(Mon-Sun)", "Cost for two": "\u20b9700", "votes": "130"}, {"Name": "Nostalgia at 1911 Brasserie - The Imperial", "Rating": "3.6", "location": " The Imperial, Janpath, New Delhi", "Cuisines: ": "European, Continental", "hours": "6:30pm\u201311:45pm(Mon-Sun)", "Cost for two": "\u20b96,000", "votes": "24"}, {"Name": "Sikkim Kitchen", "Rating": "-", "location": " 1653, Main Bazaar, Paharganj, New Delhi", "Cuisines: ": "North Indian, Chinese", "hours": "11am\u201311pm(Mon-Sun)", "Cost for two": "\u20b9200", "votes": "24"}, {"Name": "House Of Combos", "Rating": "3.1", "location": " Krishna Market, Opposite Obcbank, Paharganj, New Delhi", "Cuisines: ": "North Indian, Chinese, Mughlai", "hours": "11am\u201311pm(Mon-Sun)", "Cost for two": "\u20b9300", "votes": "5"}, {"Name": "Diamond Restaurant", "Rating": "2.8", "location": " 5066, Main Bazaar, Paharganj, New Delhi", "Cuisines: ": "Italian, North Indian, Chinese, Continental, Mediterranean", "hours": "12noon\u201312midnight(Mon-Sun)", "Cost for two": "\u20b9600", "votes": "54"}, {"Name": "Vrinda Vaishno Dhaba", "Rating": "3.8", "location": " 5585, Basant Road Lane, Paharganj, New Delhi", "Cuisines: ": "North Indian", "hours": "9am\u201311:30pm(Mon-Sun)", "Cost for two": "\u20b9200", "votes": "89"}]