[{"Name": "Al Karim's Foods", "Rating": "3.6", "votes": "68", "location": " E2/148,149, Sector 3, Rohini, New Delhi", "Cuisines: ": "North Indian, Mughlai", "hours": "6pm\u201311pm(Mon-Sun)", "Cost for two": "\u20b9450"}, {"Name": "Dr. Shakes", "Rating": "-", "votes": "68", "location": " Shop 2, LSC Neelkanth Chamber, Rishabh Vihar, Anand Vihar, New Delhi", "Cuisines: ": "Fast Food", "hours": "11am\u201311pm(Mon-Sun)", "Cost for two": "\u20b9200"}, {"Name": "World Cafe - Vibe By The LaLiT Traveller", "Rating": "3.5", "votes": "86", "location": " Vibe by The Lalit Traveller, 12/7, Sector 35, Faridabad", "Cuisines: ": "North Indian, Continental, Chinese, Fast Food, Beverages, Desserts", "hours": "7am\u201311pm(Mon-Sun)", "Cost for two": "\u20b91,600"}, {"Name": "Alyamin Family Restaurant", "Rating": "3.6", "votes": "25", "location": " A-15, Thokar 6, Shaheen Bagh, Abul Fazal Enclave, Jamia Nagar, Okhla, Jasola, New Delhi", "Cuisines: ": "Mughlai, Arabian, North Indian", "hours": "12noon\u201311:30pm(Mon-Sun)", "Cost for two": "\u20b9800"}, {"Name": "Spicy Tales", "Rating": "4.0", "votes": "107", "location": " Shop 5, Community Center, Sector 104, Near Sector 110, Noida", "Cuisines: ": "North Indian, South Indian, Chinese, Street Food", "hours": "8am\u201311pm(Mon-Sun)", "Cost for two": "\u20b9700"}, {"Name": "Iconic Pizza Hub", "Rating": "NEW", "votes": "107", "location": " Shop 1, Block 17, Gandhi Nagar, Geeta Colony, New Delhi", "Cuisines: ": "Fast Food", "hours": "4pm\u20134am(Mon-Sun)", "Cost for two": "\u20b9300"}, {"Name": "Cheesecake & Co.", "Rating": "3.5", "votes": "13", "location": " Indirapuram, Ghaziabad", "Cuisines: ": "Desserts, Bakery, Beverages", "hours": "11am\u201311pm(Mon-Sun)", "Cost for two": "\u20b9500"}, {"Name": "Breadz", "Rating": "3.3", "votes": "54", "location": " OC Square, Orange County, Indirapuram, Ghaziabad", "Cuisines: ": "Bakery, Fast Food, Desserts", "hours": "10am\u201310pm(Mon-Sun)", "Cost for two": "\u20b9300"}, {"Name": "Paradesi Biryani", "Rating": "3.5", "votes": "255", "location": " Delivery Only", "Cuisines: ": "Hyderabadi, North Indian, Biryani, Andhra", "hours": "10am\u20133am(Mon-Sun)", "Cost for two": "\u20b9700"}, {"Name": "Cafe Russmunch", "Rating": "3.8", "votes": "334", "location": " 8, Chanderlok Enclave, Pitampura, New Delhi", "Cuisines: ": "Fast Food, Desserts, Beverages", "hours": "10am\u201311pm(Mon-Sun)", "Cost for two": "\u20b9500"}, {"Name": "Da Pizza Workshop", "Rating": "3.6", "votes": "31", "location": " 1/125, Sadar Bazar, Delhi Cantt., New Delhi", "Cuisines: ": "Pizza, Fast Food", "hours": "12noon\u201310:30pm(Mon-Sun)", "Cost for two": "\u20b9600"}, {"Name": "Anna South Indian Foods", "Rating": "-", "votes": "31", "location": " Shop 5, NP 99, Near Gopal Mandir, Pitampura, New Delhi", "Cuisines: ": "South Indian", "hours": "8am\u201311pm(Mon-Sun)", "Cost for two": "\u20b9200"}, {"Name": "Chawla Family Restaurant", "Rating": "3.9", "votes": "902", "location": " 52-53,  Opposite Surya, DDA Market, Rajouri Garden, New Delhi", "Cuisines: ": "North Indian, Chinese, Mughlai", "hours": "11am\u20132am(Mon-Sun)", "Cost for two": "\u20b9750"}, {"Name": "Broomie's", "Rating": "3.8", "votes": "176", "location": " B-107, Greenfields Colony, Sector 42, Faridabad", "Cuisines: ": "Bakery", "hours": "10:30am\u20139:30pm(Mon-Sun)", "Cost for two": "\u20b9300"}, {"Name": "Chandra Food House", "Rating": "3.5", "votes": "20", "location": " D 106/A, 2nd Floor, Sector 10, Noida", "Cuisines: ": "Rolls, Pizza, Fast Food", "hours": "2pm\u20132am(Mon-Sun)", "Cost for two": "\u20b9450"}]