[{"Name": "Thok", "Rating": "3.9", "votes": "424", "location": " Lower Ground - 7, Amrapali Shopping Arcade, Sector 45, Noida", "Cuisines: ": "North Indian, Chinese", "hours": "6pm\u20135am(Mon-Sun)", "Cost for two": "\u20b9700"}, {"Name": "Zaara Biryani Chicken Point", "Rating": "3.2", "votes": "10", "location": " 4/A, Main Market, Madanpur Khadar, Sarita Vihar, New Delhi", "Cuisines: ": "Hyderabadi", "hours": "9am\u201311:30pm(Mon-Sun)", "Cost for two": "\u20b9450"}, {"Name": "Cakewake", "Rating": "3.3", "votes": "13", "location": " J 210, Sector 22, Noida", "Cuisines: ": "Bakery", "hours": "10:30am\u201310pm(Mon-Sun)", "Cost for two": "\u20b9300"}, {"Name": "Pandit Ji Sweets", "Rating": "NEW", "votes": "13", "location": " Inside Prachin Hanuman Mandir, Golchakkar, Loni Mod, Shahdara, New Delhi", "Cuisines: ": "Mithai", "hours": "7am\u201312midnight(Mon-Sun)", "Cost for two": "\u20b9100"}, {"Name": "Glady's Diner", "Rating": "3.9", "votes": "37", "location": " Dynamic House Main, Dadri Road, Sector 41, Noida", "Cuisines: ": "Fast Food, Middle Eastern", "hours": "11am\u20133am(Mon-Sun)", "Cost for two": "\u20b9500"}, {"Name": "Licious Biryani", "Rating": "3.3", "votes": "11", "location": " E-42, second floor, G.B.Nagar, Sector 9, Noida", "Cuisines: ": "Mughlai, North Indian, Biryani", "hours": "1pm\u20133:30am(Mon-Sun)", "Cost for two": "\u20b9500"}, {"Name": "Indian Delights", "Rating": "3.8", "votes": "166", "location": " 2nd Floor, Sri Ram Complex, Block C, Near Maple Heights, Sushant Lok, Gurgaon", "Cuisines: ": "North Indian, Chinese", "hours": "12noon\u201311pm(Mon-Sun)", "Cost for two": "\u20b91,300"}, {"Name": "Cafe on 3 - Holiday Inn", "Rating": "4.1", "votes": "505", "location": " Holiday Inn, 13 A, District Centre, Mayur Vihar Phase 1, New Delhi", "Cuisines: ": "Continental, Chinese, Thai, Mediterranean", "hours": "24Hours(Mon-Sun)", "Cost for two": "\u20b92,000"}, {"Name": "Captain Of China", "Rating": "4.1", "votes": "52", "location": " Shop 2, Building 2, Satya Place, Opposite Pocket-N, Sarita Vihar, New Delhi", "Cuisines: ": "Chinese, Thai, Seafood", "hours": "11am\u20133am(Mon-Sun)", "Cost for two": "\u20b9500"}, {"Name": "Fruit Ras", "Rating": "4.4", "votes": "151", "location": " 5439, Pragati Vihar, DLF Phase 4, Gurgaon", "Cuisines: ": "Beverages, Juices", "hours": "8am\u20134am(Mon-Sun)", "Cost for two": "\u20b9150"}, {"Name": "Sunny Chicken Express (A Unit Of Sunny Chicken Soup)", "Rating": "3.8", "votes": "110", "location": " 22/1, Double Storey, Prem Nagar, Jail Road, New Delhi", "Cuisines: ": "Rolls, Chinese, North Indian", "hours": "5pm\u201311:30pm(Mon-Sun)", "Cost for two": "\u20b9450"}, {"Name": "Chakh Le Delhi", "Rating": "3.5", "votes": "17", "location": " C-6/6, Masoodpur Main Road, Opposite B-9 LIG Flats, Vasant Kunj, New Delhi", "Cuisines: ": "North Indian, Chinese, Fast Food", "hours": "11am\u201311:30pm(Mon-Sun)", "Cost for two": "\u20b9500"}, {"Name": "CHINA 9", "Rating": "4.1", "votes": "184", "location": " Jaipur Highway, Near Apno Ghar, Rampura, Near Sector 83, Gurgaon", "Cuisines: ": "Chinese", "hours": "11am\u20134pm,7pm\u201311pm(Mon-Fri),11am\u2013...", "Cost for two": "\u20b9150"}, {"Name": "Raju Chur Chur Naan", "Rating": "3.7", "votes": "76", "location": " G 41, Aggarwal Millenium Tower 1, Netaji Subhash Place, New Delhi", "Cuisines: ": "North Indian", "hours": "10am\u201311pm(Mon-Sun)", "Cost for two": "\u20b9300"}, {"Name": "The Hungry Momma", "Rating": "4.3", "votes": "82", "location": " 12/21, Ground Floor, Block 12 Shakti Nagar, Civil Lines, New Delhi", "Cuisines: ": "Pizza, Wraps, Burger, Sandwich, Chinese", "hours": "12noon\u201312midnight(Mon-Sun)", "Cost for two": "\u20b9500"}]