[{"Name": "Nirmal Momos Point", "Rating": "2.8", "votes": "7", "location": " Block 34P, Opposite Regent Mall, Hardhyan Singh Marg, Beadonpura, Karol Bagh, New Delhi", "Cuisines: ": "Momos", "hours": "Closed(Mon),5:30pm\u201310pm(Tue-Sun)", "Cost for two": "\u20b9200"}, {"Name": "Pappu Fish Wala", "Rating": "3.3", "votes": "16", "location": " 8803-8805, Pul Bangash, Azad Market, New Delhi", "Cuisines: ": "North Indian", "hours": "12noon\u201311pm(Mon-Sun)", "Cost for two": "\u20b9350"}, {"Name": "Pizza Everyday", "Rating": "3.5", "votes": "38", "location": " 1648, Lalkuan Bazar Road, Baradari, Chandni Chowk, New Delhi", "Cuisines: ": "Pizza, Fast Food", "hours": "9am\u201311:30pm(Mon-Sun)", "Cost for two": "\u20b9400"}, {"Name": "Phelwan Biryani Wala", "Rating": "3.5", "votes": "34", "location": " 701, Haveli Azam Khan, Chitli Qabar Chowk, Jama Masjid, New Delhi", "Cuisines: ": "Mughlai", "hours": "5:30pm\u201311pm(Mon-Sun)", "Cost for two": "\u20b9300"}, {"Name": "Honey Chicken Corner", "Rating": "-", "votes": "34", "location": " Shop 8599, Khanna Building, Gaushala Road, Karol Bagh, New Delhi", "Cuisines: ": "North Indian", "hours": "5pm\u201311:30pm(Mon-Sun)", "Cost for two": "\u20b9300"}, {"Name": "Hot & Spicy Kolkata Kathi Roll", "Rating": "3.1", "votes": "34", "location": " Opposite Axis Bank, Main Market, Rajinder Nagar, New Delhi", "Cuisines: ": "Rolls", "hours": "4pm\u201311pm(Mon-Sun)", "Cost for two": "\u20b9200"}, {"Name": "Mahavir Restaurant", "Rating": "-", "votes": "34", "location": " Shop 1, DDA Market, Opposite Vikas Bhawan, ITO, New Delhi", "Cuisines: ": "North Indian", "hours": "8am\u20137:30pm(Mon-Sun)", "Cost for two": "\u20b9300"}, {"Name": "Tiwari Ji Confectioner", "Rating": "3.7", "votes": "35", "location": " 43/1, Gali Pranthe Wali, Chandni Chowk, New Delhi", "Cuisines: ": "North Indian", "hours": "9am\u20135pm(Mon-Sun)", "Cost for two": "\u20b9150"}, {"Name": "Royal Punjab Shudh Bhojnalaya", "Rating": "3.5", "votes": "24", "location": " 134, Netaji Subhash Market, Ajmal Khan Road, Karol Bagh, New Delhi", "Cuisines: ": "North Indian", "hours": "10am\u20134:30pm,7pm\u201311:30pm(Mon-Sun)", "Cost for two": "\u20b9150"}, {"Name": "F5", "Rating": "-", "votes": "24", "location": " A8, FF, Prahlad Market, D.B.Gupta Road Near Khalsa College, Karol Bagh, New Delhi", "Cuisines: ": "Coffee, Sandwich, Tea", "hours": "7am\u20137pm(Mon-Sun)", "Cost for two": "\u20b9100"}, {"Name": "Natraj Cafe", "Rating": "3.7", "votes": "73", "location": " Main Road Near Central Bank, Opposite Paranthe Wali Gali, Chandni Chowk, New Delhi", "Cuisines: ": "North Indian, Street Food, South Indian", "hours": "11:30am\u20139pm(Mon-Sun)", "Cost for two": "\u20b9300"}, {"Name": "Dhani Ram Rakesh Gupta", "Rating": "3.2", "votes": "6", "location": " 2792, Gali Arya Samaj Sita Ram Bazar, Chawri Bazar, New Delhi", "Cuisines: ": "Ice Cream, Street Food", "hours": "10am\u20139pm(Mon-Sun)", "Cost for two": "\u20b9150"}, {"Name": "Ala Shawarma Point", "Rating": "-", "votes": "6", "location": " 3650, Lalkuan Road, Shah Ganj, Chandni Chowk, New Delhi", "Cuisines: ": "Lebanese, Fast Food", "hours": "5pm\u20139pm(Mon-Sun)", "Cost for two": "\u20b9200"}, {"Name": "Ashok Chaat Corner", "Rating": "3.9", "votes": "230", "location": " Shop 3488, Chowk Hauz Qazi, Near Chawri Bazar, New Delhi", "Cuisines: ": "Street Food", "hours": "10am\u201311pm(Mon-Sat),1pm\u20139pm(Sun)", "Cost for two": "\u20b9100"}, {"Name": "Capten Milkshakes", "Rating": "3.7", "votes": "69", "location": " 1215, Opposite New Katra, Main Chadni Chowk Road, Chandni Chowk, New Delhi", "Cuisines: ": "Beverages, Fast Food", "hours": "10am\u20139:30pm(Mon-Sun)", "Cost for two": "\u20b9400"}]