[{"Name": "Shikhara", "Rating": "4.1", "votes": "460", "location": " 4, Guru Nanak Market, R Block, Greater Kailash (GK) 1, New Delhi", "Cuisines: ": "North Indian, Mughlai", "hours": "12noon\u20134:30pm,6:30pm\u201312:30am...", "Cost for two": "\u20b91,300"}, {"Name": "Pizza Mania", "Rating": "3.4", "votes": "170", "location": " B-52, Gulab Bagh, Hanuman Mandir, Uttam Nagar, New Delhi", "Cuisines: ": "Pizza", "hours": "11:30am\u201310:30pm(Mon-Sun)", "Cost for two": "\u20b9350"}, {"Name": "Da Pizza.in", "Rating": "3.4", "votes": "19", "location": " B-1/3, Paryavaran Complex, Saidulajab, Saket, New Delhi", "Cuisines: ": "Pizza, Fast Food", "hours": "11am\u201311pm(Mon-Sun)", "Cost for two": "\u20b9400"}, {"Name": "Daitchi", "Rating": "3.8", "votes": "392", "location": " E-19-A, Main Market, South Extension 2, New Delhi", "Cuisines: ": "Chinese, Japanese, North Indian, Goan", "hours": "12noon\u20133:30pm,7pm\u201311:30pm(Mon-Sun)", "Cost for two": "\u20b91,100"}, {"Name": "Veg Biryani Corner", "Rating": "NEW", "votes": "392", "location": " H58, Gali 3, Near Metro Station, Laxmi Nagar, New Delhi", "Cuisines: ": "Fast Food", "hours": "8am\u20138pm(Mon-Sun)", "Cost for two": "\u20b9150"}, {"Name": "CGF- Cafe Ghost Freak", "Rating": "3.5", "votes": "19", "location": " Shop 7, Apex Flours, Sector-18, Vasundhara, Ghaziabad", "Cuisines: ": "North Indian, Chinese, Fast Food", "hours": "2pm\u20132am(Mon-Sun)", "Cost for two": "\u20b9500"}, {"Name": "TNG Restaurant", "Rating": "3.5", "votes": "60", "location": " 604, Opposite Golf Link Main Gate, Mehrauli Village, NH 24, Kavi Nagar, Ghaziabad", "Cuisines: ": "North Indian, Mughlai, Chinese", "hours": "10am\u201311:30pm(Mon-Sun)", "Cost for two": "\u20b9600"}, {"Name": "Castle Kitchen", "Rating": "3.7", "votes": "51", "location": " 74, Ansal Golf, Link 1, Omega 1, Greater Noida", "Cuisines: ": "North Indian, Italian", "hours": "11am\u201311:30pm(Mon-Sun)", "Cost for two": "\u20b9250"}, {"Name": "Hum Sabki Rasoi", "Rating": "3.6", "votes": "85", "location": " S-1/68, Old Mahavir Nagar, Tilak Nagar, New Delhi", "Cuisines: ": "North Indian", "hours": "12:30pm\u20134:30pm,7pm\u201310:30pm(Mon-Sun)", "Cost for two": "\u20b9250"}, {"Name": "Nutrition Theka", "Rating": "3.7", "votes": "84", "location": " Shop A-4, Block B-4, Keshav Puram, Lawrence Road, New Delhi", "Cuisines: ": "Cafe, Kebab, Fast Food", "hours": "8am\u201311pm(Mon-Sun)", "Cost for two": "\u20b9500"}, {"Name": "Cafe Manhattan Restro Bar", "Rating": "3.0", "votes": "4", "location": " Plot 5, Second Floor, Khatri Plaza, Local Shopping Centre, Sector 6, Dwarka, New Delhi", "Cuisines: ": "North Indian, Chinese, Mughlai", "hours": "12noon\u201312midnight(Mon-Sun)", "Cost for two": "\u20b9800"}, {"Name": "Mirch Masala", "Rating": "3.4", "votes": "60", "location": " 7, J Block, Main Market, Saket, New Delhi", "Cuisines: ": "North Indian, Chinese, Rolls", "hours": "12noon\u20134:30pm,5pm\u201311pm(Mon-Sun)", "Cost for two": "\u20b9300"}, {"Name": "Madan Sweets and Restaurant", "Rating": "3.8", "votes": "334", "location": " 3, K-23, Rakesh Marg, Nehru Nagar, Ghaziabad", "Cuisines: ": "North Indian, South Indian, Chinese, Fast Food, Mithai", "hours": "8am\u201310:30pm(Mon-Sun)", "Cost for two": "\u20b9500"}, {"Name": "Shree Hari Om Deluxe Rasoi", "Rating": "3.5", "votes": "35", "location": " 568/7, Near Shiv Murti, Old Railway Road, Gurgaon", "Cuisines: ": "North Indian", "hours": "11am\u20134pm,6:30pm\u201311pm(Mon-Sun)", "Cost for two": "\u20b9350"}, {"Name": "Metro Fast Food", "Rating": "3.9", "votes": "128", "location": " LSC 1, Sector 5, Dwarka, New Delhi", "Cuisines: ": "Chinese", "hours": "12noon\u201310:30pm(Mon-Sun)", "Cost for two": "\u20b9450"}]