[{"Name": "Burger House", "Rating": "3.6", "votes": "43", "location": " CR Road, Laxmi Nagar, New Delhi", "Cuisines: ": "Burger, Fast Food, Beverages", "hours": "7am\u20135am(Mon-Sun)", "Cost for two": "\u20b9350"}, {"Name": "Costa Coffee", "Rating": "3.8", "votes": "159", "location": " 36, The Great India Place Mall, Sector 38 A, Near Sector 38, Noida", "Cuisines: ": "Cafe, Fast Food", "hours": "11am\u201311pm(Mon-Sun)", "Cost for two": "\u20b9600"}, {"Name": "Dhaba NH8", "Rating": "4.1", "votes": "63", "location": " Plot 482, Vpo Wazirabad, Sector 52, Near Ardee City, Gurgaon", "Cuisines: ": "North Indian, Mughlai", "hours": "8pm\u20139am(Mon-Sun)", "Cost for two": "\u20b9250"}, {"Name": "The Next Kitchen", "Rating": "4.1", "votes": "28", "location": " Shop 55, Ground Floor, City Plaza, Gaur City 1, Greater Noida", "Cuisines: ": "Chinese, South Indian, Fast Food, North Indian", "hours": "11:30am\u20132am(Mon-Sun)", "Cost for two": "\u20b9400"}, {"Name": "Knickerboockers Bakery", "Rating": "NEW", "votes": "28", "location": " 128, Fashion Hub, Shahpur Jat, New Delhi", "Cuisines: ": "Bakery", "hours": "11am\u201311pm(Mon-Sun)", "Cost for two": "\u20b9450"}, {"Name": "Aggarwal Restaurant", "Rating": "2.8", "votes": "323", "location": " 15, Aashirwad Chowk, Sector 12, Dwarka, New Delhi", "Cuisines: ": "Street Food, Mithai", "hours": "10:30am\u201310:30pm(Mon-Sun)", "Cost for two": "\u20b9400"}, {"Name": "Indo-Chinese Stories By Bhai-G", "Rating": "4.4", "votes": "405", "location": " 57, Bharat Nagar, New Friends Colony, New Delhi", "Cuisines: ": "North Indian, Chinese", "hours": "11am\u201311pm(Mon-Sun)", "Cost for two": "\u20b9500"}, {"Name": "Taste Of Punjab", "Rating": "NEW", "votes": "405", "location": " C-142, Gautam Buddha Nagar, Sector 71, Noida", "Cuisines: ": "North Indian, Chinese, Fast Food", "hours": "11am\u20132am(Mon-Sun)", "Cost for two": "\u20b9350"}, {"Name": "South Indian Food", "Rating": "3.6", "votes": "31", "location": " Shop 6, Under Ground 9, Ansal Chamber II, Bhikaji Cama Place, New Delhi", "Cuisines: ": "South Indian", "hours": "8:30am\u20136:30pm(Mon-Sun)", "Cost for two": "\u20b9200"}, {"Name": "Zosse", "Rating": "3.5", "votes": "124", "location": " 2nd Floor, Crown Plaza Mall, Sector 15-A, Sector 15, Faridabad", "Cuisines: ": "North Indian, Chinese", "hours": "12noon\u201312midnight(Mon-Sun)", "Cost for two": "\u20b91,500"}, {"Name": "Mithlesh Ande Wala", "Rating": "4.1", "votes": "309", "location": " Shop D-1, Fateh Nagar, Tilak Nagar, New Delhi", "Cuisines: ": "Fast Food", "hours": "8:30am\u20133pm,4:30pm\u201311:30pm(Mon,Wed,Thu...", "Cost for two": "\u20b9200"}, {"Name": "Biryani 24", "Rating": "3.4", "votes": "33", "location": " Shop 107, Jaipuriya Plaza, Sector 26, Noida", "Cuisines: ": "Biryani", "hours": "12noon\u201310:30pm(Mon-Sun)", "Cost for two": "\u20b9600"}, {"Name": "Tau's Cafe & Lassi Bar", "Rating": "3.8", "votes": "575", "location": " Ground Floor, 13 /12 Ansal Plaza, Palam Vihar, Gurgaon", "Cuisines: ": "North Indian, Fast Food, Rolls", "hours": "10am\u201310:30pm(Mon-Sun)", "Cost for two": "\u20b9450"}, {"Name": "Chai Pakoda House", "Rating": "3.6", "votes": "30", "location": " Shop SC - 181, Jaipuria Sunrise Plaza, Ahinsa Khand 1, Indirapuram, Ghaziabad", "Cuisines: ": "Street Food, Tea, Beverages", "hours": "24Hours(Mon-Sun)", "Cost for two": "\u20b9250"}, {"Name": "Classic Juice, Shakes & Mocktails", "Rating": "3.9", "votes": "85", "location": " F-20, Single Story, Opposite NDPL Office, Vijay Nagar, New Delhi", "Cuisines: ": "Beverages, Ice Cream, Desserts", "hours": "8:30am\u20133am(Mon-Sun)", "Cost for two": "\u20b9200"}]