[{"Name": "Dadu Cutlet Shop", "Rating": "3.9", "votes": "198", "location": " 39, C.S.C Market 2, Chittaranjan Park, New Delhi", "Cuisines: ": "Rolls", "hours": "5pm\u201310pm(Mon-Sun)", "Cost for two": "\u20b9150"}, {"Name": "Delicious Snacks And Sweets", "Rating": "3.1", "votes": "11", "location": " 52, Rama Park Road, Mohan Garden, Uttam Nagar, New Delhi", "Cuisines: ": "Bakery, Fast Food", "hours": "9am\u201311:30pm(Mon-Sun)", "Cost for two": "\u20b9200"}, {"Name": "The Black Diamond Restra And Cafe", "Rating": "3.2", "votes": "8", "location": " Shop 1, Main Market Sombazaar, Chauhan Building, Sector 45, Noida", "Cuisines: ": "North Indian, Chinese", "hours": "11:30am\u201311pm(Mon-Sun)", "Cost for two": "\u20b9400"}, {"Name": "Hunger Gear", "Rating": "NEW", "votes": "8", "location": " Shop 600, Gali 3, Chhalera, Near SRS Value Bazaar, Sector 44, Noida", "Cuisines: ": "North Indian, South Indian, Chinese", "hours": "8am\u201311pm(Mon-Sun)", "Cost for two": "\u20b9300"}, {"Name": "Punjab Restaurant", "Rating": "3.5", "votes": "86", "location": " Shop 3 & 4, Main Market, Yusuf Sarai, New Delhi", "Cuisines: ": "North Indian, Mughlai", "hours": "11am\u20134pm,7pm\u201311pm(Mon-Sun)", "Cost for two": "\u20b9550"}, {"Name": "House of Chocolate", "Rating": "3.3", "votes": "14", "location": " Delivery Only", "Cuisines: ": "Bakery", "hours": "11am\u20139pm(Mon-Sun)", "Cost for two": "\u20b9200"}, {"Name": "Minus 30", "Rating": "3.5", "votes": "19", "location": " 246, Okhla Industrial Area, Okhla Phase 1, New Delhi", "Cuisines: ": "Ice Cream", "hours": "12noon\u201310pm(Mon-Sun)", "Cost for two": "\u20b9300"}, {"Name": "Atrangi", "Rating": "4.1", "votes": "116", "location": " U-184 A, Vikas Marg, Opposite Pillar 31, Shakarpur, New Delhi", "Cuisines: ": "Fast Food, Beverages", "hours": "11am\u201311:30pm(Mon-Sun)", "Cost for two": "\u20b9300"}, {"Name": "Daawat Restaurant", "Rating": "3.7", "votes": "193", "location": " D-3/11, Krishna Nagar, New Delhi", "Cuisines: ": "North Indian, Chinese, Fast Food, Beverages", "hours": "11am\u201311:30pm(Mon-Sun)", "Cost for two": "\u20b9800"}, {"Name": "Peng You Quan - Friends Restaurants", "Rating": "3.8", "votes": "61", "location": " G23,24,25, Central Plaza Mall, Sector 53, Golf Course Road, Gurugram,", "Cuisines: ": "Chinese, Thai, Momos", "hours": "12noon\u201310:30pm(Mon-Sun)", "Cost for two": "\u20b91,600"}, {"Name": "Green Lounge", "Rating": "3.7", "votes": "214", "location": " 39 & 43, Ground Floor, Aggarwal City Mall, Pitampura, New Delhi", "Cuisines: ": "North Indian, Chinese", "hours": "11am\u201312midnight(Mon-Sun)", "Cost for two": "\u20b91,400"}, {"Name": "Drishti Tiffins & Caterers", "Rating": "3.3", "votes": "16", "location": " Gijhor Village, Gautam Buddha Nagar, Sector 53, Noida", "Cuisines: ": "North Indian", "hours": "10am\u201311:30pm(Mon-Sun)", "Cost for two": "\u20b9300"}, {"Name": "Asian Bowl", "Rating": "3.7", "votes": "45", "location": " Lower Ground Floor, Centre Stage Mall, Sector 18, Noida", "Cuisines: ": "Chinese", "hours": "11am\u201311pm(Mon-Sun)", "Cost for two": "\u20b9550"}, {"Name": "Al Mezbaan Chicken Point", "Rating": "NEW", "votes": "45", "location": " 36 Miles, Azzi Colony, Opposite Anaj Mandi, Ballabhgarh, Faridabad", "Cuisines: ": "North Indian", "hours": "1pm\u201311pm(Mon-Sun)", "Cost for two": "\u20b9300"}, {"Name": "Mustard Seed", "Rating": "NEW", "votes": "45", "location": " S-23, Green Park Extension, Green Park, New Delhi", "Cuisines: ": "North Indian, North Eastern, Modern Indian", "hours": "12noon\u201311:30pm(Mon-Sun)", "Cost for two": "\u20b91,400"}]