[{"Name": "Special Jalebi Wala", "Rating": "3.7", "votes": "61", "location": " 1469/1, Fabbara Chowk, Chandni Chowk, New Delhi", "Cuisines: ": "Mithai", "hours": "9am\u201310pm(Mon-Sun)", "Cost for two": "\u20b9100"}, {"Name": "Udupi Eating House", "Rating": "3.5", "votes": "82", "location": " 4, Ground Floor, Old Rajinder Nagar, New Delhi", "Cuisines: ": "South Indian", "hours": "Closed(Mon),8am\u201310pm(Tue-Sun)", "Cost for two": "\u20b9250"}, {"Name": "Darshan Dhaba", "Rating": "2.7", "votes": "25", "location": " 54, Main Market, Old Rajinder Nagar, New Delhi", "Cuisines: ": "North Indian", "hours": "12noon\u20133pm,7pm\u201311pm(Mon-Sun)", "Cost for two": "\u20b9300"}, {"Name": "Prince Chicken & Mutton Shop", "Rating": "3.3", "votes": "32", "location": " 95, Old Rajinder Nagar, Near Rajinder Nagar, New Delhi", "Cuisines: ": "North Indian, Raw Meats", "hours": "9am\u20133:30pm,6:30pm\u201311pm(Mon,Wed,Thu,Fri...", "Cost for two": "\u20b9500"}, {"Name": "China in Town", "Rating": "3.6", "votes": "59", "location": " 5/39, WEA, Karol Bagh, New Delhi", "Cuisines: ": "Chinese", "hours": "12noon\u201310:30pm(Mon-Sun)", "Cost for two": "\u20b9550"}, {"Name": "Al-Pasand", "Rating": "-", "votes": "59", "location": " MD Ismail Marg, Main Bazar Hindu Rao, Sadar Bazaar, Azad Market, New Delhi", "Cuisines: ": "Ice Cream", "hours": "5pm\u201312midnight(Mon-Sun)", "Cost for two": "\u20b9150"}, {"Name": "Yummy Nukkad", "Rating": "3.2", "votes": "10", "location": " B1/3, Pusa Road, Old Rajender Nagar, Rajinder Nagar, New Delhi", "Cuisines: ": "Rolls, North Indian, Chinese", "hours": "11am\u201312midnight(Mon-Sun)", "Cost for two": "\u20b9450"}, {"Name": "Hotel Horizon Place", "Rating": "-", "votes": "10", "location": " 6A/7 WEA, Karol Bagh, New Delhi, Delhi 110005, India", "Cuisines: ": "North Indian, Chinese, South Indian", "hours": "24Hours(Mon-Sun)", "Cost for two": "\u20b9700"}, {"Name": "Kulcha Junction", "Rating": "-", "votes": "10", "location": " Shop 47, Near kotak Mahindra Bank, Rajinder Nagar, New Delhi", "Cuisines: ": "North Indian", "hours": "9:30am\u20139:30pm(Mon-Sun)", "Cost for two": "\u20b9200"}, {"Name": "Bawa Food Corner", "Rating": "2.9", "votes": "4", "location": " Behind Police Headquarter, Bahadur Shah Zafar Marg, Vikram Nagar, ITO, New Delhi", "Cuisines: ": "Street Food", "hours": "9am\u201310pm(Mon-Sun)", "Cost for two": "\u20b9100"}, {"Name": "The  Baked Charcoal", "Rating": "3.0", "votes": "6", "location": " Delivery Only", "Cuisines: ": "Bakery", "hours": "9am\u20136pm(Mon-Sun)", "Cost for two": "\u20b9400"}, {"Name": "Punjabi Taste", "Rating": "3.0", "votes": "9", "location": " Shop 161A, Gaffar Market, Karol Bagh, New Delhi", "Cuisines: ": "North Indian", "hours": "11:30am\u20134:30pm(Mon-Sun)", "Cost for two": "\u20b9400"}, {"Name": "Speedy Shawarma", "Rating": "-", "votes": "9", "location": " 14, Apsara Arcade, Near Karol Bagh Metro Station, Karol Bagh, New Delhi", "Cuisines: ": "Lebanese, North Indian", "hours": "11am\u201311pm(Mon-Sun)", "Cost for two": "\u20b9400"}, {"Name": "LazyChef", "Rating": "-", "votes": "9", "location": " Hotel Amrit Villa, 15/10169, W.E.A Gurudwara Road, Block 15, Karol Bagh, New Delhi", "Cuisines: ": "North Indian", "hours": "11am\u201311pm(Mon-Sun)", "Cost for two": "\u20b9350"}, {"Name": "A2Z", "Rating": "3.4", "votes": "22", "location": " 6A/2, WEA, Opposite Sat Nagar Hanuman Mandir, Sat Nagar, Karol Bagh, New Delhi", "Cuisines: ": "North Indian, Fast Food", "hours": "8:30am\u20134am(Mon-Sun)", "Cost for two": "\u20b9500"}]