[{"Name": "Fitness Bar", "Rating": "3.2", "votes": "6", "location": " Shop 1, RZ-37, Gali 22, Vashisth Park, Sagarpur, Near Shakuntla Hospital, Palam, New Delhi", "Cuisines: ": "Beverages, Fast Food", "hours": "9am\u201310:30pm(Mon-Sat),9am\u201310pm(Sun)", "Cost for two": "\u20b9300"}, {"Name": "Cantt Briyani Corner", "Rating": "3.4", "votes": "18", "location": " Shop 218/17, Behind Masjid, Sadar Bazar, Delhi Cantt., New Delhi", "Cuisines: ": "Biryani", "hours": "9am\u201310pm(Mon-Sun)", "Cost for two": "\u20b9350"}, {"Name": "Kashmiri Kitchen", "Rating": "3.6", "votes": "299", "location": " Near IFFCO Chowk Metro Station, Metro Pillar 141, Sector 29, Gurgaon", "Cuisines: ": "Kashmiri", "hours": "12noon\u201311:30pm(Mon-Sun)", "Cost for two": "\u20b9900"}, {"Name": "Chou-Box", "Rating": "3.2", "votes": "25", "location": " G-04, Near Box Office, V3S Mall, Near Nirman Vihar Metro Station, Laxmi Nagar, New Delhi", "Cuisines: ": "Chinese", "hours": "11am\u201311pm(Mon-Sun)", "Cost for two": "\u20b9450"}, {"Name": "Pizza 83", "Rating": "3.2", "votes": "12", "location": " Opposite Staze Apartment, Manesar Road, Hayatpur, Sector 93, Near Sector 83, Gurgaon", "Cuisines: ": "Pizza, Fast Food", "hours": "10:30am\u201310:30pm(Mon-Sun)", "Cost for two": "\u20b9400"}, {"Name": "Pizza Crowed", "Rating": "3.3", "votes": "13", "location": " RZ 56, Sita Puri, Dabri Mode, Main Palam Road, Janakpuri, New Delhi", "Cuisines: ": "Pizza", "hours": "10am\u201310pm(Mon-Sun)", "Cost for two": "\u20b9500"}, {"Name": "Super Bakery", "Rating": "3.6", "votes": "108", "location": " Near Bank of India, Jacobpura, Old Railway Road, Gurgaon", "Cuisines: ": "Bakery, Fast Food", "hours": "7am\u201310pm(Mon-Sun)", "Cost for two": "\u20b9250"}, {"Name": "Foodie Kings", "Rating": "3.5", "votes": "18", "location": " C 2/1, Yamuna Vihar, Main Road, Shahdara, New Delhi", "Cuisines: ": "Pizza, Fast Food", "hours": "12noon\u201311pm(Mon-Sun)", "Cost for two": "\u20b9400"}, {"Name": "Arora Fast Food", "Rating": "3.8", "votes": "29", "location": " C 4/18, Keshav Puram, Lawrence Road, New Delhi", "Cuisines: ": "Chinese, Fast Food, Rolls", "hours": "1pm\u201311pm(Mon-Sun)", "Cost for two": "\u20b9300"}, {"Name": "Roll Singh", "Rating": "4.2", "votes": "64", "location": " Shop 31, CSC 2, DDA Flat, Sector 9, Rohini, New Delhi", "Cuisines: ": "Rolls", "hours": "4pm\u201311pm(Mon-Sun)", "Cost for two": "\u20b9200"}, {"Name": "Ravaaish", "Rating": "3.7", "votes": "78", "location": " Shop 10, Huda Market, Sector 4, Gurgaon", "Cuisines: ": "North Indian", "hours": "2pm\u201311pm(Mon-Sun)", "Cost for two": "\u20b9200"}, {"Name": "Dosa Point", "Rating": "3.4", "votes": "191", "location": " Shop 12, IB Block Market, Ashok Vihar Phase 1, New Delhi", "Cuisines: ": "South Indian, Chinese", "hours": "9am\u201310pm(Mon-Sun)", "Cost for two": "\u20b9350"}, {"Name": "From The Kitchen of Mala Bindra", "Rating": "4.0", "votes": "51", "location": " Delivery Only", "Cuisines: ": "Bakery", "hours": "9am\u20137pm(Mon-Sun)", "Cost for two": "\u20b91,000"}, {"Name": "Akshayyam", "Rating": "3.4", "votes": "38", "location": " Shop 14, Rama Market, Munirka, New Delhi", "Cuisines: ": "South Indian", "hours": "8am\u20139:30pm(Mon-Sun)", "Cost for two": "\u20b9300"}, {"Name": "AL Zaika Biryani", "Rating": "3.5", "votes": "56", "location": " L- 82A, Malviya Nagar, New Delhi", "Cuisines: ": "Biryani", "hours": "11am\u201311pm(Mon-Sun)", "Cost for two": "\u20b9300"}]