[{"Name": "Brewtoast", "Rating": "3.9", "votes": "150", "location": " Shop 3, C 17, Amar Colony, New Delhi", "Cuisines: ": "Italian, Fast Food, Beverages", "hours": "11am\u201310pm(Mon-Sun)", "Cost for two": "\u20b9450"}, {"Name": "Punjabi Dhaba", "Rating": "3.9", "votes": "369", "location": " CSC-5, Opposite Veera Jain Hospital, Sector 11, Rohini, New Delhi", "Cuisines: ": "North Indian", "hours": "12noon\u20134pm,7pm\u201311pm(Mon-Sun)", "Cost for two": "\u20b9400"}, {"Name": "Gyan's", "Rating": "3.8", "votes": "193", "location": " 28/10, Central Market, Opposite Neel Kanth Mandir, East Patel Nagar, New Delhi", "Cuisines: ": "North Indian, Chinese", "hours": "11am\u20134pm,7pm\u201311pm(Mon-Sun)", "Cost for two": "\u20b9700"}, {"Name": "Bistro 360", "Rating": "3.8", "votes": "156", "location": " SF 9, Bhikaji Cama Bhawan, Bhikaji Cama Place, New Delhi", "Cuisines: ": "Chinese, Continental, North Indian", "hours": "12noon\u201311pm(Mon-Sun)", "Cost for two": "\u20b91,400"}, {"Name": "Chef's Kitchen", "Rating": "3.8", "votes": "99", "location": " 865, Main Road, Near Batra Cinema, Mukherjee Nagar, New Delhi", "Cuisines: ": "North Indian, Chinese, Fast Food", "hours": "11:30am\u201312midnight(Mon-Sun)", "Cost for two": "\u20b9500"}, {"Name": "Veer Jee Restaurant", "Rating": "3.3", "votes": "80", "location": " H 63, BK Dutt Colony, Jor Bagh Lane, Jor Bagh, New Delhi", "Cuisines: ": "North Indian", "hours": "11:30am\u201311:30pm(Mon-Sun)", "Cost for two": "\u20b9500"}, {"Name": "Javed Ki Famous Nahari", "Rating": "3.9", "votes": "177", "location": " Zakir Nagar Main Road, Jogabai Extension, Okhla, New Delhi", "Cuisines: ": "Mughlai", "hours": "11am\u201311pm(Mon-Sun)", "Cost for two": "\u20b9150"}, {"Name": "Delhi Biryani king", "Rating": "NEW", "votes": "177", "location": " WPX 77, Ashok Vihar, Wazirpur Village, Saraswati Vihar, Pitampura, New Delhi", "Cuisines: ": "Biryani, Fast Food, Beverages", "hours": "12noon\u20134am(Mon-Sun)", "Cost for two": "\u20b9400"}, {"Name": "Twister Cake Cafe", "Rating": "3.9", "votes": "55", "location": " UB-35, Ground Floor, Bunglow Road, Jawahar Nagar, Kamla Nagar, New Delhi", "Cuisines: ": "Desserts, Ice Cream", "hours": "10am\u201310pm(Mon-Sun)", "Cost for two": "\u20b9150"}, {"Name": "Kapil Dhaba", "Rating": "3.7", "votes": "105", "location": " Opposite Metro Pillar 231, Patel Road, West Patel Nagar, New Delhi", "Cuisines: ": "North Indian", "hours": "11am\u201311pm(Mon-Sun)", "Cost for two": "\u20b9300"}, {"Name": "Master's Cakes And Sweets", "Rating": "3.9", "votes": "444", "location": " Shop 8, Ground Floor, Deep Cinema Complex, Ashok Vihar Phase 1, New Delhi", "Cuisines: ": "Bakery, Fast Food, Chinese, Street Food, Desserts", "hours": "10:30am\u201310pm(Mon-Sun)", "Cost for two": "\u20b9400"}, {"Name": "Hare Krishna Soya Chaap", "Rating": "NEW", "votes": "444", "location": " Plot 595/5, Near National Public School, Patel Nagar, Sector 15, Gurgaon", "Cuisines: ": "North Indian", "hours": "5pm\u201311pm(Mon-Sun)", "Cost for two": "\u20b9250"}, {"Name": "King Ka Khana Chhutna Jana 24X7", "Rating": "NEW", "votes": "444", "location": " Delivery Only", "Cuisines: ": "North Indian, Chinese, Fast Food", "hours": "24Hours(Mon-Sun)", "Cost for two": "\u20b9400"}, {"Name": "Dilli-Way", "Rating": "4.0", "votes": "212", "location": " J 49, Lajpat Nagar 4, New Delhi", "Cuisines: ": "Chinese, North Indian, Momos", "hours": "11am\u20132am(Mon-Sun)", "Cost for two": "\u20b9400"}, {"Name": "Hollywood's Pizza And Grill", "Rating": "3.2", "votes": "8", "location": " A-22, Savitri Bhawan, Commercial Complex, Mukherjee Nagar, New Delhi", "Cuisines: ": "Pizza", "hours": "12noon\u201310pm(Mon-Sun)", "Cost for two": "\u20b9500"}]