[{"Name": "Pishori Chicken", "Rating": "3.1", "votes": "5", "location": " Shop 3081, Rajguru Marg, Bazar Sangatrashan, Chuna Mandi, Paharganj, New Delhi", "Cuisines: ": "North Indian, Chinese, Rolls", "hours": "6pm\u201311:30pm(Mon-Sun)", "Cost for two": "\u20b9500"}, {"Name": "Shahi Chicken Corner", "Rating": "-", "votes": "5", "location": " Nabi Karim, Purani Police Chowki, Paharganj, New Delhi", "Cuisines: ": "North Indian", "hours": "11am\u20132am(Mon-Sun)", "Cost for two": "\u20b9350"}, {"Name": "Siri Caterers", "Rating": "-", "votes": "5", "location": " Indian Newspaper Society Building, Raasimarg, Opposite Vitalbai Patel House, Near Patel Chowk, Janpath, New Delhi", "Cuisines: ": "South Indian, Biryani", "hours": "9am\u20138pm(Mon-Sun)", "Cost for two": "\u20b9300"}, {"Name": "Mojo Terrace Cafe", "Rating": "3.4", "votes": "15", "location": " 5096, Gali Sakko Wali, Main Bazaar, Paharganj, New Delhi", "Cuisines: ": "Fast Food", "hours": "1pm\u201312:30am(Mon-Sun)", "Cost for two": "\u20b9600"}, {"Name": "Thaath Baath Cafe", "Rating": "3.9", "votes": "119", "location": " 9329/7, Ground Floor, Multani Dhanda, Paharganj, New Delhi", "Cuisines: ": "Fast Food, Street Food, Beverages", "hours": "11am\u20139pm(Mon-Sun)", "Cost for two": "\u20b9400"}, {"Name": "Aggarwal Sweet India", "Rating": "3.4", "votes": "16", "location": " Shop 12, R K Ashram, Paharganj, New Delhi", "Cuisines: ": "Mithai, Street Food", "hours": "9am\u201311pm(Mon-Sun)", "Cost for two": "\u20b9250"}, {"Name": "Cafexpress", "Rating": "3.2", "votes": "7", "location": " Nawab Road, Behind Sardar Thana, Paharganj, New Delhi", "Cuisines: ": "Beverages", "hours": "10am\u20131am(Mon-Sun)", "Cost for two": "\u20b9200"}, {"Name": "Sardar Ji Food Point", "Rating": "3.3", "votes": "20", "location": " 1725, Laxmi Narayan Street, Opposite Krishna Cottage Chuna Mandi, Paharganj, New Delhi", "Cuisines: ": "North Indian, BBQ", "hours": "10am\u201311pm(Mon-Sun)", "Cost for two": "\u20b9400"}, {"Name": "Sethi Restaurant", "Rating": "3.2", "votes": "23", "location": " 3077, D.B. Gupta Road, Paharganj, New Delhi", "Cuisines: ": "North Indian, Mughlai", "hours": "10am\u201310:30pm(Mon-Sun)", "Cost for two": "\u20b9800"}, {"Name": "Magic Pot", "Rating": "3.5", "votes": "40", "location": " 3504, Dariba Pan, Paharganj, New Delhi", "Cuisines: ": "North Indian", "hours": "11am\u201311pm(Mon-Sun)", "Cost for two": "\u20b9400"}, {"Name": "Khrisna Dhaba", "Rating": "-", "votes": "40", "location": " 3175, Satrasen Gali, Paharganj, New Delhi", "Cuisines: ": "North Indian", "hours": "10am\u201310pm(Mon-Sun)", "Cost for two": "\u20b9250"}, {"Name": "Hello G Sas Kitchen", "Rating": "3.3", "votes": "14", "location": " 8385/8386, Ground Floor, Gali-6, Near Ashka Palace Arakasha Road, Aryanagar, Paharganj, New Delhi", "Cuisines: ": "North Indian, Biryani, Chinese", "hours": "7am\u20133am(Mon-Sun)", "Cost for two": "\u20b9300"}, {"Name": "Flavours", "Rating": "2.7", "votes": "33", "location": " 7972, Arakshan Road, Paharganj, New Delhi", "Cuisines: ": "North Indian, Chinese, South Indian, Fast Food", "hours": "8am\u201312midnight(Mon-Sun)", "Cost for two": "\u20b9500"}, {"Name": "Alam Biryani", "Rating": "-", "votes": "33", "location": " Amar Piri Main Market, Nabi Karim, Opposite Masjid, Paharganj, New Delhi", "Cuisines: ": "Biryani", "hours": "10am\u201310pm(Mon-Sun)", "Cost for two": "\u20b9300"}, {"Name": "Bangal Dine", "Rating": "-", "votes": "33", "location": " Gali 6, Arakshan Road, Paharganj, New Delhi", "Cuisines: ": "Bengali", "hours": "10am\u201310pm(Mon-Sun)", "Cost for two": "\u20b9200"}]