[{"Name": "Kumar Namkeen Bhandar", "Rating": "3.0", "votes": "5", "location": " Shop 35-36, Near Shreeram Mandir, Azad Market, New Delhi", "Cuisines: ": "Street Food", "hours": "10am\u201311pm(Mon-Sun)", "Cost for two": "\u20b9200"}, {"Name": "Mama's Chinese Kitchen", "Rating": "3.1", "votes": "55", "location": " 4/52, Main Shankar Road, Old Rajinder Nagar, Rajinder Nagar, New Delhi", "Cuisines: ": "North Indian, Chinese, Mughlai", "hours": "12noon\u201311pm(Mon-Sun)", "Cost for two": "\u20b9450"}, {"Name": "Chuni Lal Sweets & Namkeen", "Rating": "3.4", "votes": "29", "location": " 98-A, Desh Bandhu Gupta Market, Karol Bagh, New Delhi", "Cuisines: ": "Mithai", "hours": "8am\u201310pm(Mon-Sun)", "Cost for two": "\u20b9100"}, {"Name": "Purana Zaika", "Rating": "3.4", "votes": "17", "location": " Shop 2652, Street Khajoor, Kucha Chelan, Darya Ganj, Delhi NCR", "Cuisines: ": "Mughlai, Rolls", "hours": "2pm\u201312:30am(Mon-Sun)", "Cost for two": "\u20b9200"}, {"Name": "Chawla's 2 online.com", "Rating": "3.5", "votes": "39", "location": " 7A/7, Channa Market, Karol Bagh, New Delhi", "Cuisines: ": "Chinese, North Indian, Mughlai", "hours": "11am\u201311pm(Mon-Sun)", "Cost for two": "\u20b9700"}, {"Name": "Simply Delicious", "Rating": "3.3", "votes": "15", "location": " 7a/7 W.e.a, Channa Market, Karol Bagh, New Delhi", "Cuisines: ": "North Indian, Mughlai", "hours": "11:30am\u201311:30pm(Mon-Sun)", "Cost for two": "\u20b9300"}, {"Name": "Baddy's Kitchen", "Rating": "3.8", "votes": "34", "location": " Shop 6, A/69, Ground Floor, WEA, Vishnu Mandir Marg, Chenna Market, Karol Bagh, New Delhi", "Cuisines: ": "Burger, Fast Food", "hours": "12noon\u201311pm(Mon,Wed,Thu,Fri,Sat,Sun)...", "Cost for two": "\u20b9400"}, {"Name": "Curzon - The Royal Bar", "Rating": "3.1", "votes": "7", "location": " 19, Ansari Road, Ring Road, MGM Club, Daryaganj, New Delhi", "Cuisines: ": "Finger Food", "hours": "11am\u201311pm(Mon-Sun)", "Cost for two": "\u20b91,200"}, {"Name": "The Rolls Factory", "Rating": "3.5", "votes": "54", "location": " Shop 12, Apsara Arcade, Karol Bagh Metro Station, Pusa Road, Karol Bagh, New Delhi", "Cuisines: ": "Mughlai, Rolls, Chinese", "hours": "11am\u201311pm(Mon-Sun)", "Cost for two": "\u20b9350"}, {"Name": "Chopsticks", "Rating": "-", "votes": "54", "location": " 6A Block, Channa Market, WEA, Karol Bagh, New Delhi", "Cuisines: ": "Chinese, Rolls", "hours": "9am\u201312midnight(Mon-Sun)", "Cost for two": "\u20b9500"}, {"Name": "White House Corner", "Rating": "3.1", "votes": "8", "location": " Shop 2331, Main Ajmal Khan Road, Opposite Gaffar Market, Karol Bagh, New Delhi", "Cuisines: ": "Beverages, Fast Food, Sandwich", "hours": "10am\u20139:30pm(Mon-Sun)", "Cost for two": "\u20b9200"}, {"Name": "Jain Pavitra Chach Bhandar", "Rating": "-", "votes": "8", "location": " 3019/1, Masjid Khajoor, Dharampura, Chandni Chowk, New Delhi", "Cuisines: ": "Sandwich", "hours": "8:15am\u20132:30pm(Mon-Sun)", "Cost for two": "\u20b9100"}, {"Name": "Pandit Dhaba", "Rating": "-", "votes": "8", "location": " 86/87, Ground Floor, Near Filmistan Studio, Model Basti, Karol Bagh, New Delhi", "Cuisines: ": "North Indian", "hours": "12noon\u20134pm,7pm\u201310:30pm(Mon-Sun)", "Cost for two": "\u20b9250"}, {"Name": "Chatkara", "Rating": "NEW", "votes": "8", "location": " Shop 3842, Main Road, Mori Gate, Kashmiri Gate, New Delhi", "Cuisines: ": "Fast Food, Beverages", "hours": "11am\u20138pm(Mon-Sat),Closed(Sun)", "Cost for two": "\u20b9150"}, {"Name": "Veer Di Hatti", "Rating": "-", "votes": "8", "location": " Shop 9039, East Park Road, Near Filmistan, Karol Bagh, New Delhi", "Cuisines: ": "Street Food", "hours": "8am\u20132pm(Mon-Sun)", "Cost for two": "\u20b9100"}]