[{"Name": "Its Pizza Town", "Rating": "3.5", "votes": "23", "location": " WZ-30, Shop 4, Som Bazaar, Shiv Nagar, Near Tilak Nagar, New Delhi", "Cuisines: ": "Pizza, Fast Food", "hours": "11am\u201311pm(Mon-Sun)", "Cost for two": "\u20b9350"}, {"Name": "Kings Of Punjab", "Rating": "3.3", "votes": "39", "location": " B-38, Gali 15, Madhu Vihar, IP Extension, New Delhi", "Cuisines: ": "North Indian, Chinese", "hours": "11am\u201311:30pm(Mon-Sun)", "Cost for two": "\u20b9200"}, {"Name": "Momo India", "Rating": "4.2", "votes": "33", "location": " Ground Floor, Suncity Business Tower, Sector 54, Gurgaon", "Cuisines: ": "Momos, Fast Food", "hours": "11am\u20134am(Mon-Sun)", "Cost for two": "\u20b9300"}, {"Name": "Al-Kabeer Chicken Point", "Rating": "3.3", "votes": "13", "location": " B 177, JJ Colony, Hastsal Road, Uttam Nagar, New Delhi", "Cuisines: ": "North Indian", "hours": "9am\u20133am(Mon-Sun)", "Cost for two": "\u20b9400"}, {"Name": "Genesis Kitchen Family Restaurant", "Rating": "NEW", "votes": "13", "location": " Shop 2, A-6, Himgiri Enclave, Chander Vihar, Nilothi Extension, Nangloi, New Delhi", "Cuisines: ": "Chinese, Mughlai", "hours": "11am\u201311pm(Mon-Sun)", "Cost for two": "\u20b9250"}, {"Name": "Salim's Mughlai", "Rating": "3.6", "votes": "89", "location": " Near Petrol Pump, Sector 23, Raj Nagar, Ghaziabad", "Cuisines: ": "Mughlai, North Indian", "hours": "11am\u201311pm(Mon-Sun)", "Cost for two": "\u20b9400"}, {"Name": "Mingle's Hub", "Rating": "3.6", "votes": "31", "location": " 137, Killa 14/2, A1 Bengali Colony, Sant Nagar, Burari, Near Azadpur, New Delhi", "Cuisines: ": "Pizza, Fast Food", "hours": "10am\u201311pm(Mon-Sun)", "Cost for two": "\u20b9500"}, {"Name": "3B's -  Country Inn & Suites", "Rating": "4.0", "votes": "289", "location": " Country Inn & Suites by Carlson, Sahibabad, Ghaziabad", "Cuisines: ": "Continental, Chinese, North Indian", "hours": "7pm\u201311:30pm(Mon-Sun)", "Cost for two": "\u20b92,800"}, {"Name": "Pasandah.In", "Rating": "4.2", "votes": "286", "location": " H152, Ground Floor, Sushant Shopping Arcade, Sushant Lok, Gurgaon", "Cuisines: ": "North Indian, Mughlai", "hours": "12noon\u20133am(Mon-Sun)", "Cost for two": "\u20b9500"}, {"Name": "Defence Bakery", "Rating": "3.9", "votes": "252", "location": " 30, C Block Market, Sector 41, Noida", "Cuisines: ": "Bakery, Fast Food", "hours": "10:30am\u20139pm(Mon-Sun)", "Cost for two": "\u20b9150"}, {"Name": "Pratha King", "Rating": "3.6", "votes": "30", "location": " F-354, Gautam Buddh Nagar, Alpha 2, Greater Noida", "Cuisines: ": "North Indian, Rolls, Beverages", "hours": "12:48am\u201311:48am(Mon),12midnight\u201312:30am...", "Cost for two": "\u20b9300"}, {"Name": "Sanjay Sweets", "Rating": "3.6", "votes": "61", "location": " 5K/102, Near 4-5 Chowk, NIT, Faridabad", "Cuisines: ": "Mithai, Street Food", "hours": "11am\u201311pm(Mon-Sun)", "Cost for two": "\u20b9300"}, {"Name": "Midas Delicacies Cafe", "Rating": "4.1", "votes": "25", "location": " Shop DG 30, Rodeo Drive, Arcadia 2, Sector 49, Gurgaon", "Cuisines: ": "Italian, Desserts, Beverages", "hours": "11am\u201311pm(Mon-Sun)", "Cost for two": "\u20b9500"}, {"Name": "Mad 4 Bar B Que", "Rating": "4.1", "votes": "1088", "location": " DSS 8, HUDA Market, Sector 29, Faridabad", "Cuisines: ": "Mughlai, North Indian, Chinese", "hours": "11am\u201311pm(Mon-Sun)", "Cost for two": "\u20b9700"}, {"Name": "Barsoom Frat House", "Rating": "3.6", "votes": "306", "location": " 26, 3rd Floor, Hauz Khas Village, New Delhi", "Cuisines: ": "Finger Food, Chinese, North Indian", "hours": "12noon\u20131am(Mon-Sun)", "Cost for two": "\u20b91,400"}]