[{"Name": "Shadab Chicken Biryani", "Rating": "3.1", "votes": "5", "location": " Opposite Pillar 729, Uttam Nagar, New Delhi", "Cuisines: ": "Mughlai, Biryani", "hours": "11am\u201311pm(Mon-Sun)", "Cost for two": "\u20b9300"}, {"Name": "The Rolls Chapter", "Rating": "3.8", "votes": "20", "location": " Block B, Amritpuri, East of Kailash, New Delhi", "Cuisines: ": "Rolls", "hours": "11am\u201312midnight(Mon,Tue,Thu,Fri,Sat,Sun)...", "Cost for two": "\u20b9400"}, {"Name": "Mosaic - Country Inn By Carlson", "Rating": "3.6", "votes": "46", "location": " Country Inn By Carlson, A-1, DLF South Court, District Center, Saket, New Delhi", "Cuisines: ": "Continental, North Indian", "hours": "11am\u201311pm(Mon-Sun)", "Cost for two": "\u20b92,500"}, {"Name": "Shama Chicken Biryani Corner", "Rating": "NEW", "votes": "46", "location": " I.T.S Appartment, Masjid Wali Gali, Raipur, Sector 126, Near Sector 127, Noida", "Cuisines: ": "Biryani, Mughlai", "hours": "9:50am\u201311pm(Mon),10:50am\u201310:57am,11am\u2013...", "Cost for two": "\u20b9400"}, {"Name": "Say Cheese", "Rating": "3.4", "votes": "194", "location": " 9, Community Centre, Near Green Park Metro Station, Yusuf Sarai, New Delhi", "Cuisines: ": "Fast Food, Beverages", "hours": "9am\u201310pm(Mon-Fri),8:30am\u201310pm(Sat),9:05am...", "Cost for two": "\u20b9450"}, {"Name": "Spidos Didos", "Rating": "NEW", "votes": "194", "location": " JA-6B, Hari Enclave, Hari Nagar, Jail Road, New Delhi", "Cuisines: ": "Fast Food", "hours": "1pm\u201311pm(Mon-Sun)", "Cost for two": "\u20b9250"}, {"Name": "Hang Out", "Rating": "3.5", "votes": "31", "location": " 3rd Floor, Select Citywalk Mall, Saket, New Delhi", "Cuisines: ": "Fast Food", "hours": "11am\u201310pm(Mon-Sun)", "Cost for two": "\u20b91,000"}, {"Name": "Dosama", "Rating": "3.6", "votes": "51", "location": " Plot 113, Lower Ground Floor & Ground Floor, Sikanderpur Ghosi, MG Road, Gurgaon", "Cuisines: ": "South Indian, Chettinad, Kerala, Biryani, Seafood", "hours": "8:30am\u20132am(Mon-Sun)", "Cost for two": "\u20b9600"}, {"Name": "Paratha And Roll Expert", "Rating": "NEW", "votes": "51", "location": " Plot 23, Near Chaupal, Mayur Vihar Phase 1, New Delhi", "Cuisines: ": "North Indian, Chinese", "hours": "7am\u20134am(Mon-Sun)", "Cost for two": "\u20b9200"}, {"Name": "Italy Ka Swad", "Rating": "3.1", "votes": "8", "location": " Shop 8, Opposite BH 93, Sector 70, Near Sector 71, Noida", "Cuisines: ": "Pizza, Italian", "hours": "11am\u201311pm(Mon-Sun)", "Cost for two": "\u20b9300"}, {"Name": "Rockford Kitchen", "Rating": "3.4", "votes": "21", "location": " 49 C, Ground Floor, Arjun Nagar Safdarjung, New Delhi", "Cuisines: ": "North Indian, Chinese", "hours": "11am\u201311pm(Mon-Sun)", "Cost for two": "\u20b9400"}, {"Name": "Shama Chicken Corner", "Rating": "3.4", "votes": "29", "location": " A-2/188, Sector 17, Rohini, New Delhi", "Cuisines: ": "Biryani, Mughlai", "hours": "11am\u201311pm(Mon-Sun)", "Cost for two": "\u20b9400"}, {"Name": "Modern Zaika", "Rating": "3.2", "votes": "99", "location": " Shop KH 2 & 3, Opposite Pillar 684, Prem Nagar, Uttam Nagar, New Delhi", "Cuisines: ": "North Indian, Chinese", "hours": "12noon\u201310:30pm(Mon-Sun)", "Cost for two": "\u20b9550"}, {"Name": "Joshi Dhaba", "Rating": "3.7", "votes": "30", "location": " Shop 68, New Sabzi Mandi, Opposite Police Chowki, Sector 16, Faridabad", "Cuisines: ": "North Indian", "hours": "8am\u20134pm,7pm\u201311pm(Mon-Sun)", "Cost for two": "\u20b9300"}, {"Name": "Touch of Spice", "Rating": "3.8", "votes": "133", "location": " 6 & 7, CSC Complex, DDA Market, Mount Kailash, East of Kailash, New Delhi", "Cuisines: ": "North Indian, Mughlai", "hours": "11am\u20133pm,6pm\u201311pm(Mon-Sun)", "Cost for two": "\u20b91,000"}]