[{"Name": "Sunrise Bakers", "Rating": "3.6", "votes": "15", "location": " B 6/120, Sector 8, Rohini, New Delhi", "Cuisines: ": "Bakery, Desserts, Beverages", "hours": "11am\u201311pm(Mon-Sun)", "Cost for two": "\u20b9400"}, {"Name": "Yum Yum", "Rating": "3.6", "votes": "160", "location": " Near Kashmiri Market, Opposite Community Center, Malviya Nagar, New Delhi", "Cuisines: ": "Chinese, Fast Food", "hours": "1pm\u201311pm(Mon-Sun)", "Cost for two": "\u20b9400"}, {"Name": "Dhaara Cafe", "Rating": "3.3", "votes": "10", "location": " 428, SF-2, Shakti Khand 1, Indirapuram, Ghaziabad", "Cuisines: ": "Fast Food, Beverages, Sandwich", "hours": "10:30am\u20132am(Mon-Sun)", "Cost for two": "\u20b9350"}, {"Name": "Taste of Evergreen", "Rating": "3.8", "votes": "55", "location": " Shop 1 & 2, Amrit Plaza, Near Yatharth Hospital, Bisrakh Thana Road, Amrapali Leisure Valley, Greater Noida", "Cuisines: ": "North Indian, Mughlai, Chinese, South Indian", "hours": "12noon\u20131am(Mon-Sun)", "Cost for two": "\u20b9600"}, {"Name": "Khan's Kathi Rolls", "Rating": "4.0", "votes": "282", "location": " Amritpuram Market, Jagat Farms, Gamma 1, Greater Noida", "Cuisines: ": "Rolls, Hyderabadi, Chinese", "hours": "11:30am\u201310:30pm(Mon-Sun)", "Cost for two": "\u20b9300"}, {"Name": "Burger BC", "Rating": "3.5", "votes": "28", "location": " G48, A2B Vardhman, Janak Market, Janakpuri, New Delhi", "Cuisines: ": "Burger, Fast Food", "hours": "10am\u20131am(Mon-Sun)", "Cost for two": "\u20b9300"}, {"Name": "The 56th Street", "Rating": "3.9", "votes": "249", "location": " 4, District Shopping Center, Sector 56, Gurgaon", "Cuisines: ": "North Indian, Rolls", "hours": "12noon\u201311pm(Mon,Wed,Thu,Fri,Sat,Sun)...", "Cost for two": "\u20b9600"}, {"Name": "Sahni Chicken Corner", "Rating": "3.7", "votes": "102", "location": " B/2-A, Saheed Major Rajeev Lal Marg, Near Red Light, Jail Road, New Delhi", "Cuisines: ": "North Indian", "hours": "10am\u201311pm(Mon,Wed,Thu,Fri,Sat,Sun),Closed...", "Cost for two": "\u20b9500"}, {"Name": "PizzBurg Cafe", "Rating": "3.3", "votes": "30", "location": " Shop 1, Near Government Boys Senior Secondary School, Aaya Nagar, New Delhi", "Cuisines: ": "Fast Food, Beverages", "hours": "11am\u201310pm(Mon-Sun)", "Cost for two": "\u20b9200"}, {"Name": "Truckafe", "Rating": "3.8", "votes": "36", "location": " Shop 6, Subhash Nagar Main Market, Near Ramlila Ground, Subhash Nagar, New Delhi", "Cuisines: ": "Fast Food, Burger", "hours": "5:30pm\u201311:30pm(Mon,Tue,Wed,Thu,Fri,Sun)...", "Cost for two": "\u20b9200"}, {"Name": "Snapp 9", "Rating": "3.6", "votes": "106", "location": " Shop 1A, Paras Seasons, Sector 135, Near Sector 168, Noida", "Cuisines: ": "North Indian, Chinese", "hours": "11am\u201311pm(Mon-Sun)", "Cost for two": "\u20b9500"}, {"Name": "RK Italian Foods", "Rating": "NEW", "votes": "106", "location": " Shop 49, Huda Market, Sector 28, Faridabad", "Cuisines: ": "Fast Food", "hours": "3pm\u201311pm(Mon-Sun)", "Cost for two": "\u20b9250"}, {"Name": "Home Style Chicken Curry", "Rating": "3.4", "votes": "13", "location": " South City 1, Gurgaon", "Cuisines: ": "North Indian", "hours": "12noon\u201310pm(Mon-Sun)", "Cost for two": "\u20b9400"}, {"Name": "AM Restaurant", "Rating": "3.1", "votes": "7", "location": " D 141, 2nd Floor, Sector 7, Noida", "Cuisines: ": "North Indian, Chinese, Rolls", "hours": "12midnight\u20134am,10am\u201312midnight(Mon-Sun)", "Cost for two": "\u20b9500"}, {"Name": "The Pind Parantha", "Rating": "3.6", "votes": "44", "location": " C-121, Floor 5, Phase 2, Chhatarpur, New Delhi", "Cuisines: ": "North Indian", "hours": "7am\u20139pm(Mon-Sun)", "Cost for two": "\u20b9200"}]