[{"Name": "Champaran", "Rating": "3.3", "votes": "14", "location": " 47, Kasana, DRB Plaza, Sapna Market, Sector 37, Faridabad", "Cuisines: ": "Bihari", "hours": "11am\u201311pm(Mon-Sun)", "Cost for two": "\u20b9500"}, {"Name": "Craving Express", "Rating": "3.2", "votes": "8", "location": " A 94, Shop 4, East of Kailash, New Delhi", "Cuisines: ": "North Indian", "hours": "8am\u201311:30pm(Mon-Sun)", "Cost for two": "\u20b9400"}, {"Name": "Suchali's Artisan Bake House", "Rating": "3.9", "votes": "124", "location": " Cyber Hub, DLF Cyber City, Gurgaon", "Cuisines: ": "Bakery, Desserts", "hours": "9am\u201310pm(Mon-Sun)", "Cost for two": "\u20b9350"}, {"Name": "Shri Ram Chole Bhature", "Rating": "3.7", "votes": "45", "location": " Shop 107, Sector 24, Pocket 26, Near Gate 3, Rohini, New Delhi", "Cuisines: ": "North Indian", "hours": "10am\u20135pm(Mon-Sun)", "Cost for two": "\u20b9150"}, {"Name": "Typsy Crow", "Rating": "3.8", "votes": "856", "location": " C 8, 2nd Floor, SDA Market, SDA, New Delhi", "Cuisines: ": "North Indian, Italian, Continental", "hours": "12noon\u201312:30am(Mon-Sun)", "Cost for two": "\u20b91,000"}, {"Name": "Sugar Loft", "Rating": "3.8", "votes": "50", "location": " Delivery Only", "Cuisines: ": "Bakery, Desserts", "hours": "9am\u201310pm(Mon-Sun)", "Cost for two": "\u20b9500"}, {"Name": "Rama Vaishnav Bhojnalaya", "Rating": "3.6", "votes": "180", "location": " Shop 140, Main Market, Near Satya Palace, Sector 7, Faridabad", "Cuisines: ": "North Indian", "hours": "7am\u20134pm,6pm\u201311pm(Mon-Sun)", "Cost for two": "\u20b9250"}, {"Name": "Vijay Pizza King & Fast Food", "Rating": "3.1", "votes": "7", "location": " B 3, House 17, Sector 18, Rohini, New Delhi", "Cuisines: ": "Pizza", "hours": "4pm\u201310pm(Mon-Sun)", "Cost for two": "\u20b9400"}, {"Name": "Speedy Eats", "Rating": "-", "votes": "7", "location": " F-5, First Floor, PKT, B-2, Mayur Vihar Phase 3, New Delhi", "Cuisines: ": "Chinese, Fast Food", "hours": "11am\u201311pm(Mon-Sun)", "Cost for two": "\u20b9250"}, {"Name": "Sanjhi Rasoi", "Rating": "3.4", "votes": "32", "location": " Shop 23, Choudhary Harphool Singh Market, Palam Dabri Marg, Mahavir Enclave Part 1, Palam, New Delhi", "Cuisines: ": "North Indian, Momos, Chinese", "hours": "12noon\u20134pm,6pm\u201311pm(Mon-Sun)", "Cost for two": "\u20b9400"}, {"Name": "Shree Balaji Vaishno Dhaba", "Rating": "3.5", "votes": "35", "location": " Shop 50/51, Chandrawan Road Near Apollo Medicine Ghanta Ghar, Kamla Nagar, New Delhi", "Cuisines: ": "North Indian", "hours": "11am\u20134pm,5pm\u20133am(Mon-Sun)", "Cost for two": "\u20b9250"}, {"Name": "Biryani Khansama", "Rating": "3.7", "votes": "82", "location": " Plot 167, Sanjay Gram, Near Kataria Chock, Sector 14, Gurgaon", "Cuisines: ": "Biryani, Mughlai", "hours": "10am\u20132am(Mon-Sun)", "Cost for two": "\u20b9400"}, {"Name": "Gym Nutrition", "Rating": "3.5", "votes": "27", "location": " 66/1, Majid Modh, Near Radha Krisna Mandir, South Extension 2, New Delhi", "Cuisines: ": "Healthy Food", "hours": "8am\u201311pm(Mon-Sun)", "Cost for two": "\u20b9200"}, {"Name": "Punjab E Tadka", "Rating": "3.5", "votes": "46", "location": " 5G/38, Market Road, NIT 5, Faridabad", "Cuisines: ": "North Indian, Mughlai", "hours": "11am\u201311:30pm(Mon,Wed,Thu,Fri,Sat,Sun)...", "Cost for two": "\u20b9500"}, {"Name": "Lahori Gate", "Rating": "3.7", "votes": "211", "location": " Shop 4 & 5, Time Center Building, Near Suncity, Sector 54, Gurgaon", "Cuisines: ": "Mughlai, North Indian", "hours": "12noon\u201311:30pm(Mon-Sun)", "Cost for two": "\u20b92,100"}]