[{"Name": "Banana Leaves", "Rating": "3.4", "votes": "161", "location": " G 18, Vardhman Sunrise Plaza, Vasundhara Enclave, New Delhi", "Cuisines: ": "South Indian", "hours": "10am\u201310pm(Mon-Sun)", "Cost for two": "\u20b9250"}, {"Name": "Amar Bakery", "Rating": "3.4", "votes": "15", "location": " Shop 11, Plot 11, Rameshwar Tower, Sector 4, Vaishali, Ghaziabad", "Cuisines: ": "Bakery, Fast Food, Street Food", "hours": "8am\u201311pm(Mon-Sun)", "Cost for two": "\u20b9300"}, {"Name": "The Food Gallery", "Rating": "3.5", "votes": "38", "location": " G-50, School Road, Near Post Office, Uttam Nagar, Delhi", "Cuisines: ": "Chinese, Momos", "hours": "11:30am\u201310:30pm(Mon-Sun)", "Cost for two": "\u20b9300"}, {"Name": "Amigo's Deli", "Rating": "3.8", "votes": "93", "location": " B-11, East Arjun Nagar, Near Hedgewar Hospital, Karkardooma, New Delhi", "Cuisines: ": "Fast Food", "hours": "11am\u201311pm(Mon-Sun)", "Cost for two": "\u20b9350"}, {"Name": "Shiv Shakti Bakery", "Rating": "3.2", "votes": "7", "location": " Shop 3, 3/912, G. I. Vasundhara, Nagar Nigam, Zone 5, Vaishali, Ghaziabad", "Cuisines: ": "Bakery, Fast Food", "hours": "11am\u201310:30pm(Mon-Tue),10am\u201310:30pm(Wed-Sun)", "Cost for two": "\u20b9200"}, {"Name": "Green Bhojanalya", "Rating": "3.5", "votes": "548", "location": " WZ 62F/3, Block C, Possangi Pur Market, Near A 4, Janakpuri, New Delhi", "Cuisines: ": "North Indian, Chinese", "hours": "24Hours(Mon-Sun)", "Cost for two": "\u20b9400"}, {"Name": "King of Food", "Rating": "3.9", "votes": "94", "location": " M-67, Near More Super Market, Police Booth, Malviya Nagar, New Delhi", "Cuisines: ": "Mughlai, North Indian, Chinese", "hours": "11am\u20134am(Mon-Sun)", "Cost for two": "\u20b9400"}, {"Name": "Shakeef Food", "Rating": "3.6", "votes": "51", "location": " Shop 14, Ground Floor, B Block, Nirvana Courtyard, Nirvana Country, Sector 50, Gurgaon", "Cuisines: ": "North Indian, Mughlai", "hours": "11am\u201311pm(Mon-Sun)", "Cost for two": "\u20b9500"}, {"Name": "Sai Chinese Fast Food", "Rating": "3.7", "votes": "65", "location": " Shop 167, HUDA Market, Sector 21 C, Near Sector 21, Faridabad", "Cuisines: ": "Fast Food, Momos", "hours": "11am\u201310pm(Mon-Sun)", "Cost for two": "\u20b9200"}, {"Name": "Asian Wok Art", "Rating": "4.0", "votes": "127", "location": " 136/13, 1st Floor, Begumpur Village, Opposite Sunil Hospital, Shivalik Road, Malviya Nagar", "Cuisines: ": "Chinese, Japanese, Thai, Asian, Sushi, Healthy Food", "hours": "8pm\u20136am(Mon-Sun)", "Cost for two": "\u20b9850"}, {"Name": "Prikshit Street Food", "Rating": "3.4", "votes": "19", "location": " Parkash Building, Road 4, Gali 7, Mahipalpur, New Delhi", "Cuisines: ": "North Indian", "hours": "9am\u201311:30pm(Mon-Sun)", "Cost for two": "\u20b9400"}, {"Name": "Namak Shamak", "Rating": "3.3", "votes": "15", "location": " Delivery Only", "Cuisines: ": "North Indian", "hours": "12noon\u201312midnight(Mon-Sun)", "Cost for two": "\u20b9300"}, {"Name": "Thee Pot", "Rating": "3.9", "votes": "258", "location": " Shop 17, Godavari Market, Sector 37, Noida", "Cuisines: ": "Cafe", "hours": "7am\u201312midnight(Mon-Sun)", "Cost for two": "\u20b9400"}, {"Name": "Pizza House", "Rating": "3.5", "votes": "161", "location": " Shop 9, Main Jaitpur Road, Molarband Extension, Badarpur Border, Faridabad", "Cuisines: ": "Pizza, Fast Food", "hours": "10:30am\u201310:30pm(Mon-Sun)", "Cost for two": "\u20b9600"}, {"Name": "Chaska Non Stop", "Rating": "3.5", "votes": "22", "location": " Shop 1 & 2, Ground Floor, 664/8, Govindpuri, Kalkaji, New Delhi", "Cuisines: ": "North Indian, Chinese", "hours": "12:30pm\u201311pm(Mon-Sat),5pm\u201311pm(Sun)", "Cost for two": "\u20b9400"}]