[{"Name": "JIANG Pure Veg", "Rating": "NEW", "location": " Khasra 328/1, Ground Floor, Shivalaya Road, Chhattarpur Village, Chhatarpur, New Delhi", "Cuisines: ": "Chinese", "hours": "12noon\u20134pm,7pm\u201311pm(Mon-Sun)", "Cost for two": "\u20b9450"}, {"Name": "24 Seven Food Corner", "Rating": "-", "location": " A 64, 1st Floor, Chanakya Place, 40 Foot Road, Janakpuri, New Delhi", "Cuisines: ": "North Indian, Chinese", "hours": "11am\u20137am(Mon-Sun)", "Cost for two": "\u20b9300"}, {"Name": "Khopcha 56", "Rating": "3.7", "location": " CG 56, Unitech Arcadia, Sector 50, Gurgaon", "Cuisines: ": "North Indian, Chinese, Mughlai", "hours": "12noon\u201311:30pm(Mon-Sun)", "Cost for two": "\u20b9350", "votes": "299"}, {"Name": "Spefix Continental", "Rating": "4.1", "location": " 153, Double Story, Kalkaji, New Delhi", "Cuisines: ": "Italian", "hours": "11am\u201311pm(Mon-Sun)", "Cost for two": "\u20b9500", "votes": "59"}, {"Name": "Kolkata Kathi Roll", "Rating": "3.5", "location": " Shop 6, Nehru Nagar, Main Market, Lajpat Nagar 2, New Delhi", "Cuisines: ": "Rolls", "hours": "1pm\u201310:30pm(Mon-Sun)", "Cost for two": "\u20b9250", "votes": "30"}, {"Name": "Chef Joint", "Rating": "3.7", "location": " Shop 1/17, Near DAV School, Jangpura Extension, Jangpura, New Delhi", "Cuisines: ": "North Indian, Chinese, Momos", "hours": "12noon\u201311pm(Mon-Sun)", "Cost for two": "\u20b9500", "votes": "260"}, {"Name": "Dosa Wala", "Rating": "3.7", "location": " A5, Shiv Shankar Market, Madangir, Khanpur, New Delhi", "Cuisines: ": "South Indian, Fast Food", "hours": "9:30am\u201310:30pm(Mon-Sun)", "Cost for two": "\u20b9250", "votes": "79"}, {"Name": "Joy Of China", "Rating": "4.0", "location": " Shop 3, 1010/121, Ground Floor, Chauhan Mohalla, Madanpur Khadar, Sarita Vihar, New Delhi", "Cuisines: ": "Chinese", "hours": "11:30am\u20134pm,6pm\u201312midnight(Mon-Sun)", "Cost for two": "\u20b9500", "votes": "38"}, {"Name": "New Lazeez", "Rating": "3.1", "location": " A1/325, Near Ayodhya Chowk, Sector 6, Rohini, New Delhi", "Cuisines: ": "North Indian", "hours": "1pm\u20133pm,6pm\u201311pm(Mon,Wed,Thu,Fri,Sat...", "Cost for two": "\u20b9500", "votes": "5"}, {"Name": "The Taste Of Handi", "Rating": "3.8", "location": " Amarapali Princely, Sector 76, Near Sector 72, Noida", "Cuisines: ": "North Indian", "hours": "12:30pm\u201311pm(Mon-Sun)", "Cost for two": "\u20b9300", "votes": "116"}, {"Name": "La Mensa -The Cook House", "Rating": "-", "location": " A-8/53, Near Rockfield School, Sector 16, Rohini, New Delhi", "Cuisines: ": "Italian, Chinese, Continental", "hours": "11am\u201310pm(Mon-Sun)", "Cost for two": "\u20b9200", "votes": "116"}, {"Name": "Mukesh Paratha House", "Rating": "3.2", "location": " Shop S-506, School Block, Opposite Manokamna Mata Mandir, Shakarpur, New Delhi", "Cuisines: ": "North Indian", "hours": "8am\u201311pm(Mon-Sun)", "Cost for two": "\u20b9150", "votes": "7"}, {"Name": "A\u2019s Boho Cafe", "Rating": "3.8", "location": " Shop G2, Plot 13, Neelkanth Chamber 3, LSC, Savita Vihar Market, Anand Vihar, New Delhi", "Cuisines: ": "Cafe, Italian", "hours": "11:30am\u20139pm(Mon-Sun)", "Cost for two": "\u20b9500", "votes": "58"}, {"Name": "Punjabiyan Da Tashan", "Rating": "3.5", "location": " D-58, Arya Samaj Road, Uttam Nagar, New Delhi", "Cuisines: ": "North Indian", "hours": "12noon\u201312midnight(Mon-Sun)", "Cost for two": "\u20b9350", "votes": "18"}, {"Name": "Tasty Hut", "Rating": "3.5", "location": " Near Rama Hospital, Sector 141, Shadhra, Gautam Budh Nagar, Near Sector 132, Noida", "Cuisines: ": "North Indian, Chinese", "hours": "11am\u201312midnight(Mon-Sun)", "Cost for two": "\u20b9700", "votes": "25"}]