[{"Name": "Jack & Jerry", "Rating": "3.6", "votes": "51", "location": " Delivery Only", "Cuisines: ": "Pizza, Fast Food", "hours": "11am\u201311pm(Mon-Sun)", "Cost for two": "\u20b9500"}, {"Name": "Punjabistan", "Rating": "3.2", "votes": "7", "location": " SE 111, Sunrise Jaipuria, Ahinsa Khand-1, Indirapuram, Ghaziabad", "Cuisines: ": "North Indian", "hours": "8am\u20138pm(Mon-Sun)", "Cost for two": "\u20b9300"}, {"Name": "Jalebi Junction", "Rating": "NEW", "votes": "7", "location": " Delivery Only", "Cuisines: ": "North Indian", "hours": "24Hours(Mon-Sun)", "Cost for two": "\u20b9250"}, {"Name": "Punjabi Tadka", "Rating": "3.1", "votes": "41", "location": " Baisoya market sector 35 noida", "Cuisines: ": "North Indian, Chinese", "hours": "11am\u20133pm,7pm\u20131am(Mon-Sun)", "Cost for two": "\u20b9450"}, {"Name": "Onkar Cafe", "Rating": "-", "votes": "41", "location": " A-10/34, Sector 18, Rohini, New Delhi", "Cuisines: ": "Fast Food, North Indian", "hours": "8am\u201310:30pm(Mon-Sun)", "Cost for two": "\u20b9150"}, {"Name": "Kitchen King", "Rating": "3.4", "votes": "269", "location": " Shop 8, Sector 9 Market, R K Puram, New Delhi", "Cuisines: ": "North Indian, Chinese, Fast Food", "hours": "11am\u201311pm(Mon-Sun)", "Cost for two": "\u20b9500"}, {"Name": "Makoto Japanese Kitchen", "Rating": "3.2", "votes": "5", "location": " Shop 7, Ground Floor, Local Shopping Centre, DDA Market, Anand Niketan, New Delhi", "Cuisines: ": "Japanese", "hours": "11am\u20138:30pm(Mon-Sat),Closed(Sun)", "Cost for two": "\u20b9600"}, {"Name": "Toniq Dry Bar & Kitchen", "Rating": "4.2", "votes": "184", "location": " C 14, SDA Market, Block C 5, Hauz Khas Enclave, Hauz Khas, New Delhi", "Cuisines: ": "Cafe, Italian", "hours": "11am\u201311:30pm(Mon-Sun)", "Cost for two": "\u20b9600"}, {"Name": "Yummy Rasoi", "Rating": "3.5", "votes": "150", "location": " Block S 2, Chatan Jain Marg, School Block, Shakarpur, New Delhi", "Cuisines: ": "North Indian", "hours": "11am\u20134pm,7pm\u201311pm(Mon-Sun)", "Cost for two": "\u20b9350"}, {"Name": "Cold Stone Creamery", "Rating": "3.9", "votes": "133", "location": " Upper Ground Floor-C, Building 10C, Cyber Hub, DLF Cyber City, Gurgaon", "Cuisines: ": "Ice Cream, Desserts, Beverages", "hours": "11am\u201312midnight(Mon-Sun)", "Cost for two": "\u20b9550"}, {"Name": "Ghar Jaisa Khana", "Rating": "3.3", "votes": "16", "location": " 2/2, Baberpur, Prem Gali, Shahdara, New Delhi", "Cuisines: ": "North Indian", "hours": "24Hours(Mon-Sun)", "Cost for two": "\u20b9300"}, {"Name": "Pizza Point", "Rating": "3.3", "votes": "12", "location": " Gali 4, East Rohtash Nagar, Shahdara, New Delhi", "Cuisines: ": "Pizza, Fast Food", "hours": "12:30pm\u201311pm(Mon-Sun)", "Cost for two": "\u20b9300"}, {"Name": "New Street Hawkers", "Rating": "3.6", "votes": "317", "location": " A-55, Rishi Nagar, Furniture Market, Rani Bagh, Pitampura, New Delhi", "Cuisines: ": "North Indian, Chinese, Momos, Fast Food, Beverages", "hours": "12noon\u201311pm(Mon-Sun)", "Cost for two": "\u20b9600"}, {"Name": "Al Forno by Aishwarya", "Rating": "3.6", "votes": "35", "location": " Gulmohar Park, Hauz Khas, New Delhi", "Cuisines: ": "Bakery, Desserts", "hours": "11am\u20139pm(Mon-Sun)", "Cost for two": "\u20b9600"}, {"Name": "Birbal ki Biryani", "Rating": "3.5", "votes": "23", "location": " 316 A, Pocket C, Mayur Vihar Phase 2, New Delhi", "Cuisines: ": "Biryani, Beverages", "hours": "12noon\u201310pm(Mon-Sun)", "Cost for two": "\u20b9300"}]