[{"Name": "Fit Food Factory", "Rating": "3.7", "votes": "220", "location": " Sheetla Colony, B Block, Gali 5, Near Global Hospital, Sector 5, Gurgaon", "Cuisines: ": "Healthy Food, Fast Food", "hours": "11am\u201311pm(Mon-Sun)", "Cost for two": "\u20b9300"}, {"Name": "Desi Kitchens", "Rating": "3.8", "votes": "367", "location": " C-391, 1st Floor, Palam Extension, Sector 7, Dwarka, New Delhi", "Cuisines: ": "Street Food, North Indian, South Indian", "hours": "9am\u201310:30pm(Mon-Sun)", "Cost for two": "\u20b9300"}, {"Name": "Hungry Horse", "Rating": "-", "votes": "367", "location": " A 109, Chanakya Place, 25 Feet Road, Uttam Nagar, New Delhi", "Cuisines: ": "North Indian", "hours": "5pm\u201311pm(Mon-Sun)", "Cost for two": "\u20b9450"}, {"Name": "TDB - The Dessert Bar", "Rating": "3.8", "votes": "107", "location": " 80, 1st Floor, August Kranti Marg, Anand Lok, New Delhi", "Cuisines: ": "Bakery, Desserts", "hours": "11am\u20138pm(Mon,Tue,Wed,Thu,Sat,Sun),11am...", "Cost for two": "\u20b9400"}, {"Name": "New Chinese Hut", "Rating": "2.4", "votes": "250", "location": " A-259, Majlis Park, Near Sargam Electronics, Adarsh Nagar, Azadpur, New Delhi", "Cuisines: ": "Chinese", "hours": "12noon\u201311pm(Mon-Sun)", "Cost for two": "\u20b9300"}, {"Name": "Grub House", "Rating": "-", "votes": "250", "location": " 202, Pocket 4, Sector 25, Rohini, New Delhi", "Cuisines: ": "North Indian", "hours": "10am\u20139pm(Mon-Sun)", "Cost for two": "\u20b9300"}, {"Name": "Chiggy Food Point", "Rating": "3.1", "votes": "8", "location": " House 300, Ground Floor, Housing Board, Sector 42 Gurugram, Golf Course Road, Gurgaon", "Cuisines: ": "North Indian", "hours": "8am\u201311pm(Mon-Sun)", "Cost for two": "\u20b9300"}, {"Name": "Hotel Tamil Nadu", "Rating": "2.6", "votes": "25", "location": " Dilli Haat, INA, New Delhi", "Cuisines: ": "South Indian", "hours": "12noon\u201310pm(Mon-Sun)", "Cost for two": "\u20b9350"}, {"Name": "Shama Chicken Corner", "Rating": "3.0", "votes": "5", "location": " P 40, Near Fine Home Apartment Gate 1, Pandav Nagar, Mayur Vihar Phase 1, New Delhi", "Cuisines: ": "Mughlai, Biryani", "hours": "11am\u201311pm(Mon-Sun)", "Cost for two": "\u20b9350"}, {"Name": "The Cavalry Bar - Maidens Hotel", "Rating": "3.2", "votes": "38", "location": " Maidens Hotel, 7, Shamnath Marg, Civil Lines, New Delhi", "Cuisines: ": "Finger Food", "hours": "11am\u201311:30pm(Mon-Sun)", "Cost for two": "\u20b92,000"}, {"Name": "11 to 11 Pizza Corner", "Rating": "3.2", "votes": "8", "location": " F 23, Sewa Nagar, Near Defence Colony, New Delhi", "Cuisines: ": "Pizza", "hours": "11am\u201310pm(Mon-Sun)", "Cost for two": "\u20b9400"}, {"Name": "Mirchi Dhaba", "Rating": "3.6", "votes": "187", "location": " Plot 1088, Opposite Paras Hospital, Saraswati Kunj, Sector 53, Gurgaon", "Cuisines: ": "North Indian", "hours": "10am\u20134:30pm,7:30pm\u20132am(Mon-Sun)", "Cost for two": "\u20b9400"}, {"Name": "Chic On", "Rating": "3.6", "votes": "295", "location": " SCF 133, HUDA Market, Sector 14, Faridabad", "Cuisines: ": "North Indian, Chinese, Fast Food", "hours": "12noon\u201311pm(Mon-Sun)", "Cost for two": "\u20b9600"}, {"Name": "Balaji Verity Samose Wale", "Rating": "3.2", "votes": "6", "location": " A 1159, GD Colony, Mayur Vihar Phase 3, New Delhi", "Cuisines: ": "Street Food", "hours": "10am\u201310pm(Mon-Sun)", "Cost for two": "\u20b9100"}, {"Name": "Mon Delice", "Rating": "4.1", "votes": "198", "location": " G-87, Baani Square, Sector 50, Gurgaon", "Cuisines: ": "Bakery, Fast Food, Beverages", "hours": "9am\u201312midnight(Mon-Sun)", "Cost for two": "\u20b9600"}]