[{"Name": "Aggarwal Restaurant", "Rating": "-", "location": " H-7, Tropical Building, Connaught Place, New Delhi", "Cuisines: ": "North Indian", "hours": "11am\u201310pm(Mon-Sun)", "Cost for two": "\u20b9200"}, {"Name": "Barush", "Rating": "3.4", "location": " C 38, 1st Floor, Opposite Odeon Cinema, Connaught Place, New Delhi", "Cuisines: ": "Continental, North Indian, Bar Food", "hours": "12noon\u201312:30am(Mon-Sun)", "Cost for two": "\u20b91,200", "votes": "171"}, {"Name": "Malik Namkeen", "Rating": "-", "location": " 1, Regal Building, Connaught Place, New Delhi", "Cuisines: ": "North Indian, Street Food", "hours": "10am\u20136:30pm(Mon-Sun)", "Cost for two": "\u20b9250", "votes": "171"}, {"Name": "Saqi Bar - Hotel Alka Classic", "Rating": "3.4", "location": " Hotel Alka Classic, Outer Circle, Connaught Place, New Delhi", "Cuisines: ": "North Indian, Mughlai", "hours": "12noon\u201310pm(Mon-Sun)", "Cost for two": "\u20b91,500", "votes": "38"}, {"Name": "Malik Sweets & The Baker's Oven", "Rating": "3.6", "location": " B-1 & D-1, Regal Building, Connaught Place, New Delhi", "Cuisines: ": "Mithai, Fast Food, Street Food", "hours": "9am\u20138pm(Mon-Sun)", "Cost for two": "\u20b9250", "votes": "50"}, {"Name": "Keuchen Paradise", "Rating": "2.7", "location": " Delivery Only", "Cuisines: ": "Bakery, Desserts, Fast Food", "hours": "9am\u201310pm(Mon-Sun)", "Cost for two": "\u20b9300", "votes": "21"}, {"Name": "Tpot", "Rating": "-", "location": " Shop RCK 01, Rajiv Chowk Metro Station, Connaught Place, New Delhi", "Cuisines: ": "Cafe, Fast Food", "hours": "9am\u201310pm(Mon-Sun)", "Cost for two": "\u20b9300", "votes": "21"}, {"Name": "Firangi Bake", "Rating": "3.9", "location": " Shop 30, Gandhi Market, Minto Road, Connaught Place, New Delhi", "Cuisines: ": "Mexican, Italian", "hours": "11am\u201312midnight(Mon-Sun)", "Cost for two": "\u20b9400", "votes": "83"}, {"Name": "Fryeo", "Rating": "3.1", "location": " 57, Municipal Market, Connaught Circle, Connaught Place, New Delhi", "Cuisines: ": "Fast Food", "hours": "12noon\u201312midnight(Mon-Sun)", "Cost for two": "\u20b9250", "votes": "5"}, {"Name": "The Biryani Life", "Rating": "-", "location": " Shop 30, Gandhi Market, Minto Road, Connaught Place, New Delhi", "Cuisines: ": "Biryani, North Indian", "hours": "10am\u201312midnight(Mon-Sun)", "Cost for two": "\u20b9300", "votes": "5"}, {"Name": "Kick Back Corner", "Rating": "2.6", "location": " C 22, Opposite Odeon Cinema Hall, Connaught Place, New Delhi", "Cuisines: ": "North Indian", "hours": "11am\u201310:30pm(Mon-Sun)", "Cost for two": "\u20b9500", "votes": "52"}, {"Name": "Corner Cafe", "Rating": "2.7", "location": " G-25, Connaught Circus, Connaught Place, New Delhi", "Cuisines: ": "North Indian, Fast Food", "hours": "11am\u201311pm(Mon-Sun)", "Cost for two": "\u20b9250", "votes": "11"}, {"Name": "Jacky Ching", "Rating": "-", "location": " Shop 1, IC Corner, Barakhamba Lane, Behind Fire Station, Connaught Place, New Delhi", "Cuisines: ": "Chinese", "hours": "11am\u201311pm(Mon-Sun)", "Cost for two": "\u20b9600", "votes": "11"}, {"Name": "Roti'Ba", "Rating": "-", "location": " E-42 & 43, Inner Circle, Connaught Place, New Delhi", "Cuisines: ": "North Indian, Fast Food, Street Food, Mughlai", "hours": "11am\u201311pm(Mon-Sun)", "Cost for two": "\u20b91,000", "votes": "11"}, {"Name": "Addictive Lounge", "Rating": "2.8", "location": " K-24, 1st Floor, Opposite PVR Plaza Cinema, Connaught Place, New Delhi", "Cuisines: ": "North Indian, Finger Food", "hours": "12noon\u201311:30pm(Mon-Sun)", "Cost for two": "\u20b91,800", "votes": "14"}]