[{"Name": "Pipeline Cafe", "Rating": "4.0", "votes": "692", "location": " Shop 37, 2nd Floor, Satyaniketan, New Delhi", "Cuisines: ": "Cafe, Italian, Chinese, Continental, Beverages", "hours": "11am\u201311pm(Mon-Sun)", "Cost for two": "\u20b9800"}, {"Name": "Shiva Coffee & South Indian Fast Food", "Rating": "3.7", "votes": "89", "location": " 1-D, Kamla Nagar, New Delhi", "Cuisines: ": "South Indian, Chinese", "hours": "9am\u201310:30pm(Mon-Sun)", "Cost for two": "\u20b9300"}, {"Name": "The Sandwich Castle", "Rating": "3.4", "votes": "13", "location": " F-740, Near Krishna Mandir, Ganesh Nagar, Shakarpur, New Delhi", "Cuisines: ": "Sandwich, Beverages", "hours": "11am\u20134am(Mon-Sun)", "Cost for two": "\u20b9300"}, {"Name": "Wicked Waffles", "Rating": "3.8", "votes": "262", "location": " G-85, Preet Vihar Main Road, Vikas Marg, New Delhi", "Cuisines: ": "Desserts, Fast Food", "hours": "9am\u201312midnight(Mon-Sun)", "Cost for two": "\u20b9300"}, {"Name": "Tara - Roseate House", "Rating": "3.7", "votes": "71", "location": " Roseate House, Asset 10, Hospitality District, Aerocity, New Delhi", "Cuisines: ": "Japanese", "hours": "6pm\u201311pm(Mon-Sun)", "Cost for two": "\u20b94,000"}, {"Name": "Rising Naan", "Rating": "3.9", "votes": "78", "location": " Shop 118, Ground Floor, Shahapur Jat, New Delhi", "Cuisines: ": "North Indian, Mughlai", "hours": "11am\u20131am(Mon-Sun)", "Cost for two": "\u20b9500"}, {"Name": "Esquire - Hotel Samrat", "Rating": "NEW", "votes": "78", "location": " Hotel Samrat, Plot 50 B, Kautilya Marg, Chanakyapuri, New Delhi", "Cuisines: ": "Mexican, Italian, Continental", "hours": "Closed(Mon,Tue,Wed,Thu,Sun),10pm\u20134am...", "Cost for two": "\u20b96,000"}, {"Name": "Aromas of Pind", "Rating": "4.2", "votes": "618", "location": " A -38, Mohan Industrial Estate, Metro Pillar 302, Sarita Vihar, New Delhi", "Cuisines: ": "North Indian, Chinese", "hours": "11:10am\u201311pm(Mon-Sun)", "Cost for two": "\u20b91,500"}, {"Name": "Your's Chole Bhature", "Rating": "3.7", "votes": "256", "location": " 30, GG1, Main Market, Vikaspuri, New Delhi", "Cuisines: ": "North Indian", "hours": "7am\u20134pm(Mon-Sun)", "Cost for two": "\u20b9150"}, {"Name": "Cafe Coffee Bar", "Rating": "4.0", "votes": "498", "location": " Shop 116-118, 1st Floor, City Centre Mall, Sector 12, Dwarka, New Delhi", "Cuisines: ": "Cafe, Continental, Italian, Fast Food, North Indian", "hours": "11am\u201311pm(Mon-Sun)", "Cost for two": "\u20b9600"}, {"Name": "Durga Sweets Corner", "Rating": "3.7", "votes": "156", "location": " 139, Near Ring Road Market, Sarojini Nagar, New Delhi", "Cuisines: ": "Mithai, Street Food", "hours": "9:30am\u20137:30pm(Mon-Sun)", "Cost for two": "\u20b9150"}, {"Name": "Insta Burger Cafe", "Rating": "3.1", "votes": "61", "location": " Khasra 47/10/11, A Block, Kaushik Enclave, Main Road Burari, Azadpur, New Delhi", "Cuisines: ": "Burger, Fast Food, Pizza", "hours": "11am\u201311pm(Mon-Sun)", "Cost for two": "\u20b9200"}, {"Name": "Nakshatra", "Rating": "3.7", "votes": "210", "location": " SCO 10, Main Market, Part 2, Sector 15, Gurgaon", "Cuisines: ": "Chinese, North Indian, Continental", "hours": "12noon\u201312midnight(Mon-Sun)", "Cost for two": "\u20b91,500"}, {"Name": "The Dhokla House", "Rating": "3.7", "votes": "62", "location": " Near Tanish Ford/Mahindra Service Centre, Wazirabad, Ardee City, Gurgaon", "Cuisines: ": "Gujarati", "hours": "9am\u201310:30pm(Mon-Sun)", "Cost for two": "\u20b9200"}, {"Name": "Ram Bau Di Hatti", "Rating": "3.3", "votes": "10", "location": " Shop 10, Plot 411, Hari Mandir, Chand Nagar, Subhash Nagar, New Delhi", "Cuisines: ": "Chinese, Fast Food", "hours": "11am\u201311pm(Mon-Sun)", "Cost for two": "\u20b9150"}]