[{"Name": "The Cake Masters", "Rating": "3.5", "votes": "147", "location": " Plot 18, Golden Residency Enclave, Ahinsa Khand 2, Near More Store, Indirapuram, Ghaziabad", "Cuisines: ": "Bakery, Fast Food", "hours": "9am\u201310pm(Mon-Sun)", "Cost for two": "\u20b9300"}, {"Name": "Chines Hut", "Rating": "3.8", "votes": "90", "location": " Delivery Only", "Cuisines: ": "Chinese", "hours": "10am\u20134am(Mon-Sun)", "Cost for two": "\u20b9300"}, {"Name": "Green Chicken Nation", "Rating": "3.5", "votes": "27", "location": " SCO 12/2, Sapna Market, Sector 37, Faridabad", "Cuisines: ": "Raw Meats, Kebab, Healthy Food", "hours": "11am\u201310:30pm(Mon-Sun)", "Cost for two": "\u20b9400"}, {"Name": "Khao Piyo", "Rating": "3.8", "votes": "91", "location": " A 84, Sector 70, Near Sector 71, Noida", "Cuisines: ": "North Indian, Chinese", "hours": "12noon\u20134am(Mon-Sun)", "Cost for two": "\u20b9600"}, {"Name": "South Ka Zaika Sang Paratha House", "Rating": "3.7", "votes": "52", "location": " Shop 2, Maidan Garhi Road, Phase 2, Chhatarpur Enclave, Chhatarpur, New Delhi", "Cuisines: ": "South Indian, North Indian", "hours": "8am\u201311pm(Mon-Sun)", "Cost for two": "\u20b9250"}, {"Name": "Gaurav kitchen", "Rating": "NEW", "votes": "52", "location": " Shop 114, Fusion Homes, Opposite Cherry Country, Amrapali Dream Valley, Greater Noida", "Cuisines: ": "North Indian, Chinese, Fast Food", "hours": "10am\u201311pm(Mon-Sun)", "Cost for two": "\u20b9300"}, {"Name": "Nalwa's Hotspot", "Rating": "3.2", "votes": "102", "location": " D44, Old Gupta Colony, Near Kalyan Vihar, Vijay Nagar, New Delhi", "Cuisines: ": "Chinese", "hours": "5pm\u20134am(Mon-Sun)", "Cost for two": "\u20b9300"}, {"Name": "HealthBox", "Rating": "4.1", "votes": "70", "location": " Ground Floor, Suncity Business Tower, Golf Course Road, Sector 54, Gurgaon", "Cuisines: ": "Healthy Food, Beverages", "hours": "10am\u20138pm(Mon-Sun)", "Cost for two": "\u20b9400"}, {"Name": "Sehat Cafe", "Rating": "3.9", "votes": "74", "location": " Shop 21, 1st Floor, Baba Chitru Complex, Wazirabad, Sector 52, Near Sector 50, Gurgaon", "Cuisines: ": "Cafe, Healthy Food, North Indian", "hours": "10am\u201312midnight(Mon-Sun)", "Cost for two": "\u20b9600"}, {"Name": "Sky Kitchen.com", "Rating": "3.5", "votes": "22", "location": " Shop 65, 2/18, Sector 41, Noida", "Cuisines: ": "North Indian, Chinese", "hours": "10am\u20134am(Mon-Sun)", "Cost for two": "\u20b9600"}, {"Name": "Pandit Ji Da Dhaba", "Rating": "3.8", "votes": "109", "location": " B-1/3, Sanjay Enclave, Bindapur, Matiala Road, Uttam Nagar, New Delhi", "Cuisines: ": "North Indian", "hours": "11am\u20134pm,7pm\u201311pm(Mon-Sun)", "Cost for two": "\u20b9300"}, {"Name": "Sant Sweets", "Rating": "3.8", "votes": "211", "location": " A-135, Double Storey, Near HDFC Bank, Kalkaji, New Delhi", "Cuisines: ": "Mithai, Street Food, North Indian", "hours": "6am\u20139pm(Mon-Sun)", "Cost for two": "\u20b9250"}, {"Name": "Dawat Xpress", "Rating": "3.8", "votes": "345", "location": " Shop 2, Krishna Market, Opposite Desh Bandhu College, Kalkaji, New Delhi", "Cuisines: ": "North Indian, Mughlai, Chinese, Rolls", "hours": "12:15pm\u20133pm,6:30pm\u201311pm(Mon,Wed,Thu...", "Cost for two": "\u20b9500"}, {"Name": "The Time2Fit", "Rating": "3.7", "votes": "69", "location": " 163/A-5, Shop 2, Block C, Acharya Niketan Market, Behind MI Showroom, Mayur Vihar Phase 1, New Delhi", "Cuisines: ": "Healthy Food, Fast Food, Salad, North Indian", "hours": "8am\u201311pm(Mon-Sun)", "Cost for two": "\u20b9750"}, {"Name": "Jail Cafe", "Rating": "3.8", "votes": "28", "location": " C 5/4, Yamuna Vihar, Shahdara, New Delhi", "Cuisines: ": "North Indian, Fast Food", "hours": "11am\u201311pm(Mon-Sun)", "Cost for two": "\u20b9400"}]