[{"Name": "Chaap Di Hatti", "Rating": "3.3", "votes": "9", "location": " A-1224, JD Colony, Mayur Vihar Phase 3, New Delhi", "Cuisines: ": "North Indian", "hours": "5pm\u201311pm(Mon-Sun)", "Cost for two": "\u20b9200"}, {"Name": "Pyala The Tea Point", "Rating": "3.2", "votes": "48", "location": " 118 A, Pocket A 2, Opposite Sharma And Bansal Medical, Mayur Vihar Phase 3, New Delhi", "Cuisines: ": "Fast Food, Street Food", "hours": "9am\u201312midnight(Mon-Sun)", "Cost for two": "\u20b9200"}, {"Name": "Vaishno Amritsari Zaika", "Rating": "3.0", "votes": "7", "location": " 139, Gali 5, Kanawani, Near Amarpali School, Indirapuram, Ghaziabad", "Cuisines: ": "North Indian", "hours": "8am\u201312midnight(Mon-Sun)", "Cost for two": "\u20b9300"}, {"Name": "King Sandwiches", "Rating": "4.2", "votes": "77", "location": " D-32, Lower Ground Floor, Sushant Shopping Arcade, Phase 1, Sushant Lok, Gurgaon", "Cuisines: ": "Sandwich, Desserts, Continental, Beverages", "hours": "12noon\u201312midnight(Mon,Wed,Thu,Fri,Sat...", "Cost for two": "\u20b9300"}, {"Name": "Manpasand Restaurant", "Rating": "3.4", "votes": "21", "location": " 8 & 9, Shubham Market, Ramprastha, Ghaziabad", "Cuisines: ": "North Indian", "hours": "10am\u20133:15pm(Mon-Sun)", "Cost for two": "\u20b9250"}, {"Name": "Maheshwri Bhoj", "Rating": "3.3", "votes": "30", "location": " Main Hapur Road, Opposite LG Showroom, Govind Puram, Ghaziabad", "Cuisines: ": "North Indian", "hours": "9am\u20134pm,6:30pm\u201310:30pm(Mon-Sun)", "Cost for two": "\u20b9400"}, {"Name": "Pizza Slice", "Rating": "3.2", "votes": "15", "location": " Basement & Ground Floor, DSS 23, Shopping Area, Sector 10, Near Sector 37, Gurgaon", "Cuisines: ": "Pizza", "hours": "11am\u201311pm(Mon-Sun)", "Cost for two": "\u20b9500"}, {"Name": "Mad Over Pizza", "Rating": "3.6", "votes": "42", "location": " Shop 2, Gali 1, Aghapur, Sector 41, Noida", "Cuisines: ": "Pizza, Fast Food", "hours": "24Hours(Mon-Sun)", "Cost for two": "\u20b9600"}, {"Name": "Farzi Kitchen", "Rating": "3.7", "votes": "24", "location": " Akash Sadan, Agahapur, Near Shani Mandir, Sector 41, Noida", "Cuisines: ": "North Indian, Chinese", "hours": "7:30am\u201311pm(Mon-Sun)", "Cost for two": "\u20b9350"}, {"Name": "T-Maker", "Rating": "3.3", "votes": "12", "location": " Shop 60, UG Floor, Ansal Plaza Mall, Near Pari Chowk, Knowledge Park, Greater Noida", "Cuisines: ": "Cafe", "hours": "10am\u20139pm(Mon-Sun)", "Cost for two": "\u20b9600"}, {"Name": "Tandoori Chicken Point", "Rating": "3.5", "votes": "56", "location": " Shop 25, B-Block, DDA Central Market, Dilshad Garden, New Delhi", "Cuisines: ": "North Indian", "hours": "12noon\u201311:30pm(Mon,Wed,Thu,Fri,Sat,Sun)...", "Cost for two": "\u20b9450"}, {"Name": "Pizza Hungry", "Rating": "3.2", "votes": "13", "location": " Bramhpuri Matke Wali Gali, Near Seelampur, Shahdara, New Delhi", "Cuisines: ": "Pizza, Fast Food", "hours": "10am\u201311pm(Mon-Sun)", "Cost for two": "\u20b9450"}, {"Name": "Pizza Bite", "Rating": "3.2", "votes": "8", "location": " E-551, Ramphal Chowk, Sector 7, Dwarka, New Delhi", "Cuisines: ": "Pizza", "hours": "11am\u201311pm(Mon-Sun)", "Cost for two": "\u20b9300"}, {"Name": "Biryani King", "Rating": "3.5", "votes": "63", "location": " R 15, Main Market, Shakarpur, New Delhi", "Cuisines: ": "Biryani, Mughlai", "hours": "11am\u201312midnight(Mon-Sun)", "Cost for two": "\u20b9300"}, {"Name": "Polka The Cake Shop", "Rating": "2.8", "votes": "73", "location": " A-3/93, Lower Ground Floor, Janakpuri, New Delhi", "Cuisines: ": "Bakery, Fast Food", "hours": "9am\u201310pm(Mon-Sun)", "Cost for two": "\u20b9200"}]