[{"Name": "Cheers Lounge Bar", "Rating": "2.8", "votes": "11", "location": " Plot 1, Block 88 A, Krishna Market, Main Bazaar, Paharganj, New Delhi", "Cuisines: ": "North Indian, Chinese", "hours": "11am\u20131am(Mon-Sun)", "Cost for two": "\u20b9900"}, {"Name": "24/7 Bar- The Lalit New Delhi", "Rating": "3.8", "votes": "108", "location": " The Lalit, Barakhamba Avenue, Barakhamba Road, New Delhi", "Cuisines: ": "Finger Food", "hours": "24Hours(Mon-Sun)", "Cost for two": "\u20b93,000"}, {"Name": "Bistro 55", "Rating": "-", "votes": "108", "location": " 4797, 2nd Floor, Tooti Chowk, Paharganj, New Delhi", "Cuisines: ": "North Indian, Fast Food, Japanese, Israeli", "hours": "8am\u201311pm(Mon-Sun)", "Cost for two": "\u20b9300"}, {"Name": "Hunger Spot", "Rating": "NEW", "votes": "108", "location": " Shop 1254, Near Sangatrashan Bazaar, Paharganj, New Delhi", "Cuisines: ": "North Indian, Fast Food, Chinese, South Indian", "hours": "11am\u201311pm(Mon-Sun)", "Cost for two": "\u20b9300"}, {"Name": "Le Petit Cafe - The Lalit New Delhi", "Rating": "3.4", "votes": "45", "location": " The Lalit, Barakhamba Avenue, Barakhamba Road, New Delhi", "Cuisines: ": "Cafe", "hours": "11am\u20138pm(Mon-Sun)", "Cost for two": "\u20b91,600"}, {"Name": "Capital Restaurant", "Rating": "-", "votes": "45", "location": " 127, Amrit Kaur Market, Opposite New Delhi Railway Station Gate 7, Paharganj, New Delhi", "Cuisines: ": "Chinese", "hours": "11am\u201311:30pm(Mon-Sun)", "Cost for two": "\u20b9400"}, {"Name": "Hamza Chicken Point", "Rating": "-", "votes": "45", "location": " 5A, DDA Flat, Near Ranjit Singh Marg, Minto Road, Paharganj, New Delhi", "Cuisines: ": "Mughlai", "hours": "10am\u20138pm(Mon,Tue,Thu,Fri,Sat,Sun),Closed...", "Cost for two": "\u20b9200"}, {"Name": "Pandit Ji", "Rating": "3.2", "votes": "22", "location": " 3533, Dariba Pan, Paharganj, New Delhi", "Cuisines: ": "North Indian", "hours": "8am\u201310pm(Mon-Sun)", "Cost for two": "\u20b9100"}, {"Name": "New Punjabi Dhaba", "Rating": "2.9", "votes": "7", "location": " Near Hanuman Mandir, Paharganj, New Delhi", "Cuisines: ": "North Indian", "hours": "10am\u201311pm(Mon-Sun)", "Cost for two": "\u20b9200"}, {"Name": "Your's Restaurants", "Rating": "-", "votes": "7", "location": " 4568, Main Bazar, Paharganj, New Delhi", "Cuisines: ": "North Indian, Chinese", "hours": "11am\u201312:30am(Mon-Sun)", "Cost for two": "\u20b9750"}, {"Name": "Annapurna Vaishno Dhaba", "Rating": "-", "votes": "7", "location": " Nehru Bazar, Main Road, Near Panchkuyian Road, Paharganj, New Delhi", "Cuisines: ": "North Indian", "hours": "11am\u201311pm(Mon-Sun)", "Cost for two": "\u20b9150"}, {"Name": "Mahender Dhaba", "Rating": "-", "votes": "7", "location": " Shop 94, Amrit Kaur Market, Opposite New Delhi Railway Station, Paharganj, New Delhi", "Cuisines: ": "North Indian", "hours": "10am\u201312midnight(Mon-Sun)", "Cost for two": "\u20b9250"}, {"Name": "Shiv Hotel", "Rating": "-", "votes": "7", "location": " 140, Opposite New Delhi Railway Station, Paharganj, New Delhi", "Cuisines: ": "North Indian", "hours": "8am\u201311pm(Mon-Sun)", "Cost for two": "\u20b9300"}, {"Name": "Sonu Restaurant", "Rating": "-", "votes": "7", "location": " 5045/46, Main Bazar, Paharganj, New Delhi", "Cuisines: ": "North Indian, Chinese, South Indian", "hours": "8am\u20131am(Mon-Sun)", "Cost for two": "\u20b9350"}, {"Name": "Lokenath Hotel & Lodge", "Rating": "-", "votes": "7", "location": " 5607, Basant Raod, Near New Delhi Railway Station, Paharganj, New Delhi", "Cuisines: ": "North Indian, Chinese", "hours": "9am\u201311pm(Mon-Sun)", "Cost for two": "\u20b9300"}]