[{"Name": "Golden Bakery", "Rating": "3.0", "votes": "6", "location": " Bazar Matia Mahal, Jama Masjid, New Delhi", "Cuisines: ": "Bakery", "hours": "9am\u20139:30pm(Mon-Sun)", "Cost for two": "\u20b9100"}, {"Name": "J P Chicken Corner", "Rating": "3.0", "votes": "57", "location": " 6-A/72, Channa Market, Opposite Unique Hotel, Karol Bagh, New Delhi", "Cuisines: ": "North Indian, Kebab", "hours": "11am\u201311:30pm(Mon-Sun)", "Cost for two": "\u20b9600"}, {"Name": "Chai Peeni Hai", "Rating": "3.7", "votes": "29", "location": " Patiala House, Tilak Lane, India Gate, New Delhi", "Cuisines: ": "Fast Food, Beverages", "hours": "8am\u20138pm(Mon-Sun)", "Cost for two": "\u20b9200"}, {"Name": "Cafe Out Of The Box", "Rating": "2.8", "votes": "13", "location": " Khan Market, New Delhi", "Cuisines: ": "Chinese, Thai, Continental, American, North Indian, Lebanese, Italian", "hours": "12noon\u201312:30am(Mon-Sun)", "Cost for two": "\u20b9800"}, {"Name": "Raj Dhaba", "Rating": "NEW", "votes": "13", "location": " Shop 29, Ansari Road, Daryaganj, New Delhi", "Cuisines: ": "North Indian", "hours": "11:30am\u201311pm(Mon-Sun)", "Cost for two": "\u20b9250"}, {"Name": "Amritsari Lassi Wala", "Rating": "3.7", "votes": "185", "location": " Shop 295, Fatehpuri Chowk, Chandni Chowk, New Delhi", "Cuisines: ": "Beverages", "hours": "8am\u201310pm(Mon-Sun)", "Cost for two": "\u20b9100"}, {"Name": "Al Saad Foods", "Rating": "3.6", "votes": "54", "location": " Shop 13, Rajdhani D.D.A. Market, Near Badi Masjid, Turkman Gate, Daryaganj, New Delhi", "Cuisines: ": "North Indian, Fast Food", "hours": "6pm\u20131am(Mon-Sun)", "Cost for two": "\u20b9400"}, {"Name": "Old Delhi Food Factory", "Rating": "3.2", "votes": "11", "location": " Turkman Gate, Daryaganj, New Delhi", "Cuisines: ": "Mughlai", "hours": "9am\u20136pm(Mon-Sun)", "Cost for two": "\u20b9500"}, {"Name": "Maa Ki Rasoi", "Rating": "3.1", "votes": "7", "location": " 27/57, Old Rajinder Nagar, Rajinder Nagar, New Delhi", "Cuisines: ": "South Indian", "hours": "7:30am\u20139:30pm(Mon-Sun)", "Cost for two": "\u20b9150"}, {"Name": "Puja Rasoi", "Rating": "3.4", "votes": "23", "location": " 17/3725, Regharpura, Karol Bagh, New Delhi", "Cuisines: ": "North Indian, Bengali", "hours": "12:30pm\u20134:30pm,7pm\u201311:30pm(Mon-Sun)", "Cost for two": "\u20b9600"}, {"Name": "Jain Bakers", "Rating": "2.9", "votes": "6", "location": " Shop 4505, Ghata Masjid Road, Daryaganj, New Delhi", "Cuisines: ": "Bakery, Fast Food", "hours": "11am\u201311pm(Mon-Sun)", "Cost for two": "\u20b9350"}, {"Name": "Delhi 6 Foods", "Rating": "3.4", "votes": "19", "location": " 3787, Netaji Subhash Marg, Daryaganj, New Delhi", "Cuisines: ": "North Indian", "hours": "11am\u201311pm(Mon-Sun)", "Cost for two": "\u20b9300"}, {"Name": "Inderpuri Restaurant", "Rating": "3.4", "votes": "58", "location": " 187, Church Mission Road, Fatehpuri, Chandni Chowk, New Delhi", "Cuisines: ": "North Indian", "hours": "9am\u201311pm(Mon-Sun)", "Cost for two": "\u20b9400"}, {"Name": "Gappu", "Rating": "3.5", "votes": "27", "location": " Shop 12, Gaffar Market, Arya Samaj Road, Karol Bagh, New Delhi", "Cuisines: ": "Chinese, North Indian", "hours": "10am\u20139pm(Mon-Sun)", "Cost for two": "\u20b9200"}, {"Name": "Mishra Ji Dhaba", "Rating": "3.0", "votes": "4", "location": " 179 & 180, Netaji Subhash Market, Ajmal Khan Road, Karol Bagh, New Delhi", "Cuisines: ": "North Indian", "hours": "11am\u20134pm,8pm\u201311pm(Mon-Sun)", "Cost for two": "\u20b9150"}]