[{"Name": "Get Grubs", "Rating": "3.7", "votes": "132", "location": " A-8A, Food Court, Ground Floor, 3C Building, Knowledge Boulevard, Sector 62, Noida", "Cuisines: ": "Fast Food", "hours": "9am\u20139pm(Mon-Fri),10am\u20139pm(Sat),Closed(Sun)", "Cost for two": "\u20b9250"}, {"Name": "The Shawarma Bite", "Rating": "NEW", "votes": "132", "location": " Shop 8, Durga Complex, Mayur Vihar Phase 2, New Delhi", "Cuisines: ": "North Indian, Fast Food, Chinese, Rolls", "hours": "12noon\u201311pm(Mon-Sun)", "Cost for two": "\u20b9150"}, {"Name": "Royal Chatkara", "Rating": "3.5", "votes": "21", "location": " F 6, F Block, Sector 11, Noida", "Cuisines: ": "North Indian, Chinese", "hours": "11:30am\u201310:30pm(Mon-Sun)", "Cost for two": "\u20b9500"}, {"Name": "Indian Zaika", "Rating": "3.7", "votes": "47", "location": " Ajnara Crossings Gol Chakkar, Crossing Republik, Ghaziabad", "Cuisines: ": "Rolls, Mughlai", "hours": "11am\u201310:30pm(Mon-Sun)", "Cost for two": "\u20b9250"}, {"Name": "Hunger Mania Cafe", "Rating": "3.5", "votes": "15", "location": " C 28/29, Logix Cyber Park, Sector 62, Noida", "Cuisines: ": "Fast Food", "hours": "9am\u201310:30pm(Mon-Sun)", "Cost for two": "\u20b9250"}, {"Name": "Khayali Pulao", "Rating": "3.6", "votes": "289", "location": " 11, HUDA Market, Sector 23, Gurgaon", "Cuisines: ": "North Indian, Chinese", "hours": "11am\u201311pm(Mon-Sun)", "Cost for two": "\u20b9700"}, {"Name": "Malik Vegetarian Rasoi", "Rating": "3.4", "votes": "57", "location": " 13-A/4, Ward 1, Opposite Bhool Bhuliyan, Mehrauli, New Delhi", "Cuisines: ": "North Indian", "hours": "11am\u201311pm(Mon-Sun)", "Cost for two": "\u20b9350"}, {"Name": "Curls", "Rating": "3.3", "votes": "10", "location": " Shop 176, Main Road, Opposite Select City Mall, Press Enclave Marg, Khidki Village, Malviya Nagar, New Delhi", "Cuisines: ": "Chinese, Beverages", "hours": "8am\u20134am(Mon-Sun)", "Cost for two": "\u20b9250"}, {"Name": "Halal Pizza Fun", "Rating": "3.7", "votes": "168", "location": " A-106, Main Road, Zakir Nagar, New Delhi", "Cuisines: ": "Pizza, Fast Food", "hours": "12noon\u201310pm(Mon-Sun)", "Cost for two": "\u20b9450"}, {"Name": "Classic Pizza Everyday", "Rating": "3.8", "votes": "405", "location": " Shop 11/22, Opposite Police Station, Main Road, Geeta Colony, New Delhi", "Cuisines: ": "Pizza, Fast Food, Beverages", "hours": "8am\u20134am(Mon-Sun)", "Cost for two": "\u20b9500"}, {"Name": "Food O Foodies", "Rating": "4.0", "votes": "201", "location": " Shop 3, 100 Feet Road, Labour Chowk, Burari, Near Azadpur, New Delhi", "Cuisines: ": "Fast Food, Chinese", "hours": "10:30am\u201311:30pm(Mon-Sun)", "Cost for two": "\u20b9550"}, {"Name": "Khana Khazana", "Rating": "3.1", "votes": "58", "location": " B-4/158, Sector 7, Rohini, New Delhi", "Cuisines: ": "North Indian", "hours": "12:30pm\u20135pm,6:30pm\u201311:30pm(Mon-Sun)", "Cost for two": "\u20b9300"}, {"Name": "Pandit Ji Amritsari Kulcha Wale", "Rating": "3.7", "votes": "91", "location": " RU- 22, Opposite Power House, Pitampura, New Delhi", "Cuisines: ": "North Indian", "hours": "11am\u20139pm(Mon-Sun)", "Cost for two": "\u20b9600"}, {"Name": "Cheers Resto Bar", "Rating": "3.9", "votes": "45", "location": " G-16-21, RG-1 Complex, Sector 14, Prashant Vihar, New Delhi", "Cuisines: ": "North Indian, Mughlai, Chinese", "hours": "12noon\u201312midnight(Mon-Sun)", "Cost for two": "\u20b9800"}, {"Name": "The Baithak's", "Rating": "3.6", "votes": "186", "location": " 18/41, Main Market, East Patel Nagar, New Delhi", "Cuisines: ": "North Indian, Chinese, Mughlai", "hours": "11am\u20133pm,7pm\u201311:30pm(Mon-Sun)", "Cost for two": "\u20b91,000"}]