[{"Name": "Lala's Tandoor", "Rating": "3.8", "votes": "1047", "location": " 70, IGNOU Main Road, Sainik Farms, New Delhi", "Cuisines: ": "North Indian, Chinese", "hours": "12noon\u20133am(Mon-Sun)", "Cost for two": "\u20b9700"}, {"Name": "Crisp 'N' Twist", "Rating": "3.8", "votes": "243", "location": " Shop 1D/25, NIT, Faridabad", "Cuisines: ": "Pizza, Fast Food", "hours": "12noon\u201311pm(Mon-Sun)", "Cost for two": "\u20b9400"}, {"Name": "Darvesh Corner", "Rating": "3.8", "votes": "245", "location": " 7673, Near Amba Cinema, Birla Lane, Clock Tower, Kamla Nagar, New Delhi", "Cuisines: ": "North Indian, Mughlai", "hours": "1pm\u20134pm,6pm\u201311pm(Mon-Sun)", "Cost for two": "\u20b9450"}, {"Name": "World In A Box", "Rating": "3.8", "votes": "863", "location": " 702, Adjacent Cyber Park, Jharsa, Behind Qutub Auto, Sector 39, Gurgaon", "Cuisines: ": "Healthy Food, European, Continental", "hours": "8am\u201311pm(Mon-Sun)", "Cost for two": "\u20b9750"}, {"Name": "Alexis", "Rating": "3.2", "votes": "9", "location": " 5/25, Shivaji Nagar, Old Railway Road, Gurgaon", "Cuisines: ": "North Indian, Mughlai", "hours": "2pm\u20132am(Mon-Sun)", "Cost for two": "\u20b9500"}, {"Name": "Maquina", "Rating": "4.1", "votes": "960", "location": " 30-A, Hauz Khas Village, New Delhi", "Cuisines: ": "Continental, Tex-Mex", "hours": "12noon\u20131am(Mon-Sun)", "Cost for two": "\u20b91,800"}, {"Name": "Yumla", "Rating": "3.7", "votes": "48", "location": " Shop 16, JM Orchid, Sector 76, Near Sector 72, Noida", "Cuisines: ": "Burger, Sandwich, Wraps, Fast Food, Beverages", "hours": "12:30pm\u201312midnight(Mon),12noon\u201312midnight...", "Cost for two": "\u20b9400"}, {"Name": "Bamboo Shoots", "Rating": "3.9", "votes": "713", "location": " F-2/3, Sector 18, Noida", "Cuisines: ": "Chinese, Seafood, Asian, North Indian", "hours": "12:30pm\u20133:15pm,7pm\u201311:15pm(Mon-Sun)", "Cost for two": "\u20b91,600"}, {"Name": "Chai Bay", "Rating": "3.6", "votes": "34", "location": " D-38/B, Lower Ground Floor, Acharya Niketan, Mayur Vihar Phase 1, New Delhi", "Cuisines: ": "Beverages, Fast Food", "hours": "10:30am\u201310pm(Mon-Sun)", "Cost for two": "\u20b9200"}, {"Name": "Maaya's Sweets", "Rating": "3.4", "votes": "46", "location": " Aarza Square 1, Gaur City 1, Greater Noida", "Cuisines: ": "Mithai, North Indian, South Indian", "hours": "10am\u201311pm(Mon-Sun)", "Cost for two": "\u20b9400"}, {"Name": "Go Fuudy", "Rating": "4.4", "votes": "285", "location": " S 27/11, Basement, Nathupur, DLF Phase 3, Gurgaon", "Cuisines: ": "Healthy Food, Fast Food, Beverages", "hours": "8am\u201311am(Mon-Sun)", "Cost for two": "\u20b9500"}, {"Name": "Everyday Cafe", "Rating": "3.4", "votes": "21", "location": " D-61 Gali 3 Opposite Metro Station Pillar 31, Laxmi Nagar, New Delhi", "Cuisines: ": "Fast Food, Beverages", "hours": "11am\u201311pm(Mon-Sun)", "Cost for two": "\u20b9200"}, {"Name": "JD - Jst Dnr", "Rating": "3.6", "votes": "50", "location": " Delivery Only", "Cuisines: ": "North Indian", "hours": "11am\u20133am(Mon,Wed,Thu,Fri,Sat,Sun),Closed...", "Cost for two": "\u20b9400"}, {"Name": "The Reset", "Rating": "4.1", "votes": "519", "location": " 3, Pocket F/19, Sector 8, Rohini, New Delhi", "Cuisines: ": "Asian, Italian, North Indian", "hours": "11am\u201311:30pm(Mon-Sun)", "Cost for two": "\u20b91,200"}, {"Name": "Electro by Dum Maro Dum", "Rating": "4.1", "votes": "549", "location": " C 8, Vishal Enclave, Rajouri Garden, New Delhi", "Cuisines: ": "Continental, Italian, North Indian", "hours": "12noon\u20131am(Mon-Sun)", "Cost for two": "\u20b91,400"}]