[{"Name": "Jammu Foods", "Rating": "3.6", "votes": "148", "location": " Shop 13 - 18, Ground Floor, Meridian View Plaza, Alpha 1, Greater Noida", "Cuisines: ": "North Indian, Chinese", "hours": "11am\u201311pm(Mon-Sun)", "Cost for two": "\u20b9750"}, {"Name": "Lajwab Bakery", "Rating": "3.5", "votes": "61", "location": " Mangal Bazaar Road, Uttam Nagar, New Delhi", "Cuisines: ": "Bakery", "hours": "9:30am\u201310:30pm(Mon-Sun)", "Cost for two": "\u20b9100"}, {"Name": "Pizzaino", "Rating": "3.2", "votes": "6", "location": " Shop C 23, Kiran Garden, Main Matiala Road, Near Metro Pillar 722, Uttam Nagar, New Delhi", "Cuisines: ": "Fast Food, Pizza", "hours": "11am\u201311pm(Mon-Sun)", "Cost for two": "\u20b9500"}, {"Name": "Night Mail", "Rating": "3.2", "votes": "13", "location": " Delivery Only", "Cuisines: ": "Fast Food, North Indian", "hours": "7am\u20135am(Mon-Sun)", "Cost for two": "\u20b9200"}, {"Name": "Khana Purti", "Rating": "3.1", "votes": "49", "location": " Plot-2, G-31, Ground Floor, Vardhman Crown Mall, Sector 19, Dwarka, New Delhi", "Cuisines: ": "North Indian, Chinese", "hours": "9am\u201311pm(Mon-Sun)", "Cost for two": "\u20b9400"}, {"Name": "Kakori Junction", "Rating": "NEW", "votes": "49", "location": " A 6, Hint House, RDC, Raj Nagar, Ghaziabad", "Cuisines: ": "Kebab, Fast Food", "hours": "11am\u201311pm(Mon-Sun)", "Cost for two": "\u20b9350"}, {"Name": "Pizza Followers", "Rating": "3.2", "votes": "10", "location": " FCA 258, 22 Feet Road, SGM Nagar, NIT, Faridabad", "Cuisines: ": "Fast Food", "hours": "12noon\u20139:30pm(Mon-Sun)", "Cost for two": "\u20b9400"}, {"Name": "Cream Of Ice", "Rating": "3.3", "votes": "8", "location": " D 600, Ground Floor, Chittaranjan Park, New Delhi", "Cuisines: ": "Desserts, Ice Cream", "hours": "12noon\u201311pm(Mon-Sun)", "Cost for two": "\u20b9650"}, {"Name": "Diet Factory", "Rating": "3.7", "votes": "110", "location": " Shop 18, Sector 21 C, Near Sector 21, Faridabad", "Cuisines: ": "Sandwich, Healthy Food", "hours": "9am\u201310pm(Mon-Sat),Closed(Sun)", "Cost for two": "\u20b9300"}, {"Name": "Chilli Hot Fast Food", "Rating": "NEW", "votes": "110", "location": " Chandila Complex, Tigoan Road, Sector 86, Faridabad", "Cuisines: ": "Momos, Fast Food, Chinese, Rolls", "hours": "11am\u201311pm(Mon-Sun)", "Cost for two": "\u20b9300"}, {"Name": "Curries Badshah", "Rating": "3.7", "votes": "61", "location": " Opposite H 168 Sector 41 Noida", "Cuisines: ": "North Indian, Mughlai, Chinese", "hours": "12noon\u20132am(Mon,Wed,Thu,Fri,Sat,Sun)...", "Cost for two": "\u20b9400"}, {"Name": "Home Food Junction", "Rating": "3.2", "votes": "9", "location": " A 50, Old Gupta Colony, Near Ahuja Property Dealer, Model Town,  Vijay Nagar, New Delhi", "Cuisines: ": "North Indian", "hours": "11am\u20133am(Mon-Sun)", "Cost for two": "\u20b9200"}, {"Name": "The Kathis", "Rating": "4.1", "votes": "171", "location": " M33, M Block Market, Greater Kailash (GK) 2, New Delhi", "Cuisines: ": "Rolls", "hours": "12:30pm\u201311pm(Mon-Thu),12:30pm\u201311:30pm...", "Cost for two": "\u20b9400"}, {"Name": "Young Wild Free Cafe", "Rating": "3.9", "votes": "1072", "location": " 13, 1st Floor, Opposite Venkateswara College, Satyaniketan, New Delhi", "Cuisines: ": "Cafe, Fast Food, Chinese", "hours": "11am\u201311pm(Mon-Sun)", "Cost for two": "\u20b9850", "Featured in: ": "Pocket Friendly Options For You"}, {"Name": "Tikk Tokk Food Junction", "Rating": "3.5", "votes": "27", "location": " Ground Floor, Village Fazilpur, Sector 48, Near Khera Wali Tanki, Sohna Road, Gurgaon", "Cuisines: ": "North Indian, Chinese", "hours": "11am\u201311pm(Mon-Sun)", "Cost for two": "\u20b9400", "Featured in: ": "Pocket Friendly Options For You"}]