[{"Name": "Khune Restaurant", "Rating": "3.1", "votes": "6", "location": " Shop-07, First Floor, Market Place, Opposite Bestech Park View Spa, Badshahpur, Sohna Road, Gurgaon", "Cuisines: ": "North Indian, Chinese", "hours": "11am\u20131am(Mon-Sun)", "Cost for two": "\u20b9300"}, {"Name": "Fododo Chinese & Italian Blend", "Rating": "3.6", "votes": "64", "location": " B141, Rama Park, Uttam Nagar, New Delhi", "Cuisines: ": "Chinese, Fast Food", "hours": "1pm\u201310:30pm(Mon,Tue,Wed,Thu,Sun),1pm\u2013...", "Cost for two": "\u20b9650"}, {"Name": "Haji Chicken Corner", "Rating": "3.5", "votes": "42", "location": " 463, Shahzada Bagh, Phase 1, Inderlok, New Delhi", "Cuisines: ": "North Indian", "hours": "12noon\u201311:30pm(Mon-Sun)", "Cost for two": "\u20b9300"}, {"Name": "PDS Natraj Chaat & Snacks", "Rating": "3.3", "votes": "7", "location": " RP Block Chowk, Saraswati Vihar, Pitampura, New Delhi", "Cuisines: ": "North Indian, Street Food, Rolls", "hours": "3pm\u201311pm(Mon-Sun)", "Cost for two": "\u20b9300"}, {"Name": "The Big Cuisine", "Rating": "3.4", "votes": "19", "location": " 130/2, F Block, Gautam Nagar, Yusuf Sarai, New Delhi", "Cuisines: ": "North Indian, Chinese, Fast Food", "hours": "12midnight\u20134am,11am\u201312midnight(Mon-Sun)", "Cost for two": "\u20b9500"}, {"Name": "Ashu Chicken Corner", "Rating": "3.6", "votes": "58", "location": " Shop 435, Main Road, Opposite Gupta Complex, Shahzada Bagh, Inderlok, New Delhi", "Cuisines: ": "North Indian", "hours": "12noon\u201312midnight(Mon-Sun)", "Cost for two": "\u20b9300"}, {"Name": "Friends & Family Kitchen", "Rating": "3.7", "votes": "135", "location": " SCF 94, Sector 17, Faridabad", "Cuisines: ": "Chinese, North Indian", "hours": "11:30am\u201310:30pm(Mon-Sun)", "Cost for two": "\u20b9400"}, {"Name": "Surender Dosa Chole", "Rating": "3.8", "votes": "86", "location": " 2B/74, Near India College, NIT, Faridabad", "Cuisines: ": "Street Food", "hours": "11am\u20139pm(Mon-Sun)", "Cost for two": "\u20b9100"}, {"Name": "New Cake Palace", "Rating": "3.7", "votes": "92", "location": " 35-36, J Block Market, Local Shopping Centre, Saket, New Delhi", "Cuisines: ": "Bakery, Desserts, Fast Food", "hours": "10am\u201310pm(Mon-Sun)", "Cost for two": "\u20b9200"}, {"Name": "Monginis", "Rating": "3.8", "votes": "41", "location": " Unique Society, Central Park Lane, Sector 4, Vaishali, Ghaziabad", "Cuisines: ": "Bakery, Desserts", "hours": "11am\u201311pm(Mon-Sun)", "Cost for two": "\u20b9300"}, {"Name": "Shyam Bhature Wala", "Rating": "3.9", "votes": "250", "location": " A-1/34, Sector 17, Rohini, New Delhi", "Cuisines: ": "Street Food", "hours": "8:30am\u20135pm(Mon-Sun)", "Cost for two": "\u20b9150"}, {"Name": "Grover Sweet", "Rating": "3.6", "votes": "127", "location": " A 11/121, Opposite Metro Pillar 320, Near Fun Cinema, Moti Nagar, New Delhi", "Cuisines: ": "Mithai", "hours": "7am\u201310pm(Mon-Sun)", "Cost for two": "\u20b9100"}, {"Name": "Domin'd Pizza", "Rating": "3.4", "votes": "68", "location": " 48/6, Gali 11, Nai Basti, Anand Parvat, Karol Bagh, New Delhi", "Cuisines: ": "Pizza, Fast Food", "hours": "11am\u20134am(Mon-Sun)", "Cost for two": "\u20b9400"}, {"Name": "Vaango!", "Rating": "3.2", "votes": "290", "location": " Shop 117C, Food Court, Cyber Hub, DLF Cyber City, Gurgaon", "Cuisines: ": "South Indian", "hours": "9am\u201310:30pm(Mon-Sun)", "Cost for two": "\u20b9450"}, {"Name": "Dilli Flavours", "Rating": "3.6", "votes": "38", "location": " Shop 112, U Block, Basement Market, DLF Phase 3, Gurgaon", "Cuisines: ": "Chinese, North Indian", "hours": "11:45am\u20131am(Mon-Sun)", "Cost for two": "\u20b9600"}]