[{"Name": "Gupta Kulfi House", "Rating": "3.3", "votes": "6", "location": " C Block, Opposite Amar Colony Main Market, Amar Colony, New Delhi", "Cuisines: ": "Ice Cream, Desserts", "hours": "7pm\u201312midnight(Mon-Sun)", "Cost for two": "\u20b9150"}, {"Name": "Uttarakhand Testy FoodS", "Rating": "-", "votes": "6", "location": " E116, Sector 6, Noida", "Cuisines: ": "North Indian", "hours": "11am\u20134pm(Mon-Sun)", "Cost for two": "\u20b9200"}, {"Name": "HOGS-House Of Grills", "Rating": "3.5", "votes": "19", "location": " Shop 98, D Block, Lajpat Nagar 1, New Delhi", "Cuisines: ": "Rolls, Street Food, North Indian", "hours": "12noon\u201310pm(Mon,Wed,Thu,Fri,Sat,Sun)...", "Cost for two": "\u20b9300"}, {"Name": "Talli Bar & Restaurant", "Rating": "3.2", "votes": "35", "location": " 2, New Ashok Nagar Metro Station, Near Vasundhara Enclave, New Delhi", "Cuisines: ": "North Indian, Mughlai, Chinese", "hours": "11am\u20139pm(Mon-Sun)", "Cost for two": "\u20b9650"}, {"Name": "Sonu Parantha Corner", "Rating": "3.3", "votes": "14", "location": " C-61, Sector -2, Noida", "Cuisines: ": "North Indian", "hours": "9am\u20139pm(Mon-Sat),9am\u20135pm(Sun)", "Cost for two": "\u20b9200"}, {"Name": "Rimjhim Aligarh", "Rating": "-", "votes": "14", "location": " Ground Floor, Sadarpur Main Road, Sombazar, Sector 45, Noida", "Cuisines: ": "North Indian", "hours": "11am\u20134am(Mon-Sun)", "Cost for two": "\u20b9300"}, {"Name": "Food Land", "Rating": "3.5", "votes": "75", "location": " 252-H, Kailash Plazza, Sant Nagar, East of Kailash, New Delhi", "Cuisines: ": "North Indian, Chinese", "hours": "12noon\u20134pm,7:30pm\u201311pm(Mon-Sat),Closed(Sun)", "Cost for two": "\u20b9500"}, {"Name": "Gopal (Sindhi) Restaurant", "Rating": "3.8", "votes": "110", "location": " 1 & 2, Lal Sai Market, Lajpat Nagar 2, New Delhi", "Cuisines: ": "North Indian, Mughlai", "hours": "11am\u201311pm(Mon-Sun)", "Cost for two": "\u20b91,500"}, {"Name": "Dee's Desire Pizza", "Rating": "3.4", "votes": "24", "location": " 40 Feeta Road, Near Aggarwal Book Depot, Badarpur Border, Faridabad", "Cuisines: ": "Pizza", "hours": "5:30pm\u20139:30pm(Mon-Sun)", "Cost for two": "\u20b9300"}, {"Name": "Sundar Paratha", "Rating": "3.0", "votes": "4", "location": " 1793, Gali 54C, 1st Feet Road, Molarband Extension, Badarpur Border, Faridabad", "Cuisines: ": "North Indian", "hours": "8am\u20134pm,7pm\u201310pm(Mon-Sun)", "Cost for two": "\u20b9250"}, {"Name": "Raja Zaika Kalkata Kathi Roll", "Rating": "3.1", "votes": "6", "location": " Shop 8, Sanjay Complex, Eros Garden, Charmwood Village, Faridabad", "Cuisines: ": "North Indian, Rolls", "hours": "3:30pm\u201311pm(Mon-Sun)", "Cost for two": "\u20b9200"}, {"Name": "Food Fry", "Rating": "3.5", "votes": "21", "location": " Shop 2, Pocket M, Janta Flats, Sarita Vihar, New Delhi", "Cuisines: ": "Fast Food, Chinese", "hours": "11am\u201310pm(Mon-Sun)", "Cost for two": "\u20b9250"}, {"Name": "Rajiv Palam Omellete", "Rating": "3.5", "votes": "64", "location": " Delivery Only", "Cuisines: ": "Fast Food", "hours": "10am\u201310pm(Mon-Sun)", "Cost for two": "\u20b9200"}, {"Name": "Simply Sushi", "Rating": "3.8", "votes": "95", "location": " PVR Director's Cut, 3rd Floor, Ambience Mall, Vasant Kunj, New Delhi", "Cuisines: ": "Japanese, Sushi", "hours": "12noon\u201311pm(Mon-Sun)", "Cost for two": "\u20b92,500", "Featured in: ": "Taste of Japan, Food Hygiene Rated Restaurants"}, {"Name": "Robins Sweets & Restaurant", "Rating": "3.1", "votes": "7", "location": " C-136, Gautam Budh Nagar, Sector 10, Noida", "Cuisines: ": "Mithai, North Indian, Chinese", "hours": "9am\u201310pm(Mon-Sun)", "Cost for two": "\u20b9400", "Featured in: ": "Taste of Japan, Food Hygiene Rated Restaurants"}]