[{"Name": "Pizza Queen", "Rating": "3.2", "votes": "48", "location": " Pooth Kalan, Kanjhwla Road, Budh Vihar, Near Brahm Shakti Hospital, Rohini, New Delhi", "Cuisines: ": "Pizza", "hours": "11am\u201311pm(Mon-Sun)", "Cost for two": "\u20b9400"}, {"Name": "Aunty's Kitchen", "Rating": "3.0", "votes": "6", "location": " Plot 1, Khasra 3/89/215, Paryavaran Complex, Saidulajab, Saket, New Delhi", "Cuisines: ": "North Indian", "hours": "12noon\u20133:30pm,7:30pm\u201310:30pm(Mon,Wed...", "Cost for two": "\u20b9400"}, {"Name": "The Pizza King", "Rating": "3.5", "votes": "74", "location": " Opposite JD Block Market, Pitampura, New Delhi", "Cuisines: ": "Pizza", "hours": "5pm\u201311:30pm(Mon-Sun)", "Cost for two": "\u20b9350"}, {"Name": "Cafe 7teen", "Rating": "3.4", "votes": "22", "location": " Shop 90, Sandal Street, Sector 135, Noida", "Cuisines: ": "Fast Food, North Indian, Beverages", "hours": "10am\u201311:30pm(Mon-Sat),Closed(Sun)", "Cost for two": "\u20b9350"}, {"Name": "Hoodo Diet", "Rating": "NEW", "votes": "22", "location": " Plot 209A, 2nd Floor, Block E-3, Molor Band Extension, Near Kasana Complex, Badarpur Border, Faridabad", "Cuisines: ": "Healthy Food", "hours": "8am\u201310pm(Mon-Sat),Closed(Sun)", "Cost for two": "\u20b9300"}, {"Name": "Brijwasi Sweet House", "Rating": "3.2", "votes": "14", "location": " 2210/10, Jawahar Colony, Airforce Road, Dabua Chowk, NIT, Faridabad", "Cuisines: ": "Mithai, Fast Food", "hours": "8am\u201310pm(Mon-Sun)", "Cost for two": "\u20b9100"}, {"Name": "TICH - Chole Bhature", "Rating": "NEW", "votes": "14", "location": " D-102, Rodeo Drive, South City 2, Gurgaon", "Cuisines: ": "Street Food", "hours": "12noon\u20135pm,6pm\u201312midnight(Mon-Sun)", "Cost for two": "\u20b9400"}, {"Name": "Juice Bar", "Rating": "3.1", "votes": "4", "location": " Jain Nagar, Opposite Bliss Fitness, 40 Feet Road, Sector 37, Rohini, New Delhi", "Cuisines: ": "Juices, Beverages", "hours": "7am\u201310:30pm(Mon-Sun)", "Cost for two": "\u20b9150"}, {"Name": "Road House", "Rating": "3.4", "votes": "42", "location": " Shop 56, Opposite Euro International School, Near Sector 7, Sector 10, Gurgaon", "Cuisines: ": "Chinese, North Indian, Mughlai", "hours": "4pm\u201311pm(Mon,Wed,Thu,Fri,Sat,Sun),Closed...", "Cost for two": "\u20b9450"}, {"Name": "Sam's Bake Shop", "Rating": "3.5", "votes": "93", "location": " 1, Hetram Complex, Dividing Road, Sector 31, Faridabad", "Cuisines: ": "Bakery, Street Food", "hours": "8:30am\u201310:30pm(Mon-Sun)", "Cost for two": "\u20b9300"}, {"Name": "Momo Plaza", "Rating": "3.2", "votes": "10", "location": " WZ 32/4 A, Street 1, Sant Garh, Tilak Nagar, New Delhi", "Cuisines: ": "Momos, Fast Food, Chinese", "hours": "12noon\u201311pm(Mon-Sun)", "Cost for two": "\u20b9300"}, {"Name": "JVC Chinese Fast Food", "Rating": "-", "votes": "10", "location": " Booth 44, Part 2, Sector 16A, Sector 16, Faridabad", "Cuisines: ": "Fast Food, Chinese", "hours": "11am\u201311pm(Mon-Sun)", "Cost for two": "\u20b9200"}, {"Name": "Sai Rasoi", "Rating": "3.7", "votes": "77", "location": " A 20, Sahni Tower, Sector 5, Near M4U Cinema, Rajendar Nagar, Ghaziabad", "Cuisines: ": "North Indian, Chinese", "hours": "1pm\u20134pm,6pm\u201310:30pm(Mon-Sun)", "Cost for two": "\u20b9450"}, {"Name": "KC Bakers", "Rating": "3.7", "votes": "65", "location": " Shop 7, Gali 1, Sector 15, Noida", "Cuisines: ": "Bakery", "hours": "8:30am\u201311:55pm(Mon),8:30am\u201311:30pm(Tue-Sun)", "Cost for two": "\u20b9350"}, {"Name": "Paranthewala", "Rating": "3.8", "votes": "71", "location": " Shop 1, R 14, Rita Block, Near Metro Pillar 43, Shakarpur, New Delhi", "Cuisines: ": "North Indian", "hours": "24Hours(Mon-Sun)", "Cost for two": "\u20b9150"}]