[{"Name": "Penta Cafe", "Rating": "3.8", "votes": "185", "location": " 663, Near Pentamed Hospital, Derawal Nagar, Gujranwala Town, New Delhi", "Cuisines: ": "Fast Food, Chinese, North Indian", "hours": "7:30am\u201311:30pm(Mon-Sun)", "Cost for two": "\u20b9400"}, {"Name": "Meethi Reet Mithai Boutique", "Rating": "3.8", "votes": "66", "location": " A-220, Supermart 1, DLF Phase 4, Gurgaon", "Cuisines: ": "Mithai", "hours": "11am\u20138pm(Mon,Wed,Thu,Fri,Sat,Sun),Closed...", "Cost for two": "\u20b9800"}, {"Name": "Art Of Flames", "Rating": "3.8", "votes": "81", "location": " Shop 117, 125, 126, Sector 22A, Huda Market, Gurgaon", "Cuisines: ": "North Indian, Chinese, Mughlai", "hours": "12:01pm\u201311:30pm(Mon),12:02pm\u201311:30pm(Tue...", "Cost for two": "\u20b9700"}, {"Name": "Chinese Potli", "Rating": "NEW", "votes": "81", "location": " D-1, Chachi Building, Lal Quarter, Krishna Nagar, New Delhi", "Cuisines: ": "Chinese, Fast Food", "hours": "12noon\u201310pm(Mon-Sun)", "Cost for two": "\u20b9200"}, {"Name": "Mr. Burger", "Rating": "3.7", "votes": "182", "location": " C-11, Near Shiv Chowk, Shalimar Garden Extension 2, Shalimar Garden, Ghaziabad", "Cuisines: ": "Fast Food", "hours": "11am\u201310pm(Mon-Sun)", "Cost for two": "\u20b9200"}, {"Name": "Mohan's Dhaba", "Rating": "3.5", "votes": "65", "location": " Sector 5, Vaishali, Ghaziabad", "Cuisines: ": "North Indian", "hours": "1pm\u20134pm,7pm\u201311pm(Mon-Sun)", "Cost for two": "\u20b9250"}, {"Name": "Pawan Vaishno Dhaba", "Rating": "3.7", "votes": "101", "location": " D-7/170, Sector 6, Rohini, New Delhi", "Cuisines: ": "North Indian", "hours": "12:30pm\u201310pm(Mon-Sun)", "Cost for two": "\u20b9300"}, {"Name": "Standard Amritsari Vaishno Dhaba", "Rating": "3.3", "votes": "232", "location": " 1-A, Nathi Chowk, NIT, Faridabad", "Cuisines: ": "North Indian", "hours": "9am\u201312midnight(Mon-Sun)", "Cost for two": "\u20b9300"}, {"Name": "Dehaat", "Rating": "3.8", "votes": "113", "location": " D-11/292, Near Sai Baba Mandir, Sector 7, Rohini, New Delhi", "Cuisines: ": "North Indian", "hours": "11:30am\u201311:30pm(Mon-Sun)", "Cost for two": "\u20b9350"}, {"Name": "Catalyst Cafe", "Rating": "3.6", "votes": "27", "location": " Shop B6, Surya Nagar, Ghaziabad", "Cuisines: ": "Cafe, Healthy Food, Fast Food", "hours": "8am\u201310:30pm(Mon-Sun)", "Cost for two": "\u20b9450"}, {"Name": "Agra Chicken Corner", "Rating": "3.6", "votes": "34", "location": " RZ-9/2, 1st Floor, Idgah Market, Block P4, Nangloi - Sultanpuri Road, Aman Vihar, Near Rohini, New Delhi", "Cuisines: ": "Biryani, Mughlai", "hours": "12noon\u201311pm(Mon,Wed,Thu,Fri,Sat,Sun)...", "Cost for two": "\u20b9250"}, {"Name": "Bobby Food Point & Tiffin Time", "Rating": "3.5", "votes": "26", "location": " Delivery Only", "Cuisines: ": "North Indian", "hours": "7am\u201311pm(Mon-Sun)", "Cost for two": "\u20b9200"}, {"Name": "Pizza & Burger Hub", "Rating": "3.8", "votes": "108", "location": " Shop A7, Saurav Vihar, Jaitpur, Near Dr. Indu Clinic, Badarpur Border, Faridabad", "Cuisines: ": "Pizza, Fast Food", "hours": "11am\u201311pm(Mon,Tue,Wed,Thu,Sat,Sun)...", "Cost for two": "\u20b9500"}, {"Name": "Wings Mama", "Rating": "3.6", "votes": "15", "location": " Shop H-105, Ground Floor, Sushant Shopping Arcade, Block B, Phase 1, Sushant Lok, Gurgaon", "Cuisines: ": "American", "hours": "12noon\u20132am(Mon-Sun)", "Cost for two": "\u20b9350"}, {"Name": "Tesoro Mio", "Rating": "3.9", "votes": "996", "location": " G-13, Top Floor, Opposite Metro Pillar 106, Vikas Marg, Preet Vihar, New Delhi", "Cuisines: ": "Continental, Chinese, Italian, Mexican, North Indian, Salad", "hours": "12noon\u201311pm(Mon-Thu),12noon\u201311:30pm(Fri-Sun)", "Cost for two": "\u20b91,500"}]