[{"Name": "Hotel Metro View", "Rating": "-", "location": " 17A/3, WEA, Karol Bagh, New Delhi", "Cuisines: ": "North Indian, South Indian, Continental", "hours": "7am\u201310am,12noon\u20132pm,7pm\u201311:30pm(Mon-Sun)", "Cost for two": "\u20b9800"}, {"Name": "Chinese Dhaaba", "Rating": "3.1", "location": " Shop 6, Near Bal Bhawan, ITO, New Delhi", "Cuisines: ": "Chinese", "hours": "11am\u201310:30pm(Mon-Sun)", "Cost for two": "\u20b9250", "votes": "7"}, {"Name": "Cirque Express Delivery", "Rating": "-", "location": " B-20, Bada Bazar Road, Rajinder Nagar, New Delhi", "Cuisines: ": "North Indian, Continental, Fast Food, Chinese", "hours": "12noon\u201312midnight(Mon-Sun)", "Cost for two": "\u20b9800", "votes": "7"}, {"Name": "Bowl House", "Rating": "-", "location": " 2637, 2nd Floor, Bank Street, Karol Bagh, New Delhi", "Cuisines: ": "North Indian, Chinese", "hours": "10am\u201310pm(Mon-Sun)", "Cost for two": "\u20b9500", "votes": "7"}, {"Name": "Swaadesi", "Rating": "3.2", "location": " 127A/B, Basement, Mashjid Mor, South Extension 2, New Delhi", "Cuisines: ": "North Indian, Mughlai, Beverages", "hours": "12noon\u20133pm,7pm\u201311pm(Mon-Sun)", "Cost for two": "\u20b9300", "votes": "7"}, {"Name": "Any's Cakery", "Rating": "3.4", "location": " Delivery Only", "Cuisines: ": "Bakery, Desserts", "hours": "11am\u20137pm(Mon-Sun)", "Cost for two": "\u20b9300", "votes": "19"}, {"Name": "Anwar Food Corner", "Rating": "3.7", "location": " Shop 911, Opposite Jama Masjid Gate 1, Jama Masjid, New Delhi", "Cuisines: ": "Mughlai", "hours": "1pm\u201312midnight(Mon-Sun)", "Cost for two": "\u20b9600", "votes": "28"}, {"Name": "Billa Five Star", "Rating": "3.1", "location": " Hardhyan Singh Road, Opposite Gurudwara, Karol Bagh, New Delhi", "Cuisines: ": "North Indian", "hours": "9am\u20136pm(Mon-Sun)", "Cost for two": "\u20b9150", "votes": "7"}, {"Name": "Al Yunus Food", "Rating": "3.3", "location": " 1110, Matiya Mahal Bazar, Jama Masjid", "Cuisines: ": "Fast Food", "hours": "11am\u201311pm(Mon-Sun)", "Cost for two": "\u20b9150", "votes": "7"}, {"Name": "New Frontier Namkeen House", "Rating": "3.2", "location": " 28, Desh Bandhu Gupta Market, Karol Bagh, New Delhi", "Cuisines: ": "Bakery, Fast Food", "hours": "8am\u201310pm(Mon-Sun)", "Cost for two": "\u20b9300", "votes": "9"}, {"Name": "Stay Healthy", "Rating": "-", "location": " Shop 3, Near Old Syndicate Bank, Old Rajinder Nagar, Rajinder Nagar, New Delhi", "Cuisines: ": "Healthy Food, Fast Food, Beverages", "hours": "9am\u201311pm(Mon-Sun)", "Cost for two": "\u20b9500", "votes": "9"}, {"Name": "Chaat Corner", "Rating": "2.7", "location": " Arya Samaj Road, Karol Bagh, New Delhi", "Cuisines: ": "Street Food", "hours": "10am\u201310pm(Mon-Sun)", "Cost for two": "\u20b9100", "votes": "9"}, {"Name": "Shake & Bake", "Rating": "Opening", "location": " 268, Near Tank Road, Karol Bagh, New Delhi", "Cuisines: ": "Fast Food, Beverages", "hours": "10am\u201310pm(Mon-Sun)", "Cost for two": "\u20b9400", "votes": "9"}, {"Name": "Zaika", "Rating": "3.1", "location": " 4184/63, Reghar Pura, Karol Bagh, New Delhi", "Cuisines: ": "Chinese, North Indian", "hours": "12noon\u201310:30pm(Mon-Sun)", "Cost for two": "\u20b9400", "votes": "6"}, {"Name": "Nawab - e - Biryani", "Rating": "-", "location": " Shop 30, Channa Market, Karol Bagh, New Delhi", "Cuisines: ": "Biryani, Chinese, North Indian", "hours": "11am\u201311pm(Mon-Sun)", "Cost for two": "\u20b9800", "votes": "6"}]