[{"Name": "The Flip On Wheel", "Rating": "2.7", "votes": "14", "location": " Near Amity University, Sector 125, Noida", "Cuisines: ": "North Indian, Fast Food", "hours": "11am\u201310pm(Mon-Sun)", "Cost for two": "\u20b9250"}, {"Name": "Vibes of Punjab", "Rating": "3.6", "votes": "81", "location": " Plot 155, Gali 11-12, Near Water Plant, Hoshiyarpur, Sector 51, Noida", "Cuisines: ": "North Indian, Mughlai, Chinese", "hours": "10am\u20133:30pm,7pm\u201311:30pm(Mon-Sun)", "Cost for two": "\u20b9500"}, {"Name": "Mr Singh Malai Chaap Wale", "Rating": "3.2", "votes": "9", "location": " 1573, Chaudhary Chet Ram Market, Tandoori Chowk, Tihar Gaon, Tilak Nagar, New Delhi", "Cuisines: ": "Fast Food", "hours": "5pm\u201311pm(Mon-Sun)", "Cost for two": "\u20b9250"}, {"Name": "World In A Bowl", "Rating": "3.6", "votes": "61", "location": " Delivery Only", "Cuisines: ": "Continental, North Indian, Desserts, Beverages", "hours": "8am\u20132am(Mon-Sun)", "Cost for two": "\u20b9500"}, {"Name": "Breakfast In Bed", "Rating": "3.3", "votes": "7", "location": " Shop 19, DDA Market Arjun Nagar, Safdarjung Enclave, New Delhi", "Cuisines: ": "South Indian, Fast Food, Street Food", "hours": "8am\u201311pm(Mon-Sun)", "Cost for two": "\u20b9250"}, {"Name": "CShanghai Nights", "Rating": "3.4", "votes": "59", "location": " Leading G-Block, Vikaspuri Pvr, Vikaspuri, New Delhi", "Cuisines: ": "Chinese, Fast Food", "hours": "11am\u201311pm(Mon-Sun)", "Cost for two": "\u20b9300"}, {"Name": "Atithi Restaurant", "Rating": "3.0", "votes": "8", "location": " AWHO Society, Central Market, Sector CHI 1, Greater Noida, Noida", "Cuisines: ": "Chinese, South Indian", "hours": "11:30am\u201310pm(Mon-Sun)", "Cost for two": "\u20b9400"}, {"Name": "Sai Samrat Bakery", "Rating": "3.5", "votes": "30", "location": " 85/25, Shakti Nagar, Sector 37, Gurgaon", "Cuisines: ": "Fast Food, Bakery", "hours": "9am\u201310pm(Mon-Sun)", "Cost for two": "\u20b9200"}, {"Name": "Jain Shudh Bhojanalya", "Rating": "3.5", "votes": "54", "location": " 23, Navyug Market, Ambedkar Road, Ghaziabad", "Cuisines: ": "North Indian, Chinese", "hours": "11am\u201311:30pm(Mon-Sun)", "Cost for two": "\u20b9300"}, {"Name": "Arabic Biryani", "Rating": "3.6", "votes": "134", "location": " D- 24, Opposite Gate 2, Masoodpur, Vasant Kunj, New Delhi", "Cuisines: ": "Biryani, North Indian", "hours": "10am\u201311pm(Mon-Sun)", "Cost for two": "\u20b9500"}, {"Name": "SRS 7 Dayz", "Rating": "3.0", "votes": "206", "location": " 1st Floor, SRS Mall, City Center, Sector 12, Faridabad", "Cuisines: ": "North Indian, South Indian, Chinese, Continental", "hours": "11am\u201311pm(Mon-Sun)", "Cost for two": "\u20b9400"}, {"Name": "Flames of Tandoor", "Rating": "3.5", "votes": "322", "location": " Near OBC Bank, Main DSC Road, Sector 49, Noida", "Cuisines: ": "North Indian", "hours": "11:30am\u20134pm,6:30pm\u201311:30pm(Mon-Sun)", "Cost for two": "\u20b9500"}, {"Name": "Maalyun", "Rating": "3.4", "votes": "27", "location": " C/2513, Lower Ground Floor, Opposite Gold Souk Mall, Sushant Lok, Gurgaon", "Cuisines: ": "Kashmiri", "hours": "11am\u201311pm(Mon-Sun)", "Cost for two": "\u20b9500"}, {"Name": "Rajwana Foods", "Rating": "3.6", "votes": "49", "location": " GT-60, Near DPS Junior School, Sector 70, Near Sector 71, Noida", "Cuisines: ": "Chinese, North Indian", "hours": "11am\u201311pm(Mon-Sun)", "Cost for two": "\u20b9300"}, {"Name": "The Food Lovers", "Rating": "3.4", "votes": "20", "location": " Plot 23, Near M4U Cinema, Commercial Belt, Sector 5, Rajendar Nagar, Ghaziabad", "Cuisines: ": "North Indian, Chinese", "hours": "11am\u201311pm(Mon-Sun)", "Cost for two": "\u20b9500"}]