[{"Name": "Rozana", "Rating": "3.7", "votes": "132", "location": " 16/6, U Block, Sector 24, DLF Phase 3, Gurgaon", "Cuisines: ": "North Indian, Chinese", "hours": "12:30pm\u201312midnight(Mon-Sun)", "Cost for two": "\u20b9500"}, {"Name": "The Hunger's Meal", "Rating": "3.6", "votes": "331", "location": " Kirti Nagar, New Delhi", "Cuisines: ": "North Indian, Chinese, Fast Food, Momos", "hours": "6pm\u20133am(Mon-Sun)", "Cost for two": "\u20b9350"}, {"Name": "Rasoi99", "Rating": "3.3", "votes": "22", "location": " Delivery Only", "Cuisines: ": "North Indian, Chinese", "hours": "12:30pm\u20133am(Mon-Sun)", "Cost for two": "\u20b9800"}, {"Name": "Shree Ji Bhojanalaya", "Rating": "3.0", "votes": "10", "location": " MS 11, Sector 12, Pratap Vihar, Ghaziabad", "Cuisines: ": "North Indian", "hours": "11am\u201311pm(Mon-Sun)", "Cost for two": "\u20b9200"}, {"Name": "Chicken Basket", "Rating": "3.6", "votes": "103", "location": " Shop 198, HUDA Market, Sector 9, Faridabad", "Cuisines: ": "North Indian", "hours": "1pm\u201311:30pm(Mon,Wed,Thu,Fri,Sat,Sun)...", "Cost for two": "\u20b9400"}, {"Name": "Food Shood", "Rating": "3.6", "votes": "83", "location": " B 4, Indira Enclave, Neb Sarai Ignu, Saket, New Delhi", "Cuisines: ": "Healthy Food, Salad, Juices, Rolls", "hours": "9am\u201312midnight(Mon-Sun)", "Cost for two": "\u20b9400"}, {"Name": "Monga Restaurant Punjabi Flavours", "Rating": "3.5", "votes": "23", "location": " 16/16, Near Sanatan Dharam Mandir, Subhash Nagar, New Delhi", "Cuisines: ": "North Indian, Chinese", "hours": "6pm\u20134am(Mon-Sun)", "Cost for two": "\u20b9500"}, {"Name": "Al-Baik.Com", "Rating": "3.4", "votes": "18", "location": " 172, Main Parwana Road, Khureji Khas, Near Kapil Medicos, Krishna Nagar, New Delhi", "Cuisines: ": "Fast Food", "hours": "11am\u201311pm(Mon-Sun)", "Cost for two": "\u20b9450"}, {"Name": "The Fruit Hut", "Rating": "3.7", "votes": "44", "location": " C 1046, Basement, Sushant Lok, Gurgaon", "Cuisines: ": "Healthy Food", "hours": "6am\u201310pm(Mon,Tue,Wed,Thu,Sat,Sun),6am\u2013...", "Cost for two": "\u20b9250"}, {"Name": "Amritsari Express", "Rating": "-", "votes": "44", "location": " Unit 8, Ardee Mall, Ardee City, Sector 43, Gurgaon", "Cuisines: ": "North Indian", "hours": "10am\u201311pm(Mon-Sun)", "Cost for two": "\u20b9600"}, {"Name": "Towns Kitchen", "Rating": "3.5", "votes": "34", "location": " Plot 2, Wazirabad, Sector 52, Near Sector 53, Gurgaon", "Cuisines: ": "North Indian, Chinese", "hours": "12noon\u20131am(Mon-Sun)", "Cost for two": "\u20b9500"}, {"Name": "Bikaner", "Rating": "3.6", "votes": "70", "location": " Shop 1, C 8/1, Sai Baba Chowk, Sector 7, Rohini, New Delhi", "Cuisines: ": "Mithai, Street Food", "hours": "8am\u201310pm(Mon-Sun)", "Cost for two": "\u20b9200"}, {"Name": "Flavours From Heaven", "Rating": "3.6", "votes": "50", "location": " Building 6, Laxmi Garden, Near Ramesh Nagar Metro Station, Kirti Nagar, New Delhi", "Cuisines: ": "Chinese, North Indian", "hours": "12:30pm\u201311:30pm(Mon-Sun)", "Cost for two": "\u20b9700"}, {"Name": "Om Bikanerwala", "Rating": "3.2", "votes": "38", "location": " G 5 & 6, Manish Chamber -1, LSC, Near Bal Bharti School, Sector 12, Dwarka", "Cuisines: ": "Mithai, Street Food, South Indian, Chinese", "hours": "9am\u201310pm(Mon-Sun)", "Cost for two": "\u20b9200"}, {"Name": "MGM South Indian Restaurant", "Rating": "3.4", "votes": "21", "location": " Shop A-3/1 & 3/3, Old Som Bazar Road, Mahavir Enclave, Palam - Dabri Road, Palam, New Delhi", "Cuisines: ": "South Indian, Kerala", "hours": "10am\u201310pm(Mon-Sun)", "Cost for two": "\u20b9300"}]