[{"Name": "Shree Hari Om Deluxe Rasoi", "Rating": "3.5", "votes": "35", "location": " 568/7, Near Shiv Murti, Old Railway Road, Gurgaon", "Cuisines: ": "North Indian", "hours": "11am\u20134pm,6:30pm\u201311pm(Mon-Sun)", "Cost for two": "\u20b9350"}, {"Name": "Metro Fast Food", "Rating": "3.9", "votes": "128", "location": " LSC 1, Sector 5, Dwarka, New Delhi", "Cuisines: ": "Chinese", "hours": "12noon\u201310:30pm(Mon-Sun)", "Cost for two": "\u20b9450"}, {"Name": "Gayway Bakery", "Rating": "4.0", "votes": "257", "location": " J-76, Ground Floor, Main Market, Rajouri Garden, New Delhi", "Cuisines: ": "Bakery, Fast Food", "hours": "9:30am\u201310pm(Mon-Sun)", "Cost for two": "\u20b9300"}, {"Name": "Baker's Stop", "Rating": "3.9", "votes": "251", "location": " 209, Harsh Vihar, Pitampura, New Delhi", "Cuisines: ": "Bakery, Fast Food, Desserts", "hours": "10am\u201310pm(Mon-Sun)", "Cost for two": "\u20b9350"}, {"Name": "House Of Combos", "Rating": "3.5", "votes": "21", "location": " Shop 305, Alaknanda Plaza, Plot 4,  Shalimar Bagh, New Delhi", "Cuisines: ": "Continental, Chinese", "hours": "3pm\u201312midnight(Mon-Sun)", "Cost for two": "\u20b9500"}, {"Name": "Unique Tasty Bites", "Rating": "3.7", "votes": "84", "location": " Near Surya Continental Hotel, Rajouri Garden, New Delhi", "Cuisines: ": "Chinese", "hours": "11:30am\u201310:30pm(Mon-Sun)", "Cost for two": "\u20b9250"}, {"Name": "Kebabs & Rolls", "Rating": "4.0", "votes": "36", "location": " F344/1, Tara Bhawan, Near Central Bank Of India, Lado Sarai, New Delhi", "Cuisines: ": "North Indian, Biryani", "hours": "11am\u201311pm(Mon-Sun)", "Cost for two": "\u20b9600"}, {"Name": "Cafe Green", "Rating": "3.8", "votes": "180", "location": " Shop 145, 1st Floor, Market 2, Chittaranjan Park, New Delhi", "Cuisines: ": "Cafe, Fast Food", "hours": "9am\u201311pm(Mon-Sun)", "Cost for two": "\u20b9500"}, {"Name": "Fast And Fresh", "Rating": "NEW", "votes": "180", "location": " Shop G14, Plot 1 & 2, LSC Block G, Kondli Gharoli, Mayur Vihar Phase 3, Delhi", "Cuisines: ": "North Indian, Chinese", "hours": "11am\u201311pm(Mon-Sun)", "Cost for two": "\u20b9450"}, {"Name": "Nirula's Ice Cream", "Rating": "4.1", "votes": "229", "location": " E-564, Greater Kailash (GK) 2, New Delhi", "Cuisines: ": "Ice Cream, Beverages, Desserts, Fast Food", "hours": "11am\u20131am(Mon-Sun)", "Cost for two": "\u20b9600"}, {"Name": "Richmond Pizza & Pasta", "Rating": "4.2", "votes": "104", "location": " Delivery Only", "Cuisines: ": "Pizza, Fast Food, Desserts, Beverages", "hours": "11am\u201311pm(Mon-Sun)", "Cost for two": "\u20b9700"}, {"Name": "Delish Food Town", "Rating": "3.6", "votes": "45", "location": " SB 4-11, Jaipuria Sunrise Plaza Mall, Ahinsa Khand-1, Indirapuram, Ghaziabad", "Cuisines: ": "North Indian, Chinese", "hours": "11am\u201311pm(Mon-Sun)", "Cost for two": "\u20b9700"}, {"Name": "Juneja Sweets", "Rating": "3.8", "votes": "231", "location": " C-22, Amar Colony Main Market, Amar Colony, New Delhi", "Cuisines: ": "North Indian, Street Food, Chinese, Mithai, South Indian", "hours": "8am\u201310pm(Mon-Sun)", "Cost for two": "\u20b9250"}, {"Name": "Alam Muradabadi Chicken Corner", "Rating": "3.5", "votes": "32", "location": " D 151, Dashghara Mohalla Ghari, Near Prakash Mohalla, Kudedan, East of Kailash, New Delhi", "Cuisines: ": "Afghan, North Indian", "hours": "11am\u201311pm(Mon-Sun)", "Cost for two": "\u20b9350"}, {"Name": "Chew Peekaboo", "Rating": "3.6", "votes": "14", "location": " Shop 4, DLF Mall Of India, Sector 18, Noida", "Cuisines: ": "Bakery, Desserts, Fast Food", "hours": "11am\u201311pm(Mon-Thu),11am\u201311:30pm(Fri-Sun)", "Cost for two": "\u20b9400"}]