[{"Name": "Ashirbad Snack Corner", "Rating": "3.8", "votes": "129", "location": " Shop 3, Market 3, Chittaranjan Park, New Delhi", "Cuisines: ": "North Indian, Rolls", "hours": "10am\u201310:30pm(Mon-Sun)", "Cost for two": "\u20b9200"}, {"Name": "Taste Of Champaran", "Rating": "3.8", "votes": "81", "location": " L-34, Street 8, Som Bazar Road, Rajapuri, Uttam Nagar, New Delhi", "Cuisines: ": "Malwani", "hours": "12noon\u20131am(Mon-Sun)", "Cost for two": "\u20b9400"}, {"Name": "Road Through Desert", "Rating": "3.3", "votes": "4", "location": " Shop 2, Near Hilton Garden Hotel, Baani Square, Sector 50, Gurgaon", "Cuisines: ": "Bakery", "hours": "10am\u201311pm(Mon-Sun)", "Cost for two": "\u20b9250"}, {"Name": "Bon Appetite", "Rating": "3.6", "votes": "45", "location": " Plot 1, Opposite 6/34, Double Story, Vijay Nagar, New Delhi", "Cuisines: ": "North Indian, Chinese", "hours": "5pm\u20133am(Mon-Sun)", "Cost for two": "\u20b9350"}, {"Name": "Vaishnav Chat & Caterers", "Rating": "3.7", "votes": "152", "location": " 2 & 3, Rohit Kunj Market, Pitampura, New Delhi", "Cuisines: ": "Street Food, North Indian", "hours": "1pm\u20134pm,6:30pm\u201310:30pm(Mon-Sun)", "Cost for two": "\u20b9350"}, {"Name": "Silver Spoons", "Rating": "3.7", "votes": "356", "location": " A-107, Double Storey, Kalkaji, New Delhi", "Cuisines: ": "North Indian, Fast Food", "hours": "11am\u201311pm(Mon-Sun)", "Cost for two": "\u20b9600"}, {"Name": "Red Chilli Corner", "Rating": "3.0", "votes": "9", "location": " A12, Gali 4, Kanti Nagar Extension, Kanti Nagar, Shahdara, New Delhi", "Cuisines: ": "Chinese, Fast Food", "hours": "1pm\u201311pm(Mon-Sun)", "Cost for two": "\u20b9200"}, {"Name": "Chinese Chatoray", "Rating": "NEW", "votes": "9", "location": " B-210, Supermart 1, DLF Phase 4, Gurgaon", "Cuisines: ": "Chinese, Fast Food", "hours": "11am\u201311pm(Mon-Sun)", "Cost for two": "\u20b9400"}, {"Name": "Fire 'N' Ice", "Rating": "3.4", "votes": "207", "location": " 16, Pankaj Arcade, 3rd Floor, Sector 10, Dwarka, New Delhi", "Cuisines: ": "North Indian, Chinese, Mughlai", "hours": "11am\u201311:30pm(Mon-Sun)", "Cost for two": "\u20b9900"}, {"Name": "My Healthy Dhaba", "Rating": "3.3", "votes": "4", "location": " Hari Nagar, Subhash Nagar, New Delhi", "Cuisines: ": "North Indian", "hours": "6pm\u20132am(Mon-Sun)", "Cost for two": "\u20b9300"}, {"Name": "Kabab King", "Rating": "3.9", "votes": "58", "location": " Shop 1 & 2, Plot 4, Shiv Puri, Near Labour Chowk, Geeta Colony, New Delhi", "Cuisines: ": "North Indian, Rolls", "hours": "1:30pm\u201311:30pm(Mon,Wed,Thu,Fri,Sat,Sun)...", "Cost for two": "\u20b9450"}, {"Name": "Deep Chicken Point", "Rating": "3.3", "votes": "89", "location": " Near Radha Krishna Mandir, Dilshad Garden, New Delhi", "Cuisines: ": "North Indian, Mughlai", "hours": "12noon\u20133:30pm,7pm\u201311pm(Mon-Sun)", "Cost for two": "\u20b9600"}, {"Name": "Everest Momos & Chinese Fast Food", "Rating": "4.2", "votes": "241", "location": " Central Market, Punjabi Bagh, New Delhi", "Cuisines: ": "Chinese, Momos", "hours": "11am\u201310pm(Mon-Sun)", "Cost for two": "\u20b9350"}, {"Name": "Ds Dosa Factory", "Rating": "3.8", "votes": "180", "location": " 211, Block C, Jhilmil Colony, Phase 2 Road, Vivek Vihar, New Delhi", "Cuisines: ": "South Indian, Chinese, Beverages, Desserts", "hours": "11am\u201311pm(Mon-Sun)", "Cost for two": "\u20b9650"}, {"Name": "Pizza Burger Zone", "Rating": "3.8", "votes": "72", "location": " C-464, Street 7, Hanuman Mandir Wali Gali, Ashok Nagar, Shahdara, New Delhi", "Cuisines: ": "Pizza, Fast Food", "hours": "10am\u201311pm(Mon-Sun)", "Cost for two": "\u20b9300"}]