[{"Name": "Grover Eating Point", "Rating": "3.2", "votes": "8", "location": " 1476, Deewan Hall Road, Chandni Chowk, New Delhi", "Cuisines: ": "North Indian", "hours": "9am\u201311pm(Mon-Sun)", "Cost for two": "\u20b9300"}, {"Name": "Aunty's Kitchen", "Rating": "3.4", "votes": "10", "location": " Shop 7 & 8, Golcha Cinema, Daryaganj, New Delhi", "Cuisines: ": "North Indian", "hours": "11am\u20133pm(Mon-Sun)", "Cost for two": "\u20b9100"}, {"Name": "Ashok & Ashok Dhaba", "Rating": "-", "votes": "10", "location": " 5820/42, Ahata Kidara Road, Basti Harphool Singh, Chandni Chowk, New Delhi", "Cuisines: ": "Biryani, Mughlai", "hours": "1pm\u20133:30pm(Mon-Sun)", "Cost for two": "\u20b9600"}, {"Name": "Fry Centre", "Rating": "3.4", "votes": "13", "location": " 5035, Netaji Subhash Marg, Daryaganj, New Delhi", "Cuisines: ": "North Indian", "hours": "5pm\u201310:30pm(Mon,Wed,Thu,Fri,Sat,Sun)...", "Cost for two": "\u20b9200"}, {"Name": "Pizza Bites", "Rating": "-", "votes": "13", "location": " T 296, Ahata Kidara, Aal Quresh Masjid, Near Filmistan Hall, Karol Bagh, New Delhi", "Cuisines: ": "Pizza, Fast Food", "hours": "12noon\u201310:30pm(Mon-Sun)", "Cost for two": "\u20b9300"}, {"Name": "Kashmiri Mughal Darbar", "Rating": "-", "votes": "13", "location": " Opposite Jama Masjid Gate 1, Jama Masjid, New Delhi", "Cuisines: ": "Kashmiri, Mughlai", "hours": "9:30am\u201311pm(Mon-Sun)", "Cost for two": "\u20b9600"}, {"Name": "Roll Box", "Rating": "-", "votes": "13", "location": " Near Jhandewalan Metro Station, Karol Bagh, New Delhi", "Cuisines: ": "Rolls", "hours": "4pm\u201310:30pm(Mon-Sun)", "Cost for two": "\u20b9200"}, {"Name": "A One Chicken Corner", "Rating": "NEW", "votes": "13", "location": " Near Jhandewalan Metro Station, Opposite Yes Bank, Jhandewalan, Karol Bagh, New Delhi.", "Cuisines: ": "Biryani", "hours": "10am\u20139pm(Mon-Sun)", "Cost for two": "\u20b9250"}, {"Name": "Bhasin Bakers & Confectionery", "Rating": "NEW", "votes": "13", "location": " 28, Desh Bandhu Gupta Market, Karol Bagh, New Delhi", "Cuisines: ": "Bakery", "hours": "11am\u201310pm(Mon-Sun)", "Cost for two": "\u20b9300"}, {"Name": "Asli Habshi Halwa Sohan", "Rating": "-", "votes": "13", "location": " 1368, Ballimaran Road, Balli Maran, Baradari, Chandni Chowk, New Delhi", "Cuisines: ": "Mithai", "hours": "11am\u201311pm(Mon-Sun)", "Cost for two": "\u20b9200"}, {"Name": "Yaseen Hotel", "Rating": "-", "votes": "13", "location": " Opposite Gate 1, Matia Mahal Road, Meena Bazaar, Near Jama Masjid, New Delhi", "Cuisines: ": "Mughlai", "hours": "7am\u201311pm(Mon-Sun)", "Cost for two": "\u20b9300"}, {"Name": "Mahalaxmi Mishthan Bhandar", "Rating": "3.7", "votes": "50", "location": " 659, Church Mission Road, Fatehpuri, Chandni Chowk, New Delhi", "Cuisines: ": "Mithai, Street Food", "hours": "6am\u20138pm(Mon-Sun)", "Cost for two": "\u20b9350"}, {"Name": "Picazzo", "Rating": "4.4", "votes": "186", "location": " 17/2864, 1st Floor, Beadonpura, Karol Bagh, New Delhi", "Cuisines: ": "Pizza, Fast Food", "hours": "12noon\u20132am(Mon-Sun)", "Cost for two": "\u20b9400"}, {"Name": "Bishan Swaroop Chaat Bhandar", "Rating": "3.8", "votes": "63", "location": " 1421, Near Ashish Medicos, Chandni Chowk, New Delhi", "Cuisines: ": "Street Food", "hours": "10am\u20139pm(Mon-Sun)", "Cost for two": "\u20b9400"}, {"Name": "Om Namkeen Bakers & Confectioners", "Rating": "-", "votes": "63", "location": " G-1/32, Park View Plaza, D B Gupta Market, Karol Bagh, New Delhi", "Cuisines: ": "Bakery", "hours": "8am\u201311pm(Mon-Sun)", "Cost for two": "\u20b9250"}]