[{"Name": "Eat N Joy", "Rating": "3.5", "votes": "112", "location": " Shop 5L-35, NIT, Faridabad", "Cuisines: ": "Chinese, Fast Food, South Indian", "hours": "10:30am\u201310:30pm(Mon-Sun)", "Cost for two": "\u20b9300"}, {"Name": "Al Nawab Chicken Biryani", "Rating": "2.9", "votes": "8", "location": " Shop 4/1, Aghapur, Gautam Buddha Nagar, Sector 41, Noida", "Cuisines: ": "Biryani, Mughlai", "hours": "24Hours(Mon-Sun)", "Cost for two": "\u20b9400"}, {"Name": "Al-Karim Chicken Corner", "Rating": "NEW", "votes": "8", "location": " Shop 43, Ground Floor, Assotech Business Cresterra, Sector 135, Noida", "Cuisines: ": "Biryani, North Indian", "hours": "11am\u201312midnight(Mon-Sun)", "Cost for two": "\u20b9350"}, {"Name": "Stack 9", "Rating": "3.9", "votes": "163", "location": " Shop 13, DDA Market, Hudson Lane, Delhi University-GTB Nagar, New Delhi", "Cuisines: ": "Fast Food, Beverages", "hours": "11am\u201311pm(Mon-Sun)", "Cost for two": "\u20b9400"}, {"Name": "Zambar Tiffins", "Rating": "3.5", "votes": "32", "location": " Shop 6, Third Floor, Food Court, Food Union, Ambience Mall, DLF Phase 3, Gurgaon", "Cuisines: ": "South Indian", "hours": "11am\u201310:30pm(Mon-Sun)", "Cost for two": "\u20b9450"}, {"Name": "Raifu Tei - Dia Park Premier", "Rating": "3.8", "votes": "54", "location": " Dia Park Premier, SCO 353-357, Main Market, Sector 29, Gurgaon", "Cuisines: ": "Japanese", "hours": "12noon\u20132pm,6pm\u201310:30pm(Mon-Sun)", "Cost for two": "\u20b91,200"}, {"Name": "South Janta Canteen", "Rating": "-", "votes": "54", "location": " C-17, 1st Floor, Amar Colony, Main Market, Lajpat Nagar 4, New Delhi", "Cuisines: ": "South Indian", "hours": "7am\u20131am(Mon-Sun)", "Cost for two": "\u20b9450"}, {"Name": "Hot & Chilly Point", "Rating": "3.0", "votes": "8", "location": " 1/7219, Near Hanuman Mandir, Shivaji Park, Main Babarpur Road, Shahdara, New Delhi", "Cuisines: ": "Chinese, Fast Food, South Indian", "hours": "12noon\u201310pm(Mon-Sun)", "Cost for two": "\u20b9200"}, {"Name": "9 Eleven", "Rating": "4.1", "votes": "28", "location": " 2125/166, Ganesh Pura, Tri Nagar, Lawrence Road, New Delhi", "Cuisines: ": "Fast Food, Chinese, Italian", "hours": "11am\u201310:30pm(Mon-Sun)", "Cost for two": "\u20b9200"}, {"Name": "Doughlicious", "Rating": "4.0", "votes": "146", "location": " D-32, Lower Ground Floor, Sushant Shopping Arcade, Phase 1, Sushant Lok, Gurgaon", "Cuisines: ": "Bakery, Desserts, Fast Food, Beverages", "hours": "2pm\u20132am(Mon-Sun)", "Cost for two": "\u20b9500"}, {"Name": "Cake Point", "Rating": "3.5", "votes": "24", "location": " Delivery Only", "Cuisines: ": "Bakery", "hours": "9am\u20137pm(Mon-Sun)", "Cost for two": "\u20b9300"}, {"Name": "My 100 Rupee Meal", "Rating": "3.5", "votes": "19", "location": " O 11/B, Ground Floor, Lajpat Nagar 2,New Delhi", "Cuisines: ": "North Indian", "hours": "8am\u201311pm(Mon-Sun)", "Cost for two": "\u20b9300"}, {"Name": "Refuel Kitchen", "Rating": "4.0", "votes": "63", "location": " G 16/9, Backside, Block G 16, Malviya Nagar, New Delhi", "Cuisines: ": "Continental, Healthy Food", "hours": "11am\u201311pm(Mon-Sun)", "Cost for two": "\u20b9350"}, {"Name": "Dosa Hub", "Rating": "3.5", "votes": "22", "location": " RZ-61/A18, Ground Floor, Gali 10, Vashist Park, Dwarka, Janakpuri, New Delhi", "Cuisines: ": "South Indian, Chinese", "hours": "11am\u201310:30pm(Mon-Sun)", "Cost for two": "\u20b9150"}, {"Name": "Sholey Shawarma", "Rating": "NEW", "votes": "22", "location": " 24, Ground Floor, Delhi University-GTB Nagar, New Delhi", "Cuisines: ": "North Indian, Lebanese, Beverages", "hours": "12noon\u201311pm(Mon-Sun)", "Cost for two": "\u20b9350"}]