[{"Name": "The Eating Point", "Rating": "3.3", "votes": "11", "location": " KH 137/3/2, A2, West Sant Nagar, Burari, Azadpur, New Delhi", "Cuisines: ": "Chinese, Continental", "hours": "11am\u201310:30pm(Mon-Sun)", "Cost for two": "\u20b9200"}, {"Name": "AL Zaika Chicken Biryani", "Rating": "-", "votes": "11", "location": " Shop 108, 9-10, Housing Board Colony, Divinding Road, Sector 10, Faridabad", "Cuisines: ": "Biryani", "hours": "10am\u201310pm(Mon-Sun)", "Cost for two": "\u20b9200"}, {"Name": "Swami Ji New Madras Cafe", "Rating": "NEW", "votes": "11", "location": " C 3, Yamuna Vihar, Shahdara, New Delhi", "Cuisines: ": "South Indian", "hours": "10am\u201311pm(Mon-Sun)", "Cost for two": "\u20b9100"}, {"Name": "Kittu Chinese Food", "Rating": "3.3", "votes": "12", "location": " D 1/1, Sector 15, Rohini, New Delhi", "Cuisines: ": "Chinese", "hours": "10:30am\u201310pm(Mon-Sun)", "Cost for two": "\u20b9400"}, {"Name": "Panna Sweets & Restaurant", "Rating": "3.6", "votes": "35", "location": " 116 A, Main Vikas Marg, Opposite Metro Pillar 34, Shakarpur, New Delhi", "Cuisines: ": "Mithai, North Indian, South Indian, Chinese", "hours": "7am\u20134am(Mon-Sun)", "Cost for two": "\u20b9550"}, {"Name": "Nik's The Punjabi Cafe", "Rating": "3.6", "votes": "39", "location": " 1A-129, Lower Ground Floor, Anand Tower, Nathi Chowk, NIT, Faridabad", "Cuisines: ": "Cafe, Chinese, North Indian", "hours": "10am\u201310pm(Mon-Sat),12noon\u201310pm(Sun)", "Cost for two": "\u20b9400"}, {"Name": "Zaika Purani Dilli Ka", "Rating": "3.4", "votes": "25", "location": " Shop-1, Amrit Puram, Jagat Fram, Near H S Plaza, Gautam Budh Nagar, Greater Noida", "Cuisines: ": "North Indian, Mughlai, Fast Food, Beverages", "hours": "9:30am\u201311pm(Mon-Sun)", "Cost for two": "\u20b91,100"}, {"Name": "Rajdharam", "Rating": "3.5", "votes": "210", "location": " Plot 54 & 55, Pocket 16, Sector 24, Rohini, New Delhi", "Cuisines: ": "North Indian, Chinese, South Indian", "hours": "11am\u201311pm(Mon-Sun)", "Cost for two": "\u20b9450"}, {"Name": "Sidewalk - Hyatt Regency", "Rating": "3.9", "votes": "123", "location": " Hyatt Regency, Bhikaji Cama Place, New Delhi", "Cuisines: ": "Bakery, Cafe", "hours": "8:30am\u201310pm(Mon-Tue),8:30am\u201310:30pm(Wed-Sun)", "Cost for two": "\u20b91,000"}, {"Name": "Variety Chaap Hub", "Rating": "3.1", "votes": "4", "location": " A 1/25, Ground Floor, Sector 16, Near Crime Branch, Rohini, New Delhi", "Cuisines: ": "North Indian", "hours": "5pm\u201311pm(Mon-Sun)", "Cost for two": "\u20b9300"}, {"Name": "Burger Joint", "Rating": "3.7", "votes": "43", "location": " Jaipuria Sunrise Plaza, Ahinsa Khand 1, Indirapuram, Ghaziabad", "Cuisines: ": "Fast Food", "hours": "11:30am\u201311:30pm(Mon-Sun)", "Cost for two": "\u20b9300"}, {"Name": "Raj Sweets", "Rating": "3.2", "votes": "9", "location": " 1955, Main Road, Near Metro Pillar 229, Tri Nagar, Lawrence Road, New Delhi", "Cuisines: ": "Mithai", "hours": "8:30am\u201311pm(Mon-Sun)", "Cost for two": "\u20b9300"}, {"Name": "Khana Khazaanaa", "Rating": "3.4", "votes": "16", "location": " 2881, Floor 2, Sant Nagar, Rani Bagh Pitampura, New Delhi", "Cuisines: ": "North Indian", "hours": "8am\u20134am(Mon-Sun)", "Cost for two": "\u20b9250"}, {"Name": "Sethi Ice Cream", "Rating": "3.7", "votes": "63", "location": " 6/28, Subhash Nagar, New Delhi", "Cuisines: ": "Ice Cream", "hours": "4pm\u20132am(Mon-Sun)", "Cost for two": "\u20b9400"}, {"Name": "Del 41", "Rating": "3.3", "votes": "28", "location": " Plot 5, Ground Floor, Near Shivam Hospital, Najafgarh Road, Nangloi, New Delhi", "Cuisines: ": "Chinese, North Indian", "hours": "11am\u201311pm(Mon-Sun)", "Cost for two": "\u20b9600"}]