[{"Name": "Swacch & Testy Food", "Rating": "NEW", "location": " Shop 1, F-54, Shri Satguru Sahibji Marg, JJ Colony, Moti Nagar, New Delhi", "Cuisines: ": "Fast Food, Rolls, Chinese", "hours": "11am\u201311pm(Mon-Sun)", "Cost for two": "\u20b9200"}, {"Name": "Veggie Grillz", "Rating": "3.6", "location": " F 740, Krishna Mandir Marg, Ganesh Nagar, Shakarpur, New Delhi", "Cuisines: ": "Fast Food, Pizza", "hours": "11:30am\u20134am(Mon-Sun)", "Cost for two": "\u20b9500", "votes": "75"}, {"Name": "Revival Dawat", "Rating": "3.5", "location": " 3, Lower Ground Floor, Hotmart The Aranya, Sector 119, Near Sector 72, Noida", "Cuisines: ": "North Indian, Mughlai, Chinese", "hours": "12noon\u201311pm(Mon-Sun)", "Cost for two": "\u20b9550", "votes": "24"}, {"Name": "Burgers And Pizza Hub", "Rating": "NEW", "location": " 17/1, Shop 1, Geeta Colony, New Delhi", "Cuisines: ": "Fast Food", "hours": "4pm\u20134am(Mon-Sun)", "Cost for two": "\u20b9200", "votes": "24"}, {"Name": "Hotel Krishna Sagar", "Rating": "3.8", "location": " C 48, RDC, Raj Nagar, Ghaziabad", "Cuisines: ": "South Indian, North Indian, Chinese, Fast Food", "hours": "8am\u201310:30pm(Mon-Sun)", "Cost for two": "\u20b9600", "votes": "469"}, {"Name": "The Cafe 99", "Rating": "3.8", "location": " Plot 1, Vipin Garden, Opposite Metro Pillar 799, Uttam Nagar, New Delhi", "Cuisines: ": "North Indian, Chinese", "hours": "24Hours(Mon-Sun)", "Cost for two": "\u20b9400", "votes": "36"}, {"Name": "Paratha Point", "Rating": "3.2", "location": " Plot 220, Indra Colony 1, Sector 52, Near Sector 53, Gurgaon", "Cuisines: ": "North Indian", "hours": "7am\u20134am(Mon-Sun)", "Cost for two": "\u20b9250", "votes": "6"}, {"Name": "Dili's Chawla Chik Inn", "Rating": "3.2", "location": " 2/81, Club Road, Punjabi Bagh, New Delhi", "Cuisines: ": "North Indian, Rolls", "hours": "6:30pm\u201311pm(Mon,Wed,Thu,Fri,Sat,Sun)...", "Cost for two": "\u20b9650", "votes": "91"}, {"Name": "Chatkara", "Rating": "3.1", "location": " Chhoti Sabji Mandi, Janakpuri, New Delhi", "Cuisines: ": "Street Food", "hours": "4pm\u201310pm(Mon-Sun)", "Cost for two": "\u20b9100", "votes": "4"}, {"Name": "Slice of Italy", "Rating": "3.6", "location": " Plot 5, Shop 113-116, Krishna Mall, Sector 12 Dwarka", "Cuisines: ": "Pizza, Bakery", "hours": "10am\u20131am(Mon-Sun)", "Cost for two": "\u20b9500", "votes": "538"}, {"Name": "Shri Ganesh Corner", "Rating": "3.8", "location": " Bikram South Office, Near Lalita Park, Laxmi Nagar, New Delhi", "Cuisines: ": "North Indian, Mithai", "hours": "10am\u201310pm(Mon-Sun)", "Cost for two": "\u20b9300", "votes": "153"}, {"Name": "Sikkim Fast Food", "Rating": "3.4", "location": " 84, Main Market, Sector 15, Gurgaon", "Cuisines: ": "North Indian, Chinese", "hours": "11am\u201310:30pm(Mon-Sun)", "Cost for two": "\u20b9400", "votes": "160"}, {"Name": "Cake Spot", "Rating": "3.2", "location": " A11, Ground Floor, Omaxe City Center, Sector 49, Gurgaon", "Cuisines: ": "Bakery, Desserts", "hours": "10am\u201310pm(Mon-Sun)", "Cost for two": "\u20b9350", "votes": "8"}, {"Name": "Bhape Di Hatti", "Rating": "3.8", "location": " 6657, Main Road, Gandhi Nagar, Krishna Nagar, New Delhi", "Cuisines: ": "North Indian", "hours": "8am\u20136pm(Mon-Sun)", "Cost for two": "\u20b9200", "votes": "76"}, {"Name": "Cafe Munchin Knights", "Rating": "3.4", "location": " Plot 88, C 2/10, Pharma Apartment, IP Extension, New Delhi", "Cuisines: ": "Fast Food, North Indian, Beverages", "hours": "11am\u20134am(Mon-Sun)", "Cost for two": "\u20b9350", "votes": "26"}]