[{"Name": "QRO Gourmeteriia BY DARK HOUSE KAFE", "Rating": "4.0", "votes": "607", "location": " 2, First Floor, Benito Juarez Marg, Opposite Sri Venkateshwara College, Satyaniketan, New Delhi", "Cuisines: ": "Cafe, Beverages, Italian, Chinese", "hours": "11am\u20132am(Mon-Sun)", "Cost for two": "\u20b9600"}, {"Name": "Punjabi Tadka", "Rating": "3.3", "votes": "86", "location": " 6, Under Grounder 64, Ansal Chamber 2, Bhikaji Cama Place, New Delhi", "Cuisines: ": "North Indian, Chinese", "hours": "10am\u20135:30pm(Mon-Sat),Closed(Sun)", "Cost for two": "\u20b9350"}, {"Name": "Vijay Samose Wala", "Rating": "-", "votes": "86", "location": " Aggarwal Cyber Plaza 2, Lala Jagat Narayan Marg, Pitampura, Netaji Subash Place, New Delhi", "Cuisines: ": "Street Food, North Indian", "hours": "8am\u20139pm(Mon-Sun)", "Cost for two": "\u20b9200"}, {"Name": "Chinese Patola", "Rating": "NEW", "votes": "86", "location": " 308/26, Gali 7, Jyoti Park, Near Sharma Furniture, Sector 7, Gurgaon", "Cuisines: ": "Chinese", "hours": "2pm\u201310pm(Mon-Sun)", "Cost for two": "\u20b9250"}, {"Name": "Diet Cravings", "Rating": "3.5", "votes": "21", "location": " Shop 108, Near 9/10 Dividing Road, Sector 10, Faridabad", "Cuisines: ": "Healthy Food, Fast Food", "hours": "8:30am\u201312:30am(Mon-Sun)", "Cost for two": "\u20b9500"}, {"Name": "Pahadi Caterers", "Rating": "3.8", "votes": "123", "location": " Shop 6, Krishna Market, Opposite Desh Bandhu College, Kalkaji, New Delhi", "Cuisines: ": "North Indian, Chinese, Momos", "hours": "11am\u201311pm(Mon-Sun)", "Cost for two": "\u20b9450"}, {"Name": "Palatini Pizzeria", "Rating": "3.6", "votes": "26", "location": " 5/48, Shopping Centre, Malcha Marg, Chanakyapuri, New Delhi", "Cuisines: ": "Pizza", "hours": "12noon\u201310pm(Mon,Wed,Thu,Fri,Sat,Sun)...", "Cost for two": "\u20b9450"}, {"Name": "Dawat-E-Biryani", "Rating": "3.4", "votes": "50", "location": " D-137, Gautam Nagar, Gulmohar Park Road, Hauz Khas, New Delhi", "Cuisines: ": "Biryani, North Indian", "hours": "11am\u201311pm(Mon-Sun)", "Cost for two": "\u20b9400"}, {"Name": "Raja Hotel", "Rating": "-", "votes": "50", "location": " Dabra Village, Techzone 2, Near Bennet University, Jaypee Greens, Greater Noida", "Cuisines: ": "North Indian", "hours": "11am\u201311pm(Mon-Sun)", "Cost for two": "\u20b9400"}, {"Name": "Apna Dhaba New", "Rating": "3.8", "votes": "863", "location": " GG-1, 28-30, Vikaspuri, New Delhi", "Cuisines: ": "North Indian", "hours": "12noon\u20134pm,7pm\u201312midnight(Mon-Sun)", "Cost for two": "\u20b9300"}, {"Name": "Hong Kong", "Rating": "3.6", "votes": "58", "location": " D-14, Opposite Central School, Sector 8, Rohini, New Delhi", "Cuisines: ": "Chinese", "hours": "10am\u201310:30pm(Mon-Sun)", "Cost for two": "\u20b9400"}, {"Name": "Red Moon Bakery", "Rating": "3.7", "votes": "73", "location": " Delivery Only", "Cuisines: ": "Bakery, Desserts", "hours": "9am\u20137pm(Mon-Sat),Closed(Sun)", "Cost for two": "\u20b9550"}, {"Name": "Country Curries", "Rating": "4.2", "votes": "303", "location": " Delivery Only", "Cuisines: ": "North Indian, Mughlai, Biryani", "hours": "12noon\u20134pm,6pm\u20134am(Mon-Sun)", "Cost for two": "\u20b9700"}, {"Name": "Uncle's Treat", "Rating": "2.6", "votes": "86", "location": " B-5/9, Sector 31, Noida", "Cuisines: ": "Chinese, Momos", "hours": "12noon\u201310:30pm(Mon-Sun)", "Cost for two": "\u20b9400"}, {"Name": "Moradabadi Biryani Corner", "Rating": "3.6", "votes": "36", "location": " Shop 41, B Block, Main Market, Sector 62, Noida", "Cuisines: ": "Biryani, North Indian", "hours": "11am\u201311pm(Mon-Sun)", "Cost for two": "\u20b9400"}]