[{"Name": "Aashirwad Fine Dining Restaurant & Sweets", "Rating": "3.2", "votes": "92", "location": " E 10, Main 100 Feet Road, West Jyoti Nagar, Shahdara, New Delhi", "Cuisines: ": "North Indian, South Indian, Chinese, Mithai", "hours": "11am\u201310:30pm(Mon-Sun)", "Cost for two": "\u20b9600"}, {"Name": "Tasty Tasty", "Rating": "3.5", "votes": "30", "location": " 1/7226, Near Hanuman Mandir, Shivaji Park, Shahdara, New Delhi", "Cuisines: ": "North Indian", "hours": "9am\u201311:30pm(Mon-Sun)", "Cost for two": "\u20b9250"}, {"Name": "Pizza Wins", "Rating": "3.1", "votes": "19", "location": " MM 140, MM Road, Ankur Vihar, Shahdara, New Delhi", "Cuisines: ": "Pizza", "hours": "10am\u201311pm(Mon-Sun)", "Cost for two": "\u20b9500"}, {"Name": "Kaur's Cafe", "Rating": "3.0", "votes": "4", "location": " U22, Ramesh Nagar Metro Station, Gate 2, Near Pillar 356, Moti Nagar, New Delhi", "Cuisines: ": "Fast Food, North Indian", "hours": "10am\u20139pm(Mon-Sun)", "Cost for two": "\u20b9200"}, {"Name": "Rainbow Bakers", "Rating": "3.3", "votes": "13", "location": " Shop 452/G, Nyay Khand 1, Indirapuram, Ghaziabad", "Cuisines: ": "Bakery", "hours": "8am\u20137pm(Mon-Sun)", "Cost for two": "\u20b9100"}, {"Name": "Handi Masala Restaurant", "Rating": "3.2", "votes": "18", "location": " Shop 3, 177/1, Shokeen Market, IGNOU Road, Neb Sarai, Near Freedom Fighter Enclave Gate 3, Sainik Farms, New Delhi", "Cuisines: ": "North Indian, Chinese, Mughlai", "hours": "11am\u20134am(Mon-Sun)", "Cost for two": "\u20b9500"}, {"Name": "Chawla's Chic Inn", "Rating": "2.8", "votes": "104", "location": " 2, Alaknanda Market, Sector 28, Noida", "Cuisines: ": "North Indian, Mughlai", "hours": "12noon\u20133pm,7pm\u201311pm(Mon-Sun)", "Cost for two": "\u20b9600"}, {"Name": "Kulfiano", "Rating": "3.5", "votes": "36", "location": " The Grand Venice Mall, Jaypee Greens, Noida", "Cuisines: ": "Ice Cream", "hours": "11:30am\u201311pm(Mon-Sun)", "Cost for two": "\u20b9200"}, {"Name": "Dubai Dining", "Rating": "3.8", "votes": "204", "location": " 2509, First Floor, Hudson Lane, Delhi University-GTB Nagar, New Delhi", "Cuisines: ": "North Indian, Italian, Afghan, Turkish, Arabian", "hours": "12noon\u201311pm(Mon-Sun)", "Cost for two": "\u20b91,000"}, {"Name": "Rockers And Shockers", "Rating": "3.7", "votes": "151", "location": " S 19, 2nd Floor, Star City Mall, Mayur Vihar Phase 1, New Delhi", "Cuisines: ": "North Indian, Mughlai, Chinese", "hours": "12noon\u201311pm(Mon-Sun)", "Cost for two": "\u20b91,200"}, {"Name": "Chawla's 2", "Rating": "2.7", "votes": "151", "location": " 402, 4th Floor, Aarza Square, Gaur City 1, Greater Noida", "Cuisines: ": "North Indian, Chinese", "hours": "11am\u201312midnight(Mon-Sun)", "Cost for two": "\u20b9700"}, {"Name": "Spice Market - Kitchen & Bar", "Rating": "4.4", "votes": "63", "location": " 17, D2, Ground Floor, Southern Park, Saket, New Delhi", "Cuisines: ": "Modern Indian, North Indian, Bar Food, Beverages", "hours": "12noon\u20131am(Mon-Sun)", "Cost for two": "\u20b91,500"}, {"Name": "The Nawabi Zaika", "Rating": "NEW", "votes": "63", "location": " S-59, PVC Market, Jwalapuri, Paschim Vihar, New Delhi", "Cuisines: ": "North Indian, Chinese", "hours": "11am\u201311pm(Mon-Sun)", "Cost for two": "\u20b9400"}, {"Name": "3M Chicken Point", "Rating": "NEW", "votes": "63", "location": " Plot 35, Old Roshanpur Extension, B block Main Gurgaon Road, Najafgarh, New Delhi", "Cuisines: ": "North Indian", "hours": "11am\u201312midnight(Mon-Sun)", "Cost for two": "\u20b9600"}, {"Name": "Lebanese Point", "Rating": "3.9", "votes": "458", "location": " GF 7, PVR  Anupam Complex, Saket, New Delhi", "Cuisines: ": "Lebanese, Rolls", "hours": "12:30pm\u201311pm(Mon-Sun)", "Cost for two": "\u20b9500"}]