[{"Name": "Chacha Di Hatti", "Rating": "3.9", "votes": "423", "location": " F Block, Near Mother Dairy, Ramlila Ground, Model Town 2, New Delhi", "Cuisines: ": "Street Food", "hours": "9am\u20133:30pm(Mon-Sun)", "Cost for two": "\u20b9100"}, {"Name": "Kesariya Bakery And Fine Dining Restaurant", "Rating": "3.4", "votes": "14", "location": " C 9/9, Main Road, Yamuna Vihar, Shahdara, New Delhi", "Cuisines: ": "North Indian, South Indian, Chinese, Fast Food, Beverages", "hours": "11am\u201311pm(Mon-Sun)", "Cost for two": "\u20b9500"}, {"Name": "The Meal Bowl", "Rating": "3.3", "votes": "10", "location": " Delivery Only", "Cuisines: ": "North Indian, Asian", "hours": "11am\u201312midnight(Mon-Thu),11am\u20132am(Fri-Sun)", "Cost for two": "\u20b9500"}, {"Name": "The Cuisine of Hyderabad", "Rating": "3.9", "votes": "296", "location": " SD-145, Jaipuria Sunrise Plaza, Ahinsa Khand 1, Indirapuram, Ghaziabad", "Cuisines: ": "Biryani, North Indian", "hours": "11:30am\u201312midnight(Mon,Wed,Thu,Fri,Sat...", "Cost for two": "\u20b9600"}, {"Name": "Polka", "Rating": "3.8", "votes": "347", "location": " F-160, Arya Samaj Road, Uttam Nagar, New Delhi", "Cuisines: ": "Bakery, Fast Food, Chinese", "hours": "10am\u201310pm(Mon-Sun)", "Cost for two": "\u20b9400"}, {"Name": "Momos", "Rating": "-", "votes": "347", "location": " G 150, Near Medanta Hospital, Sector 38, Near Sector 33, Gurgaon", "Cuisines: ": "Momos, Beverages", "hours": "24Hours(Mon-Sun)", "Cost for two": "\u20b9600"}, {"Name": "Bellyful", "Rating": "3.7", "votes": "22", "location": " F-1, 20A, Vikaspuri, New Delhi", "Cuisines: ": "Fast Food, Beverages", "hours": "11am\u201311pm(Mon-Sun)", "Cost for two": "\u20b9350"}, {"Name": "Aggarwal Sweets & Restaurant", "Rating": "3.5", "votes": "36", "location": " L 320, Mahipalpur, New Delhi", "Cuisines: ": "Mithai, North Indian, South Indian, Chinese", "hours": "11am\u20134pm,7pm\u201310:30pm(Mon-Sun)", "Cost for two": "\u20b9400"}, {"Name": "Aggarwal Kachori Wale", "Rating": "4.0", "votes": "121", "location": " Shop 26, X Block, Near Metro Hospital, Sector 12, Noida", "Cuisines: ": "Street Food", "hours": "9am\u20133pm,5pm\u201310pm(Mon-Sun)", "Cost for two": "\u20b9150"}, {"Name": "California Burrito", "Rating": "3.7", "votes": "102", "location": " Candor Techspace, Sector 21, Gurgaon", "Cuisines: ": "Mexican, Tex-Mex, Healthy Food", "hours": "9:30am\u201311pm(Mon-Sat),Closed(Sun)", "Cost for two": "\u20b9500"}, {"Name": "TOS- Team Of SuperChef's", "Rating": "3.4", "votes": "14", "location": " A 19/6, 3rd Floor, Panchsheel Vihar, Malviya Nagar, New Delhi", "Cuisines: ": "North Indian, Chinese", "hours": "24Hours(Mon-Sun)", "Cost for two": "\u20b9300"}, {"Name": "Babu Mosay Restaurant", "Rating": "NEW", "votes": "14", "location": " Shop 17/6, Sarpanch Colony, Mathura Road, NIT, Faridabad", "Cuisines: ": "North Indian", "hours": "11am\u201311pm(Mon-Sun)", "Cost for two": "\u20b9200"}, {"Name": "The Tandoori Junction", "Rating": "3.6", "votes": "42", "location": " Shop 2, Plot 30, Near Media Enclave, Sector 6, Vaishali, Ghaziabad", "Cuisines: ": "Momos, Rolls, North Indian", "hours": "12noon\u201311pm(Mon-Sun)", "Cost for two": "\u20b9400"}, {"Name": "Red Chilli", "Rating": "3.2", "votes": "13", "location": " GT 27, Sector 70, Near Sector 71, Noida", "Cuisines: ": "North Indian, Chinese, Mughlai", "hours": "12noon\u20134pm,7pm\u20132am(Mon-Sun)", "Cost for two": "\u20b9500"}, {"Name": "Delhi Star Food Corner", "Rating": "3.5", "votes": "23", "location": " 1853-A/10 T/F, Govindpuri Extension, Kalkaji, New Delhi", "Cuisines: ": "North Indian", "hours": "8:30am\u20139pm(Mon-Sun)", "Cost for two": "\u20b9250"}]