[{"Name": "The Wonder Cafe", "Rating": "3.5", "votes": "48", "location": " Delivery Only", "Cuisines: ": "Pizza, Burger, Fast Food", "hours": "11am\u20134am(Mon-Sun)", "Cost for two": "\u20b9550"}, {"Name": "Mama's Kitchen", "Rating": "3.0", "votes": "14", "location": " Mahavir Campus, Opposite Gate 2, Rajpur Khurd Extension, Chhatarpur, New Delhi", "Cuisines: ": "North Indian, Chinese", "hours": "11:30am\u201311:30pm(Mon-Sun)", "Cost for two": "\u20b9600"}, {"Name": "Ustaad-E-Mughal", "Rating": "NEW", "votes": "14", "location": " Shop 8, Near City Apartment, Maharaja Agrasen College, DDA Market, Vasundhara Enclave, New Delhi", "Cuisines: ": "North Indian, Mughlai, Chinese", "hours": "11am\u201310:30pm(Mon-Sun)", "Cost for two": "\u20b9400"}, {"Name": "Express Bakers", "Rating": "3.0", "votes": "8", "location": " C 135, Sector 65, Noida", "Cuisines: ": "Bakery", "hours": "11am\u201310:30pm(Mon-Sun)", "Cost for two": "\u20b9300"}, {"Name": "Chaapwale", "Rating": "NEW", "votes": "8", "location": " Gate 1, Opposite Cleo County, Sector 121, Near Sector 71, Noida", "Cuisines: ": "North Indian, Rolls, Momos", "hours": "11:30am\u201311pm(Mon-Sun)", "Cost for two": "\u20b9400"}, {"Name": "Mulchand Burger Wala", "Rating": "3.5", "votes": "26", "location": " Plot 4, Near Chimney Daramshal Chowk, NIT, Faridabad", "Cuisines: ": "Fast Food, Chinese", "hours": "3pm\u201311pm(Mon-Sun)", "Cost for two": "\u20b9250"}, {"Name": "Raj Sweets", "Rating": "-", "votes": "26", "location": " Village Chhijarsi, Gautam Buddha Nagar, Sector 63, Noida", "Cuisines: ": "Mithai, Fast Food", "hours": "11am\u201311pm(Mon-Sun)", "Cost for two": "\u20b9150"}, {"Name": "Yang TZE", "Rating": "NEW", "votes": "26", "location": " Plot 55, Saraswati Kunj, Sector 53, Gurgaon", "Cuisines: ": "Chinese", "hours": "11am\u201311pm(Mon-Sun)", "Cost for two": "\u20b9300"}, {"Name": "Curry Junction", "Rating": "3.8", "votes": "277", "location": " Plot 155, Gali 11-12, Next Water Plant, Opposite D 32, Hoshiyarpur, Sector 51, Noida", "Cuisines: ": "North Indian, Mughlai, Chinese, Fast Food", "hours": "10am\u20133:30pm,7pm\u201311:30pm(Mon-Sun)", "Cost for two": "\u20b9600"}, {"Name": "Frozen Bottle", "Rating": "3.8", "votes": "48", "location": " Shop 34 E, Ground Floor, I Square, Gardenia Glory, Sector 46, Noida", "Cuisines: ": "Beverages, Desserts", "hours": "10am\u201312midnight(Mon-Sun)", "Cost for two": "\u20b9450"}, {"Name": "Pahari kitchen", "Rating": "3.3", "votes": "14", "location": " PNB Bank, Hajipur, Sector 104, Near Sector 110, Noida", "Cuisines: ": "North Indian, Chinese, Biryani", "hours": "24Hours(Mon-Sun)", "Cost for two": "\u20b9500"}, {"Name": "Al Nawab Chicken Biryani", "Rating": "3.0", "votes": "8", "location": " Shop 4/1, Aghapur, Gautam Buddha Nagar, Sector 41, Noida", "Cuisines: ": "Biryani, Mughlai", "hours": "24Hours(Mon-Sun)", "Cost for two": "\u20b9400"}, {"Name": "The Cake Shop", "Rating": "3.4", "votes": "29", "location": " Shop A 79, Opposite Kotak Mahindra Bank, Sector 110, Noida", "Cuisines: ": "Bakery, Desserts", "hours": "11am\u201310pm(Mon-Sun)", "Cost for two": "\u20b9300"}, {"Name": "Royal Darbar", "Rating": "3.2", "votes": "7", "location": " Plot 3, Ground Floor, Metro Pillar 682, Prem Nagar, Uttam Nagar, New Delhi", "Cuisines: ": "Chinese, North Indian, Mughlai", "hours": "12noon\u201311:30pm(Mon-Sun)", "Cost for two": "\u20b9450"}, {"Name": "King of Tandoor", "Rating": "3.5", "votes": "37", "location": " New Colony, Opposite Chiranjiv Hospital, Sector 7, Gurgaon", "Cuisines: ": "North Indian, Rolls", "hours": "11am\u201311pm(Mon-Sun)", "Cost for two": "\u20b9350"}]