[{"Name": "Champaran Meat House", "Rating": "2.8", "votes": "22", "location": " Opposite Ahlcon Public School, Mayur Vihar Phase 1, New Delhi", "Cuisines: ": "North Indian", "hours": "6pm\u201311pm(Mon-Sun)", "Cost for two": "\u20b9350"}, {"Name": "Chandni Chowk Paratha Corner", "Rating": "-", "votes": "22", "location": " F-4, Vijay Chowk, Laxmi Nagar, New Delhi", "Cuisines: ": "North Indian", "hours": "11am\u201312midnight(Mon-Sun)", "Cost for two": "\u20b9200"}, {"Name": "Annu Da Dhaba", "Rating": "-", "votes": "22", "location": " Dhaba 3, D109, Sector 2, Noida", "Cuisines: ": "North Indian", "hours": "10am\u201310pm(Mon-Sun)", "Cost for two": "\u20b9250"}, {"Name": "Haji Chicken Point", "Rating": "-", "votes": "22", "location": " 246/58, East School Block, Near Masjid Allah colony, IP Extension, New Delhi", "Cuisines: ": "North Indian", "hours": "6:30pm\u201311pm(Mon-Sun)", "Cost for two": "\u20b9400"}, {"Name": "Epicuria@45", "Rating": "-", "votes": "22", "location": " Shop 12, 1st Floor, Amrapali Sapphire, Phase 1, Sector 45, Noida", "Cuisines: ": "North Indian, Chinese", "hours": "12:30pm\u201311pm(Mon-Sun)", "Cost for two": "\u20b9400"}, {"Name": "Chawla's Kitchen", "Rating": "3.8", "votes": "124", "location": " Shop 137, Near HDFC Bank, Sector 16, Faridabad", "Cuisines: ": "North Indian, Chinese", "hours": "12noon\u201311pm(Mon-Sun)", "Cost for two": "\u20b9400"}, {"Name": "Hot Pot Snacks", "Rating": "3.8", "votes": "178", "location": " 66, 1st Floor, AL Market, Shalimar Bagh, New Delhi", "Cuisines: ": "Fast Food", "hours": "Closed(Mon),1pm\u201310:30pm(Tue-Sun)", "Cost for two": "\u20b9200"}, {"Name": "Punjabi Tadka", "Rating": "3.3", "votes": "15", "location": " Shop 7, Sainik Enclave, Sector 3, Near Gandhi Chowk, Uttam Nagar, New Delhi", "Cuisines: ": "North Indian", "hours": "11am\u201311pm(Mon-Sun)", "Cost for two": "\u20b9150"}, {"Name": "My Kitchen & Caterers", "Rating": "3.4", "votes": "15", "location": " FF-5, Mangal Bazar, Near Dena Bank, Laxmi Nagar, New Delhi", "Cuisines: ": "North Indian", "hours": "11am\u20134pm,4pm\u201311:30pm(Mon-Sun)", "Cost for two": "\u20b9250"}, {"Name": "Madras Cafe", "Rating": "2.6", "votes": "240", "location": " S-26, Main Market, Green Park, New Delhi", "Cuisines: ": "South Indian", "hours": "11am\u201311pm(Mon-Sun)", "Cost for two": "\u20b9300"}, {"Name": "Dilli Gate", "Rating": "3.6", "votes": "42", "location": " F&B 31, 2nd Floor, Food Court, Omaxe Mall, Connaught Place, Beta 2, Greater Noida", "Cuisines: ": "North Indian, Chinese", "hours": "11:30am\u201310:30pm(Mon-Sun)", "Cost for two": "\u20b9700"}, {"Name": "Pishori Jayka", "Rating": "3.4", "votes": "18", "location": " Block C2C, Near Bus Stop, Major P Srikumar Marg, Janakpuri, New Delhi", "Cuisines: ": "North Indian", "hours": "6:30pm\u201310:30pm(Mon-Sun)", "Cost for two": "\u20b9300"}, {"Name": "Shiv Shakti Chaap Corner", "Rating": "3.6", "votes": "82", "location": " J-96, Beri Wala Bagh, Subhash Nagar, New Delhi", "Cuisines: ": "North Indian, Rolls, Chinese", "hours": "11am\u201311pm(Mon-Sun)", "Cost for two": "\u20b9300"}, {"Name": "Pinto's Cafe", "Rating": "3.9", "votes": "142", "location": " 1st Floor, SCO-11, Huda Market, Sector 23, Gurgaon", "Cuisines: ": "Cafe, Continental, Italian", "hours": "11am\u201310pm(Mon-Sun)", "Cost for two": "\u20b9600"}, {"Name": "Heyy Sugar", "Rating": "4.0", "votes": "231", "location": " G-9, Baani Square, Sector 50, Gurgaon", "Cuisines: ": "Bakery, Desserts", "hours": "12noon\u20139pm(Mon-Sun)", "Cost for two": "\u20b9350"}]