[{"Name": "Lhasa", "Rating": "3.4", "votes": "195", "location": " 198/52, Ramesh Market, East of Kailash, New Delhi", "Cuisines: ": "Tibetan, Chinese", "hours": "7am\u20134am(Mon-Sun)", "Cost for two": "\u20b9550"}, {"Name": "Tastee Chauka", "Rating": "3.7", "votes": "187", "location": " Shop 3, Alaknanda Market, Sector 28, Noida", "Cuisines: ": "North Indian", "hours": "12noon\u20134am(Mon-Sun)", "Cost for two": "\u20b9500"}, {"Name": "Shadab Chicken Point", "Rating": "-", "votes": "187", "location": " A-17, Shaheed Nagar, Sahibabad, Ghaziabad", "Cuisines: ": "North Indian", "hours": "5pm\u201312midnight(Mon-Sun)", "Cost for two": "\u20b9300"}, {"Name": "Fit Food 27", "Rating": "3.9", "votes": "161", "location": " Shop 29, D Block Market, Sector 27, Noida", "Cuisines: ": "Sandwich, Fast Food, Beverages", "hours": "11am\u201311pm(Mon-Sun)", "Cost for two": "\u20b9300"}, {"Name": "Sirula's Food Factory", "Rating": "3.2", "votes": "14", "location": " A-26 Ground Floor, Sector 3, Noida", "Cuisines: ": "Ice Cream, Desserts", "hours": "9am\u201311pm(Mon-Sat),Closed(Sun)", "Cost for two": "\u20b9350"}, {"Name": "Sameer's Restaurant", "Rating": "3.3", "votes": "18", "location": " Shop 2, Main Dadri Road, Opposite Vinayak Hospital, Sector 28, Noida", "Cuisines: ": "North Indian, Mughlai", "hours": "11:30am\u201311:30pm(Mon-Sun)", "Cost for two": "\u20b9600"}, {"Name": "Kolkata Hot Kathi Rolls", "Rating": "3.1", "votes": "203", "location": " Deepak Complex, Near Eros Garden, Charmwood Village, Faridabad", "Cuisines: ": "Rolls, Chinese", "hours": "1pm\u201310:30pm(Mon-Sun)", "Cost for two": "\u20b9200"}, {"Name": "Punjabi Virsa garden", "Rating": "3.4", "votes": "20", "location": " B - 83, 1st Floor, Sector 2, Noida", "Cuisines: ": "Chinese, North Indian, Fast Food", "hours": "11am\u201311pm(Mon-Sun)", "Cost for two": "\u20b9500"}, {"Name": "Ashish Food Point", "Rating": "3.0", "votes": "81", "location": " J-Block, Sector 23, Sanjay Nagar, Raj Nagar, Ghaziabad", "Cuisines: ": "Chinese, North Indian, Fast Food", "hours": "11am\u201310:30pm(Mon-Sun)", "Cost for two": "\u20b9400"}, {"Name": "Pishori Chicken", "Rating": "3.5", "votes": "38", "location": " Shop G-7, Plot 8, Pankaj Galaxy 1, Near Bal Bharti School, Sector 12, Dwarka, New Delhi", "Cuisines: ": "North Indian", "hours": "5pm\u201310:30pm(Mon-Sun)", "Cost for two": "\u20b9400"}, {"Name": "Rolls Daddy", "Rating": "NEW", "votes": "38", "location": " Plot 3, Khasra 107, Sector 142, Near Sector 135, Noida", "Cuisines: ": "Rolls", "hours": "11:30am\u201311:30pm(Mon-Sun)", "Cost for two": "\u20b9200"}, {"Name": "PVM Dream Land Family Restaurant", "Rating": "3.6", "votes": "76", "location": " 386, E16 Pocket, Dividing Road, Pocket 16, Sector 8, Rohini, New Delhi", "Cuisines: ": "North Indian, Chinese", "hours": "11am\u201312midnight(Mon-Sat),12midnight\u20137am...", "Cost for two": "\u20b9600"}, {"Name": "Chicken Express", "Rating": "3.0", "votes": "8", "location": " Shop 3/3, West Guru Angand Nagar, Mangal Bazar Road, Laxmi Nagar, New Delhi", "Cuisines: ": "North Indian", "hours": "11am\u201310pm(Mon-Sun)", "Cost for two": "\u20b9400"}, {"Name": "Jindal's Food", "Rating": "3.1", "votes": "8", "location": " Shop 21, DDA Market, Defence Enclave, Preet Vihar, New Delhi", "Cuisines: ": "North Indian, Chinese", "hours": "11am\u201311pm(Mon-Sun)", "Cost for two": "\u20b9450"}, {"Name": "Kranti Fruit Chat", "Rating": "3.5", "votes": "21", "location": " 5A-18BP, Railway Road, NIT, Faridabad", "Cuisines: ": "Street Food", "hours": "5pm\u201310pm(Mon-Sun)", "Cost for two": "\u20b9150"}]