[{"Name": "Jain Dhaba", "Rating": "3.6", "votes": "208", "location": " 412 C, Jheel Khuranja, Krishna Nagar, New Delhi", "Cuisines: ": "North Indian", "hours": "10am\u20134pm,6pm\u201311pm(Mon-Sun)", "Cost for two": "\u20b9400"}, {"Name": "Roti Masala Restaurant", "Rating": "3.6", "votes": "99", "location": " Plot 142, Opposite Mahabali Marbel, Govind Puram, Ghaziabad", "Cuisines: ": "North Indian, Chinese", "hours": "10am\u201312midnight(Mon-Tue),10am\u20139pm(Wed-Sun)", "Cost for two": "\u20b9400"}, {"Name": "Southy", "Rating": "3.6", "votes": "101", "location": " Super Mart 2, Kasera 505-506, Sector 43, DLF Phase 4, Gurgaon", "Cuisines: ": "South Indian", "hours": "8am\u201311pm(Mon-Sun)", "Cost for two": "\u20b9450"}, {"Name": "Lazeez Veggie Hub", "Rating": "3.3", "votes": "10", "location": " 5435, 1st Floor, Lotus Lane, Near Galleria Market, DLF Phase 4, Gurgaon", "Cuisines: ": "North Indian, Chinese", "hours": "11am\u201312midnight(Mon-Sun)", "Cost for two": "\u20b9500"}, {"Name": "Al-Bake Chicken Corner", "Rating": "3.2", "votes": "8", "location": " Subhash Chowk, Sohna Road, Gurgaon", "Cuisines: ": "Hyderabadi", "hours": "10am\u201310pm(Mon-Sun)", "Cost for two": "\u20b9450"}, {"Name": "PK Tull", "Rating": "-", "votes": "8", "location": " 25/27/29, Flyover Market, Defence Colony, New Delhi", "Cuisines: ": "North Indian, Bar Food", "hours": "12:30pm\u201312:30am(Mon-Sun)", "Cost for two": "\u20b91,000"}, {"Name": "Foodology", "Rating": "3.7", "votes": "284", "location": " 176, Pocket 6, Sector 22, Rohini, New Delhi", "Cuisines: ": "North Indian, Fast Food, Chinese, Rolls", "hours": "9:30am\u201311pm(Mon),12midnight\u20132:06am,11am...", "Cost for two": "\u20b9500"}, {"Name": "Titbits Foods", "Rating": "NEW", "votes": "284", "location": " Unit 1, KM Trade Tower, Raddison Blu Complex, Kaushambi, Ghaziabad", "Cuisines: ": "North Indian, Fast Food", "hours": "9am\u201310pm(Mon-Sun)", "Cost for two": "\u20b9200"}, {"Name": "Aangan Restaurant", "Rating": "3.8", "votes": "293", "location": " 3C 72, BP, Opposite ESI Hospital Emergency Gate, NIT, Faridabad", "Cuisines: ": "Chinese, North Indian", "hours": "11am\u201311pm(Mon-Sun)", "Cost for two": "\u20b9250"}, {"Name": "The Fizz", "Rating": "3.6", "votes": "105", "location": " N-7, Opposite Axis Bank, Sector 18, Noida", "Cuisines: ": "North Indian, Mughlai, Chinese", "hours": "12noon\u201312midnight(Mon-Sun)", "Cost for two": "\u20b91,400"}, {"Name": "Ganeshwaram", "Rating": "3.8", "votes": "331", "location": " SD 155 & 156, Sadarpur, Sector 45, Noida", "Cuisines: ": "North Indian, South Indian, Chinese, Fast Food, Street Food, Beverages", "hours": "9:30am\u201310pm(Mon-Sun)", "Cost for two": "\u20b9350"}, {"Name": "Banana Leaves", "Rating": "3.4", "votes": "161", "location": " G 18, Vardhman Sunrise Plaza, Vasundhara Enclave, New Delhi", "Cuisines: ": "South Indian", "hours": "10am\u201310pm(Mon-Sun)", "Cost for two": "\u20b9250"}, {"Name": "Amar Bakery", "Rating": "3.4", "votes": "15", "location": " Shop 11, Plot 11, Rameshwar Tower, Sector 4, Vaishali, Ghaziabad", "Cuisines: ": "Bakery, Fast Food, Street Food", "hours": "8am\u201311pm(Mon-Sun)", "Cost for two": "\u20b9300"}, {"Name": "The Food Gallery", "Rating": "3.5", "votes": "38", "location": " G-50, School Road, Near Post Office, Uttam Nagar, Delhi", "Cuisines: ": "Chinese, Momos", "hours": "11:30am\u201310:30pm(Mon-Sun)", "Cost for two": "\u20b9300"}, {"Name": "Amigo's Deli", "Rating": "3.8", "votes": "93", "location": " B-11, East Arjun Nagar, Near Hedgewar Hospital, Karkardooma, New Delhi", "Cuisines: ": "Fast Food", "hours": "11am\u201311pm(Mon-Sun)", "Cost for two": "\u20b9350"}]