[{"Name": "Veg Lovers Pizzas", "Rating": "3.5", "votes": "18", "location": " H 12/16A, Malviya Nagar, New Delhi", "Cuisines: ": "Pizza", "hours": "11am\u201311pm(Mon-Sun)", "Cost for two": "\u20b9450"}, {"Name": "Teflas", "Rating": "3.6", "votes": "87", "location": " Opposite Narmada Hostel, JNU, New Delhi", "Cuisines: ": "North Indian, Chinese, Momos", "hours": "12:30pm\u201310pm(Mon-Sun)", "Cost for two": "\u20b9400"}, {"Name": "The Viraj Food Zone", "Rating": "3.5", "votes": "76", "location": " 61-B, Ber Sarai, JNU, New Delhi", "Cuisines: ": "North Indian, Chinese, Fast Food", "hours": "12noon\u201311pm(Mon-Sun)", "Cost for two": "\u20b9450"}, {"Name": "Cafe 6", "Rating": "3.9", "votes": "507", "location": " D-6, Ground Floor, Hauz Khas, New Delhi", "Cuisines: ": "Fast Food, North Indian", "hours": "10am\u20139:30pm(Mon-Sat),Closed(Sun)", "Cost for two": "\u20b9500"}, {"Name": "A One Muradabadi Chicken Biryani", "Rating": "-", "votes": "507", "location": " 79/9, Ground Floor, Kishangarh Saturday Market Road, Near Fortis Hospital, Vasant Kunj, New Delhi", "Cuisines: ": "Biryani", "hours": "9am\u201311pm(Mon-Sun)", "Cost for two": "\u20b9400"}, {"Name": "Refuel 365", "Rating": "4.2", "votes": "208", "location": " Plot 551, 2nd Floor, Near Jalvayu Towers, Sector 56, Gurgaon", "Cuisines: ": "Healthy Food, Sandwich, Beverages", "hours": "11am\u201310pm(Mon-Sun)", "Cost for two": "\u20b9600"}, {"Name": "Shri Bikaner Sweets", "Rating": "2.3", "votes": "36", "location": " 65, Adchini, New Delhi", "Cuisines: ": "Mithai, Street Food", "hours": "8am\u201310pm(Mon-Sun)", "Cost for two": "\u20b9200"}, {"Name": "Mutton by kilo", "Rating": "-", "votes": "36", "location": " RA 009, Raipur Khadar Sec126, Opposite Gate no.2 Amity University, Noida", "Cuisines: ": "North Indian", "hours": "11am\u20134am(Mon-Sat),10am\u201311pm(Sun)", "Cost for two": "\u20b9350"}, {"Name": "The Food Bowl", "Rating": "3.7", "votes": "47", "location": " Okhla Phase 2, New Delhi", "Cuisines: ": "North Indian, Fast Food, Biryani, Italian", "hours": "11am\u201311pm(Mon-Sun)", "Cost for two": "\u20b9400"}, {"Name": "Gharua Exaj", "Rating": "2.7", "votes": "58", "location": " F 17A, Hudson Lane, Delhi University-GTB Nagar, New Delhi", "Cuisines: ": "Assamese, Chinese", "hours": "12:30pm\u201311pm(Mon-Sun)", "Cost for two": "\u20b9600"}, {"Name": "Bala Meat Wala", "Rating": "3.4", "votes": "26", "location": " C 276, Phase 2, Mayapuri Industrial Area", "Cuisines: ": "North Indian, Mughlai", "hours": "12noon\u20133:30pm(Mon-Sun)", "Cost for two": "\u20b9300"}, {"Name": "Fresh 'N' Tasty Food Corner", "Rating": "-", "votes": "26", "location": " District Center, Opposite DLF Towers, Jasola, New Delhi", "Cuisines: ": "Chinese, North Indian", "hours": "10:30am\u20138pm(Mon-Sun)", "Cost for two": "\u20b9450"}, {"Name": "Thali 55", "Rating": "-", "votes": "26", "location": " New Friends Colony, New Delhi", "Cuisines: ": "North Indian", "hours": "11am\u20135pm(Mon-Fri),Closed(Sat-Sun)", "Cost for two": "\u20b9200"}, {"Name": "Hangout Bar - Hotel Delite Grand", "Rating": "3.4", "votes": "20", "location": " Hotel Delite Grand, A-5/B, Neelam Bata Road, NIT, Faridabad", "Cuisines: ": "Finger Food", "hours": "12noon\u201312midnight(Mon-Sun)", "Cost for two": "\u20b92,000"}, {"Name": "Hippie Food Junction", "Rating": "3.2", "votes": "8", "location": " 366/5, Govindpuri, Near Gurudwara, Kalkaji, New Delhi", "Cuisines: ": "North Indian, Chinese", "hours": "11am\u201311pm(Mon,Wed,Thu,Fri,Sat,Sun),Closed...", "Cost for two": "\u20b9500"}]