[{"Name": "Ada-e-Haandi", "Rating": "NEW", "location": " Shop 141-142, South Moti Bagh Market, Near Sadhu Vaswani School, Moti Bagh, New Delhi", "Cuisines: ": "North Indian, Mughlai, Fast Food", "hours": "11am\u201311:30pm(Mon-Sun)", "Cost for two": "\u20b9600"}, {"Name": "The Cake Studio", "Rating": "NEW", "location": " Main Market, Near Surbhi Hospital, Sector 35, Near Sector 34, Noida", "Cuisines: ": "Bakery", "hours": "24Hours(Mon-Sun)", "Cost for two": "\u20b9450"}, {"Name": "Vadapav Junction", "Rating": "NEW", "location": " 44, Ground Floor, Global Foyer Mall, Palam Vihar, Gurgaon", "Cuisines: ": "Street Food, Fast Food, Beverages", "hours": "9am\u20132am(Mon-Sun)", "Cost for two": "\u20b9200"}, {"Name": "Arome Dinings", "Rating": "4.0", "location": " Plot 344, Near Sarvodhya Hospital, Sector 4, Vaishali, Ghaziabad", "Cuisines: ": "North Indian, Mughlai, Chinese, Continental", "hours": "11:59am\u201311:45pm(Mon-Sun)", "Cost for two": "\u20b9750", "votes": "118"}, {"Name": "Grub Garden", "Rating": "4.1", "location": " 317/3, KD Block, Opposite Pillar 343, Pitampura, New Delhi", "Cuisines: ": "Fast Food, Street Food", "hours": "12noon\u20139:30pm(Mon),11am\u20139:30pm(Tue-Sun)", "Cost for two": "\u20b9400", "votes": "63"}, {"Name": "Momos Express", "Rating": "3.9", "location": " 45, C Block, DDA Market, Vikaspuri, New Delhi", "Cuisines: ": "Chinese, Fast Food, Momos", "hours": "11am\u201311pm(Mon-Sun)", "Cost for two": "\u20b9400", "votes": "622"}, {"Name": "Lazeez Food", "Rating": "3.8", "location": " SF-124, 1st Floor, DLF Galleria", "Cuisines: ": "Mughlai, North Indian", "hours": "12noon\u201311pm(Mon-Sun)", "Cost for two": "\u20b9600", "votes": "441"}, {"Name": "Food O Clock", "Rating": "3.9", "location": " Shop 1498/1, Opposite BBM Bus Depot, Outram Lines, Mukherjee Nagar, New Delhi", "Cuisines: ": "North Indian, Fast Food", "hours": "6:30pm\u20134am(Mon-Sun)", "Cost for two": "\u20b9450", "votes": "262"}, {"Name": "Nerdy Dino", "Rating": "NEW", "location": " C4B-302, Maharaja Surajmal Lane, Janakpuri, New Delhi", "Cuisines: ": "Fast Food, Chinese, Beverages", "hours": "9am\u20139pm(Mon-Sun)", "Cost for two": "\u20b9300", "votes": "262"}, {"Name": "Krishna Food And Drinks Hub", "Rating": "4.2", "location": " G-6/79, 1st Floor, Sector 16, Rohini, New Delhi", "Cuisines: ": "North Indian, Fast Food, Beverages", "hours": "7am\u201310pm(Mon-Sun)", "Cost for two": "\u20b9300", "votes": "72"}, {"Name": "Paratha At Midnight", "Rating": "3.6", "location": " House 39A, 1st Floor, Double Storey, Block 3, Opposite Hanuman Mandir, Vijay Nagar, New Delhi", "Cuisines: ": "North Indian, Chinese", "hours": "11am\u20134am(Mon-Sun)", "Cost for two": "\u20b9200", "votes": "60"}, {"Name": "Meals@99", "Rating": "3.9", "location": " B 261, Divison 2, 1st Floor, Sigma 1, Greater Noida", "Cuisines: ": "North Indian, Chinese, Fast Food", "hours": "24Hours(Mon-Sun)", "Cost for two": "\u20b9250", "votes": "55"}, {"Name": "Fifth Avenue Bakery & Cafe", "Rating": "4.1", "location": " 32nd Avenue, Sector 15, Gurgaon", "Cuisines: ": "Bakery, Cafe, Desserts", "hours": "10am\u201312midnight(Mon,Tue,Wed,Thu,Sun)...", "Cost for two": "\u20b91,000", "votes": "209"}, {"Name": "Green Chilli", "Rating": "NEW", "location": " Ansal Golf Link, Near Pari Chowk, Omega 1, Greater Noida", "Cuisines: ": "North Indian, Mughlai, Chinese", "hours": "11am\u20134pm(Mon-Sun)", "Cost for two": "\u20b9600", "votes": "209"}, {"Name": "Simply Madly", "Rating": "3.8", "location": " E 6, DDA Super Market, Masjid Modh, Greater Kailash 3 (GK 3), New Delhi", "Cuisines: ": "North Indian, Mughlai, Chinese, Japanese", "hours": "11am\u201311pm(Mon-Sun)", "Cost for two": "\u20b91,200", "votes": "69"}]