[{"Name": "Madras Vyanjan", "Rating": "3.5", "votes": "27", "location": " F344/1, Ground Floor, Near Central Bank Of India, Lado Sarai, New Delhi", "Cuisines: ": "South Indian", "hours": "24Hours(Mon-Sun)", "Cost for two": "\u20b9500"}, {"Name": "Flavora", "Rating": "3.7", "votes": "23", "location": " Building 489/55/2, Ground Floor, Shivalik Colony, Corner Market, Malviya Nagar, New Delhi", "Cuisines: ": "Continental, North Indian, Healthy Food", "hours": "12noon\u20134am(Mon-Sun)", "Cost for two": "\u20b9400"}, {"Name": "Taste Of Bollywood", "Rating": "3.3", "votes": "15", "location": " Shop 1, V Block Market, Near Panchsheel Park, Sector 12, Noida", "Cuisines: ": "North Indian, Chinese", "hours": "11am\u201311pm(Mon-Sun)", "Cost for two": "\u20b9500"}, {"Name": "The Burgers Nation", "Rating": "3.9", "votes": "234", "location": " SCO 57, 1st Floor, Omaxe World Street, Sector 79, Near Sector 81, Faridabad", "Cuisines: ": "Burger, Pizza, Fast Food", "hours": "10:30am\u20132am(Mon-Sun)", "Cost for two": "\u20b9500"}, {"Name": "The Fauji Dhaba", "Rating": "3.7", "votes": "471", "location": " IGNOU, Saket Road, Saket, New Delhi", "Cuisines: ": "North Indian, Chinese", "hours": "12noon\u20133am(Mon-Sun)", "Cost for two": "\u20b9400"}, {"Name": "Gully Kitchen By Gourmandize", "Rating": "4.3", "votes": "37", "location": " Shop 1A, The Arcade Godrej Frontier, Sector 80, Near Sector 83, Gurgaon", "Cuisines: ": "North Indian, Rolls", "hours": "Closed(Mon),11:30am\u20133:30pm,5:30pm\u201310:30pm...", "Cost for two": "\u20b9500"}, {"Name": "Paratha Mania", "Rating": "3.8", "votes": "37", "location": " Room 101, Building 55, Nambardar Building, Chakkarpur, DLF Phase 1, Gurgaon", "Cuisines: ": "North Indian", "hours": "2pm\u20134am(Mon),12noon\u20134am(Tue-Sun)", "Cost for two": "\u20b9200"}, {"Name": "Uforia", "Rating": "4.2", "votes": "50", "location": " SCO-30, Sector 29, Gurgaon", "Cuisines: ": "Continental, Asian, North Indian, Italian", "hours": "12noon\u201312midnight(Mon-Sun)", "Cost for two": "\u20b91,500"}, {"Name": "The Cakewell Bakery", "Rating": "4.0", "votes": "156", "location": " A-65, Main Vikas Marg, Opposite Pillar 57, Laxmi Nagar, New Delhi", "Cuisines: ": "Bakery, Desserts", "hours": "10am\u201310:10pm(Mon-Sun)", "Cost for two": "\u20b9400"}, {"Name": "The Sambhar Club", "Rating": "4.0", "votes": "104", "location": " R-74/3, Ground Floor, Khirki Extension, Malviya Nagar, New Delhi", "Cuisines: ": "Chinese, South Indian", "hours": "12noon\u201310pm(Mon,Wed,Thu,Fri,Sat,Sun)...", "Cost for two": "\u20b9350"}, {"Name": "Kathi Junction", "Rating": "4.2", "votes": "317", "location": " Plot 209, Sarai Road, Village Sadarpur, Sector 45, Noida", "Cuisines: ": "Rolls, North Indian, Chinese", "hours": "11am\u20132am(Mon-Sun)", "Cost for two": "\u20b9500"}, {"Name": "Dawat", "Rating": "3.5", "votes": "116", "location": " 70, Khanna Market, Lodhi Colony, New Delhi", "Cuisines: ": "North Indian, Chinese", "hours": "11am\u201310pm(Mon-Sun)", "Cost for two": "\u20b9450"}, {"Name": "Carl's Jr.", "Rating": "4.0", "votes": "1171", "location": " F-457/C, 3rd Floor, DLF Mall of India, Sector 18, Noida", "Cuisines: ": "Burger, Fast Food", "hours": "11am\u201311pm(Mon-Sun)", "Cost for two": "\u20b9450"}, {"Name": "Feast on Cloud 9", "Rating": "3.9", "votes": "70", "location": " B 1041, 1st Floor, Palam Extension, Sector 7, Dwarka, New Delhi", "Cuisines: ": "North Indian, Chinese, Mughlai", "hours": "11am\u201311pm(Mon-Sun)", "Cost for two": "\u20b9600"}, {"Name": "Tamil Nadu Dosa Corner", "Rating": "4.1", "votes": "112", "location": " M 11, Qutab Plaza, DLF Phase 1, Gurgaon", "Cuisines: ": "South Indian", "hours": "10am\u201310:30pm(Mon-Sun)", "Cost for two": "\u20b9250"}]