[{"Name": "Chatorey Chacha Kathi Rolls", "Rating": "3.8", "votes": "410", "location": " E-2/16, Near Shani Mandir, Malviya Nagar, New Delhi", "Cuisines: ": "Rolls", "hours": "11am\u201311pm(Mon-Sun)", "Cost for two": "\u20b9300"}, {"Name": "Dimcha", "Rating": "4.3", "votes": "142", "location": " Delivery Only", "Cuisines: ": "Chinese, Asian", "hours": "12noon\u201312midnight(Mon-Sun)", "Cost for two": "\u20b9600"}, {"Name": "Mr. Dosa", "Rating": "3.7", "votes": "158", "location": " A-3/34, Opposite Petrol Pump, Sector 17, Rohini, New Delhi", "Cuisines: ": "South Indian, Chinese", "hours": "9am\u201310:30pm(Mon-Sun)", "Cost for two": "\u20b9300"}, {"Name": "Cosy Restaurant", "Rating": "3.7", "votes": "308", "location": " B-1/30, Hauz Khas, New Delhi", "Cuisines: ": "North Indian, Mughlai, Chinese", "hours": "11am\u201312midnight(Mon-Sun)", "Cost for two": "\u20b91,100"}, {"Name": "Cafe DEM - Restaurant & Bar", "Rating": "4.4", "votes": "424", "location": " GA-7 & 8, Metro Walk Mall, Rohini, New Delhi", "Cuisines: ": "Finger Food, Mughlai, Chinese, Continental, North Indian", "hours": "11:30am\u201312:30am(Mon-Sun)", "Cost for two": "\u20b92,000"}, {"Name": "New Raja Sweets", "Rating": "3.8", "votes": "270", "location": " G-4, Vardhman Airport Plaza, Sector 6, Dwarka, New Delhi", "Cuisines: ": "Mithai, Street Food", "hours": "8:30am\u201310pm(Mon-Sun)", "Cost for two": "\u20b9300"}, {"Name": "The Big Bro Kitchen", "Rating": "3.8", "votes": "68", "location": " C 17, Amar Colony Market, Lajpat Nagar 4, New Delhi", "Cuisines: ": "Chinese, Fast Food, Beverages", "hours": "1pm\u20131am(Mon-Sun)", "Cost for two": "\u20b9500"}, {"Name": "Dvar Indian Restaurant - Radisson Blu Dwarka", "Rating": "4.0", "votes": "365", "location": " Radisson Blu, Plot 4, Sector 13, Dwarka, New Delhi", "Cuisines: ": "North Indian, Mughlai", "hours": "7pm\u201311:30pm(Mon-Sun)", "Cost for two": "\u20b93,000"}, {"Name": "Masala Art - Taj Palace", "Rating": "3.9", "votes": "466", "location": " 2, Taj Palace, Sardar Patel Marg, Chanakyapuri, New Delhi", "Cuisines: ": "North Indian, Mughlai", "hours": "12:30pm\u20132:45pm,6:30pm\u201311:45pm(Mon-Sun)", "Cost for two": "\u20b93,500"}, {"Name": "Flavours De China", "Rating": "4.2", "votes": "96", "location": " B-70, Ground Floor, Shashi Garden, Mayur Vihar Phase 1, New Delhi", "Cuisines: ": "Chinese", "hours": "12noon\u201312midnight(Mon-Sun)", "Cost for two": "\u20b9450"}, {"Name": "SFC", "Rating": "3.9", "votes": "294", "location": " Shop 20, Anshul Plaza Market, Opposite Gufa Mandir, Shalimar Bagh, New Delhi", "Cuisines: ": "Rolls, North Indian", "hours": "5pm\u201310:30pm(Mon-Sun)", "Cost for two": "\u20b9400"}, {"Name": "Amritsari Kulccha Corner", "Rating": "4.1", "votes": "337", "location": " Site 4/56, C Block, Vikaspuri, New Delhi", "Cuisines: ": "North Indian", "hours": "8:30am\u201310pm(Mon-Sun)", "Cost for two": "\u20b9250"}, {"Name": "Italian Pizza & Fast Food", "Rating": "3.6", "votes": "33", "location": " 16, Ground Floor, Block E, Alpha Plaza, Alpha 1, Greater Noida", "Cuisines: ": "Pizza, Fast Food, Beverages", "hours": "10am\u20134am(Mon-Sun)", "Cost for two": "\u20b9650"}, {"Name": "Apni Thali", "Rating": "NEW", "votes": "33", "location": " A1, Sector-51, Noida", "Cuisines: ": "North Indian", "hours": "24Hours(Mon-Sun)", "Cost for two": "\u20b9300"}, {"Name": "Grover's Sweet Chilli's", "Rating": "3.3", "votes": "19", "location": " A 11, Prem Nagar, Block R, Uttam Nagar, New Delhi", "Cuisines: ": "North Indian, Fast Food, Chinese, Mithai", "hours": "9am\u201312midnight(Mon-Sun)", "Cost for two": "\u20b9250"}]