[{"Name": "Dehati Food Corner", "Rating": "3.5", "votes": "28", "location": " Shop 87, Ground Floor, Jharsa, Near Durga Mandir, Sector 39, Gurgaon", "Cuisines: ": "North Indian, Mughlai", "hours": "1pm\u201310:30pm(Mon-Sun)", "Cost for two": "\u20b9300"}, {"Name": "Big B Pastry Shop", "Rating": "3.4", "votes": "131", "location": " AG85, Ansal Plaza Mall, Near Pari Chowk, Knowledge Park, Noida", "Cuisines: ": "Bakery", "hours": "10am\u201310pm(Mon-Sun)", "Cost for two": "\u20b9200"}, {"Name": "Pizza Palace", "Rating": "3.3", "votes": "42", "location": " 2/3, Sector 2, Rajendar Nagar, Ghaziabad", "Cuisines: ": "Pizza, Fast Food", "hours": "11am\u201310pm(Mon-Sun)", "Cost for two": "\u20b9250"}, {"Name": "Ashish Burger Point Chinese Fast Food Corner", "Rating": "3.4", "votes": "50", "location": " L 135, Sanjay Nagar, Raj Nagar, Ghaziabad", "Cuisines: ": "Chinese, North Indian, Fast Food", "hours": "11am\u201311pm(Mon-Sun)", "Cost for two": "\u20b9400"}, {"Name": "Roll Nation", "Rating": "NEW", "votes": "50", "location": " 24, DDA Market, Hudson Lane, Delhi University-GTB Nagar, New Delhi", "Cuisines: ": "Rolls, Fast Food", "hours": "4pm\u201311pm(Mon-Sun)", "Cost for two": "\u20b9250"}, {"Name": "Online Cake and Flower.com", "Rating": "2.9", "votes": "4", "location": " 125/9, Kishangarh, Vasant Kunj, New Delhi", "Cuisines: ": "Bakery, Desserts", "hours": "24Hours(Mon-Sun)", "Cost for two": "\u20b9400"}, {"Name": "Moonlight Delivery", "Rating": "4.2", "votes": "627", "location": " Shop 2, Ground Floor, State Bank Colony, Gujranwala Town, New Delhi", "Cuisines: ": "North Indian", "hours": "11am\u201311:30pm(Mon-Sun)", "Cost for two": "\u20b9650"}, {"Name": "Momo's And Roll's Affair", "Rating": "-", "votes": "627", "location": " 125, Ground Floor, Safdarjung Enclave, Safdarjung, New Delhi", "Cuisines: ": "Rolls, Momos", "hours": "11am\u201311pm(Mon-Sun)", "Cost for two": "\u20b9300"}, {"Name": "Maa Shitala Restaurant & Parantha Point", "Rating": "3.4", "votes": "14", "location": " 352/E 13, Munirka, New Delhi", "Cuisines: ": "North Indian", "hours": "9am\u201311pm(Mon-Sun)", "Cost for two": "\u20b9350"}, {"Name": "Chai Cozyy", "Rating": "-", "votes": "14", "location": " G 11, Rakeshdeep Building, Yusuf Sarai, New Delhi", "Cuisines: ": "Beverages, Fast Food", "hours": "11am\u201311pm(Mon-Sun)", "Cost for two": "\u20b9200"}, {"Name": "Delhi Pride Restaurant", "Rating": "3.4", "votes": "29", "location": " Ground Floor, A-50, Masoodpur Main Road, Vasant Kunj, New Delhi", "Cuisines: ": "Mughlai, North Indian, Chinese", "hours": "12noon\u201311pm(Mon-Sun)", "Cost for two": "\u20b9750"}, {"Name": "Qureshi", "Rating": "3.5", "votes": "90", "location": " 7, Kamal Complex, JNU, New Delhi", "Cuisines: ": "North Indian, Kebab, Rolls", "hours": "12:30pm\u20138:30pm(Mon-Sun)", "Cost for two": "\u20b9250"}, {"Name": "Rawat Cake Palace", "Rating": "-", "votes": "90", "location": " 17/23, Mandir Wali Gali, Near Green Park Metro Station, Yusuf Sarai, New Delhi", "Cuisines: ": "Bakery", "hours": "10am\u201310pm(Mon-Sun)", "Cost for two": "\u20b9200"}, {"Name": "Mukesh Dhaba", "Rating": "3.1", "votes": "5", "location": " Near L Block, Street 15, Old Rangpuri Road, Mahipalpur, New Delhi", "Cuisines: ": "North Indian", "hours": "8:30am\u20133:30pm,6pm\u201311:30pm(Mon-Sun)", "Cost for two": "\u20b9300"}, {"Name": "Lucky's Bakery & Patisserie", "Rating": "-", "votes": "5", "location": " Shop 4, E-2/16, Ground Floor, Near Shani Mandir, Malviya Nagar, New Delhi", "Cuisines: ": "Bakery", "hours": "11am\u201311pm(Mon-Sun)", "Cost for two": "\u20b9350"}]