[{"Name": "Gronito.Com", "Rating": "-", "location": " A 8, Sanjay Enclave, Raja Puri Road, Uttam Nagar, New Delhi", "Cuisines: ": "Mexican", "hours": "24Hours(Mon-Sun)", "Cost for two": "\u20b9600"}, {"Name": "Jarfull", "Rating": "4.0", "location": " F13, Sushant Shopping Arcade, Sushant Lok Gurgaon", "Cuisines: ": "Desserts, Beverages", "hours": "11am\u20134am(Mon-Sun)", "Cost for two": "\u20b9350", "votes": "198"}, {"Name": "Sasuraal", "Rating": "3.7", "location": " New Colony More, Rattan Garden, Sector 7 Chowk, Old Railway Road, Gurgaon", "Cuisines: ": "North Indian, Mughlai, Chinese", "hours": "10:30am\u201312midnight(Mon-Sun)", "Cost for two": "\u20b9900", "votes": "331"}, {"Name": "Hell'z Kitchen", "Rating": "4.0", "location": " 25/4, Gali 5, Karkardooma Village, Karkardooma, New Delhi", "Cuisines: ": "Pizza, Burger, Italian, Fast Food, Kebab", "hours": "12midnight\u20134am,6pm\u201312midnight...", "Cost for two": "\u20b9400", "votes": "83"}, {"Name": "Tikk Tokk Food Junction", "Rating": "3.5", "location": " Ground Floor, Village Fazilpur, Sector 48, Near Khera Wali Tanki, Sohna Road, Gurgaon", "Cuisines: ": "North Indian, Chinese", "hours": "11am\u201311pm(Mon-Sun)", "Cost for two": "\u20b9400", "votes": "27"}, {"Name": "Bhai Jaan", "Rating": "3.9", "location": " Delivery Only", "Cuisines: ": "North Indian, Fast Food, Momos", "hours": "Closed(Mon),6pm\u20134am(Tue-Sun)", "Cost for two": "\u20b9250", "votes": "240"}, {"Name": "ROYCE' Chocolate", "Rating": "3.5", "location": " Ground Floor, Ambience Island, Near Gate 2, Ambience Mall, DLF Phase 3, Gurgaon", "Cuisines: ": "Desserts", "hours": "11am\u201310pm(Mon-Sun)", "Cost for two": "\u20b91,000", "votes": "15"}, {"Name": "The Cake Shop", "Rating": "3.7", "location": " 21-22, NWA Market, Club Road, West Punjabi Bagh, Punjabi Bagh, New Delhi", "Cuisines: ": "Bakery, Fast Food, Chinese", "hours": "10am\u201310pm(Mon-Sun)", "Cost for two": "\u20b9300", "votes": "71"}, {"Name": "Delhi Darbar Chicken Biryani Corner", "Rating": "3.6", "location": " WZ-54 Village, Near LIG MIG Flats, Hastsal, Uttam Nagar, New Delhi", "Cuisines: ": "Biryani", "hours": "10am\u201310:30pm(Mon,Wed,Thu,Fri,Sat,Sun)...", "Cost for two": "\u20b9300", "votes": "115"}, {"Name": "Al Mezbaan Chicken Point", "Rating": "3.1", "location": " 36 Miles, Azzi Colony, Opposite Anaj Mandi, Ballabhgarh, Faridabad", "Cuisines: ": "North Indian", "hours": "1pm\u201311pm(Mon-Sun)", "Cost for two": "\u20b9300", "votes": "4"}, {"Name": "Baro Masi", "Rating": "3.7", "location": " Shop 404, Near Moulsari Avenue Metro Station, DLF Phase 3, Gurgaon", "Cuisines: ": "Chinese, Mughlai, North Indian", "hours": "12midnight\u20133:30am,12:30pm\u201312midnight...", "Cost for two": "\u20b91,200", "votes": "57"}, {"Name": "House Of Candy", "Rating": "-", "location": " M 29/3, Greater Kailash 1 (GK 1), New Delhi", "Cuisines: ": "Desserts", "hours": "11am\u201311pm(Mon-Sun)", "Cost for two": "\u20b9300", "votes": "57"}, {"Name": "Pizzaro Cafe", "Rating": "3.6", "location": " A 10, Block A, Shyam Nagar, Shitala Mata Mandir Road, Tilak Nagar, New Delhi", "Cuisines: ": "Pizza, Fast Food", "hours": "11am\u201311pm(Mon-Sun)", "Cost for two": "\u20b9400", "votes": "28"}, {"Name": "Kailpal Food Centre", "Rating": "3.4", "location": " Shop 4-A1-B, DDA Market, Janakpuri, New Delhi", "Cuisines: ": "Chinese, Rolls, Momos", "hours": "12noon\u201310:30pm(Mon-Sun)", "Cost for two": "\u20b9200", "votes": "25"}, {"Name": "New Cake Palace", "Rating": "3.7", "location": " 35-36, J Block Market, Local Shopping Centre, Saket, New Delhi", "Cuisines: ": "Bakery, Desserts, Fast Food", "hours": "10am\u201310pm(Mon-Sun)", "Cost for two": "\u20b9200", "votes": "92"}]