[{"Name": "Shri Hari Restaurant", "Rating": "3.5", "votes": "28", "location": " Shop 1, YMCA Road, Near Ashwini Hospital, Sector 10, Faridabad", "Cuisines: ": "North Indian", "hours": "11am\u201311pm(Mon-Sun)", "Cost for two": "\u20b9350"}, {"Name": "Sardar G Malai Chaap Wale", "Rating": "3.5", "votes": "27", "location": " Delivery Only", "Cuisines: ": "North Indian, Rolls", "hours": "1pm\u20132am(Mon-Sun)", "Cost for two": "\u20b9450"}, {"Name": "Yumsum Dimsum", "Rating": "3.6", "votes": "34", "location": " Rapid Metro DLF Phase 3, Sector 24, DLF Cyber City, Gurgaon", "Cuisines: ": "Fast Food, Nepalese", "hours": "11am\u20134am(Mon-Sun)", "Cost for two": "\u20b9300"}, {"Name": "Bhukkad's Cafe", "Rating": "3.8", "votes": "103", "location": " 35 UB, Shop 4, Jawahar Nagar, Kamla Nagar, New Delhi", "Cuisines: ": "Fast Food, Beverages", "hours": "11am\u20134am(Mon-Sun)", "Cost for two": "\u20b9200"}, {"Name": "Yumm Ek Dumm", "Rating": "3.5", "votes": "23", "location": " Shop 12/6, Old Palam Road, Near District Park, Sector 15, Dwarka, New Delhi", "Cuisines: ": "Fast Food", "hours": "9am\u201310pm(Mon-Sun)", "Cost for two": "\u20b9250"}, {"Name": "D\u00f6ner Grill", "Rating": "3.9", "votes": "32", "location": " Food Court, Take Eat Easy, Central Plaza Mall, Golf Course Road, Gurgaon", "Cuisines: ": "Healthy Food, Salad, Continental, Turkish", "hours": "11am\u20134am(Mon-Sun)", "Cost for two": "\u20b9500"}, {"Name": "Indian UK Restaurant", "Rating": "NEW", "votes": "32", "location": " 118A, Gyan Khand 4, Indirapuram, Ghaziabad", "Cuisines: ": "North Indian, Chinese", "hours": "11am\u201311pm(Mon-Sun)", "Cost for two": "\u20b9300"}, {"Name": "Veggie Noisse", "Rating": "3.1", "votes": "8", "location": " Building 38-39, Bhagwan Park, Jharodha Majra, Azadpur, New Delhi", "Cuisines: ": "North Indian, Mughlai, Lebanese", "hours": "12noon\u201312midnight(Mon-Sun)", "Cost for two": "\u20b9300"}, {"Name": "Haldiram Bhujiawala", "Rating": "3.2", "votes": "88", "location": " A-94/5, Industrial Area, Wazirpur, New Delhi", "Cuisines: ": "Street Food, Mithai", "hours": "10am\u201310pm(Mon-Sun)", "Cost for two": "\u20b9250"}, {"Name": "Queen's Cakes", "Rating": "3.8", "votes": "111", "location": " SCO 63, 1st Floor, Near Indian Overseas Bank, Main Market, Sector 46, Faridabad", "Cuisines: ": "Bakery", "hours": "10am\u201310pm(Mon-Sun)", "Cost for two": "\u20b9200"}, {"Name": "Gyani Special Tawa Paratha", "Rating": "3.7", "votes": "46", "location": " 5/181, Shop 2, Opposite Chhatri Wala Park, Subhash Nagar, New Delhi", "Cuisines: ": "North Indian", "hours": "9am\u20134pm,8pm\u20134am(Mon-Sun)", "Cost for two": "\u20b9200"}, {"Name": "Chai Shots", "Rating": "3.6", "votes": "139", "location": " Unit 3, Ground Floor, Omaxe Square, Jasola, New Delhi", "Cuisines: ": "Tea, Fast Food, Street Food, Beverages", "hours": "9am\u20138:30pm(Mon-Sun)", "Cost for two": "\u20b9300"}, {"Name": "Da Pizza Palace", "Rating": "3.8", "votes": "286", "location": " A 6, Main Khanjhawala Road, Opposite Budh Vihar,  Rohini, New Delhi", "Cuisines: ": "Pizza, Fast Food", "hours": "11am\u201311pm(Mon-Sun)", "Cost for two": "\u20b9500"}, {"Name": "Rajesh Food Point", "Rating": "3.7", "votes": "153", "location": " B - 4 Syndicate Enclave, Pankha Road, Near Dabri Mor, Janakpuri, New Delhi", "Cuisines: ": "North Indian", "hours": "Closed(Mon),11am\u20134pm,7pm\u201311pm(Tue-Sun)", "Cost for two": "\u20b9300"}, {"Name": "World of Pizza", "Rating": "3.8", "votes": "258", "location": " LG 18, Orbit Plaza, Crossing Republik, Ghaziabad", "Cuisines: ": "Pizza", "hours": "11:30am\u201310:30pm(Mon-Sun)", "Cost for two": "\u20b9400"}]