[{"Name": "Haveli", "Rating": "4.1", "votes": "305", "location": " Delhi - Karnal Highway,  Bhigan Chowk, District Sonipat, GT Road,Murthal, New Delhi", "Cuisines: ": "North Indian", "hours": "24Hours(Mon-Sun)", "Cost for two": "\u20b9800"}, {"Name": "Nightwatch", "Rating": "NEW", "votes": "305", "location": " 22, 3rd Floor, MCD School, Indra Vihar, Near Mukherjee Nagar, New Delhi", "Cuisines: ": "Fast Food, Beverages", "hours": "9pm\u20133am(Mon-Sun)", "Cost for two": "\u20b9250"}, {"Name": "Pizza Bistro", "Rating": "3.7", "votes": "72", "location": " Surya Apartments, Hajipur, Sector 104, Near Sector 110, Noida", "Cuisines: ": "Pizza", "hours": "11:30am\u201312midnight(Mon,Tue,Wed,Thu,Fri...", "Cost for two": "\u20b9600"}, {"Name": "Food Hut", "Rating": "NEW", "votes": "72", "location": " Ansal Golf Link, Near Pari Chowk, Omega 1, Greater Noida", "Cuisines: ": "Chinese", "hours": "11am\u20134pm(Mon-Sun)", "Cost for two": "\u20b9200"}, {"Name": "Food Engineering", "Rating": "3.3", "votes": "19", "location": " F344/1, Ground Floor, Near Central Bank Of India, Lado Sarai, New Delhi", "Cuisines: ": "South Indian", "hours": "7am\u20134am(Mon-Sun)", "Cost for two": "\u20b9400"}, {"Name": "Janta Bakery", "Rating": "4.1", "votes": "294", "location": " 43, Central Road, Bhogal, Jangpura, New Delhi", "Cuisines: ": "Bakery, Fast Food", "hours": "8am\u201310pm(Mon-Sun)", "Cost for two": "\u20b9150"}, {"Name": "Momos Fever", "Rating": "4.1", "votes": "41", "location": " BA Block, Gurunanak Pura, Jail Road, Tilak Nagar, New Delhi", "Cuisines: ": "Momos, Chinese", "hours": "24Hours(Mon-Sun)", "Cost for two": "\u20b9300"}, {"Name": "Classical Shakes & Ice Cream", "Rating": "3.7", "votes": "48", "location": " Shop 8, Ground Floor, Vikas Surya, Sector 7, Near Naharpur, Rohini, New Delhi", "Cuisines: ": "Beverages, Fast Food, Ice Cream", "hours": "11am\u201310:45pm(Mon-Sun)", "Cost for two": "\u20b9300"}, {"Name": "Alpanas Kitchen", "Rating": "3.7", "votes": "70", "location": " J 8, Near Mapasko Paradise, Bangali Market, Sector 83, Gurgaon", "Cuisines: ": "North Indian, Chinese", "hours": "8am\u201311pm(Mon-Sun)", "Cost for two": "\u20b9450"}, {"Name": "Tino'z Chinese Kitchen", "Rating": "4.4", "votes": "313", "location": " C 81, Restaurant Lane, Jhilmil, Vivek Vihar, New Delhi", "Cuisines: ": "Chinese, Tibetan", "hours": "11am\u201311:30pm(Mon-Sun)", "Cost for two": "\u20b9500"}, {"Name": "The Saladian", "Rating": "3.6", "votes": "53", "location": " SD -146, Jaipuria Sunrise Plaza, Indirapuram, Ghaziabad", "Cuisines: ": "Wraps, Healthy Food, Sandwich, Salad", "hours": "9:30am\u20139pm(Mon,Wed,Thu,Fri,Sat,Sun)...", "Cost for two": "\u20b9300"}, {"Name": "ReSet By Plan B", "Rating": "3.7", "votes": "59", "location": " Near Dell Building, Golf Course Road, Sector 43, Gurgaon", "Cuisines: ": "North Indian, Chinese", "hours": "12noon\u201312midnight(Mon-Sun)", "Cost for two": "\u20b9800"}, {"Name": "The Grill Bar", "Rating": "4.3", "votes": "53", "location": " 2349, Police Line Road, Near Housing Board Colony, Sector 28, Faridabad", "Cuisines: ": "North Indian, Mughlai, Chinese", "hours": "1:30pm\u201311pm(Mon-Sun)", "Cost for two": "\u20b9500"}, {"Name": "Biryani Nirvana", "Rating": "4.1", "votes": "38", "location": " 49, 2nd Floor, Nipun Wonder Mall, Shakti Khand 2, Indirapuram, Ghaziabad", "Cuisines: ": "North Indian, Biryani, Kebab", "hours": "11am\u201311pm(Mon-Sun)", "Cost for two": "\u20b9700"}, {"Name": "Crops & Curries", "Rating": "3.9", "votes": "271", "location": " VVIP Style Mall, 3rd Floor, Raj Nagar, Ghaziabad", "Cuisines: ": "North Indian, Chinese, Mediterranean, Italian", "hours": "11am\u201311pm(Mon-Sun)", "Cost for two": "\u20b91,000"}]