[{"Name": "Piyu Cafe", "Rating": "3.4", "votes": "13", "location": " Connaught Place, New Delhi", "Cuisines: ": "Cafe", "hours": "7am\u20136pm(Mon-Sun)", "Cost for two": "\u20b9300"}, {"Name": "Shahi Chicken Muradabadi Biryani", "Rating": "-", "votes": "13", "location": " Shop 6, Kashmiri Market, Oppsite Shankar Market, Connaught Place, New Delhi", "Cuisines: ": "Biryani, Mughlai", "hours": "11am\u201310pm(Mon-Sun)", "Cost for two": "\u20b9250"}, {"Name": "Surang Coffee Shop - Hotel Alka Classic", "Rating": "3.1", "votes": "6", "location": " Hotel Alka Classic, Outer Circle, Connaught Place, New Delhi", "Cuisines: ": "Mughlai, North Indian", "hours": "12noon\u20134pm,7pm\u20131am(Mon-Sun)", "Cost for two": "\u20b91,200"}, {"Name": "Quick Byte", "Rating": "-", "votes": "6", "location": " Stall 1, Mohan Singh Place, Connaught Place, New Delhi", "Cuisines: ": "Fast Food, Street Food", "hours": "11am\u201311pm(Mon-Sun)", "Cost for two": "\u20b9300"}, {"Name": "Cafe@199", "Rating": "-", "votes": "6", "location": " Shivaji Stadium Metro Station, Hanuman Road Area, Connaught Place, New Delhi", "Cuisines: ": "Fast Food", "hours": "11am\u201311pm(Mon-Sun)", "Cost for two": "\u20b9400"}, {"Name": "Al Zaffran Food Corner", "Rating": "-", "votes": "6", "location": " S-4, Mini Market, Palika Bazar, Connaught Place, New Delhi", "Cuisines: ": "North Indian", "hours": "12noon\u20139pm(Mon-Sun)", "Cost for two": "\u20b9300"}, {"Name": "Coffee Break", "Rating": "3.3", "votes": "5", "location": " Constitution Club of India, Opposite RBI, Rafi Marg, New Delhi", "Cuisines: ": "Cafe, Fast Food, Beverages, Desserts", "hours": "9am\u20139pm(Mon-Sun)", "Cost for two": "\u20b9400"}, {"Name": "Yamu's Panchayat", "Rating": "4.0", "votes": "181", "location": " 92, NDMC Market, Connaught Place, New Delhi", "Cuisines: ": "Paan", "hours": "11:30am\u201312:30am(Mon-Sun)", "Cost for two": "\u20b9150"}, {"Name": "Kill The Bill Express", "Rating": "-", "votes": "181", "location": " F 14/15, First Floor, Shivam house, Connaught Place, New Delhi", "Cuisines: ": "North Indian, Chinese, Continental", "hours": "12noon\u201312midnight(Mon-Sun)", "Cost for two": "\u20b9250"}, {"Name": "Kook For Health", "Rating": "3.5", "votes": "39", "location": " 1, Ashoka Road, Near Bangla Sahib Gurudwara, Connaught Place, New Delhi", "Cuisines: ": "North Indian, Continental", "hours": "8am\u201310pm(Mon-Sun)", "Cost for two": "\u20b9500"}, {"Name": "PB's Rolls and Street Foods", "Rating": "3.3", "votes": "17", "location": " 5A, Behind Regal Cinema, Regal building,  Connaught Place, New Delhi", "Cuisines: ": "Street Food", "hours": "11am\u201311pm(Mon-Sun)", "Cost for two": "\u20b9250"}, {"Name": "Meal In A Box", "Rating": "-", "votes": "17", "location": " 1 Gandhi Market, Minto Road, Connaught Place, New Delhi", "Cuisines: ": "Fast Food", "hours": "11:30am\u201310:30pm(Mon-Sun)", "Cost for two": "\u20b9300"}, {"Name": "Chow Maun", "Rating": "-", "votes": "17", "location": " Shop 64, Municipal Market, Connaught Place, New Delhi", "Cuisines: ": "Chinese", "hours": "12noon\u201312midnight(Mon-Sun)", "Cost for two": "\u20b9300"}, {"Name": "Baskin Robbins", "Rating": "3.8", "votes": "45", "location": " Mezzanine Level, Shivaji Stadium Metro Station, Baba Kharak Singh Marg, Connaught Place, New Delhi", "Cuisines: ": "Ice Cream, Desserts, Beverages", "hours": "10am\u20138pm(Mon,Tue,Wed,Thu,Fri,Sun),Closed...", "Cost for two": "\u20b9200"}, {"Name": "Taste Of China", "Rating": "3.8", "votes": "446", "location": " N-18, Outer Circle, Opposite Kasturba Gandhi Marg, Connaught Place, New Delhi", "Cuisines: ": "Chinese, North Indian", "hours": "11am\u201311pm(Mon-Sun)", "Cost for two": "\u20b91,600"}]