[{"Name": "Sprinkles Bakery & More", "Rating": "3.9", "votes": "370", "location": " Shop 76, HUDA Market, Sector 14, Faridabad", "Cuisines: ": "Bakery, Fast Food", "hours": "10:30am\u201310:30pm(Mon-Sun)", "Cost for two": "\u20b9500"}, {"Name": "Bikaner Sweets & Restaurant", "Rating": "3.5", "votes": "41", "location": " 17 & 18, Old Delhi Road, Sector 21, Gurgaon", "Cuisines: ": "Mithai, Street Food", "hours": "8am\u201310pm(Mon-Sun)", "Cost for two": "\u20b9150"}, {"Name": "Beyond Liines", "Rating": "4.2", "votes": "138", "location": " Ground Floor, Plot 94, Sector 13, Dwarka, New Delhi", "Cuisines: ": "North Indian, Chinese, Italian", "hours": "1pm\u201311pm(Mon-Sun)", "Cost for two": "\u20b91,500"}, {"Name": "Retreat @ USI", "Rating": "4.0", "votes": "374", "location": " USI Premises, C1, Rao Tula Ram Marg, Shankar Vihar, New Delhi, Delhi 110057", "Cuisines: ": "North Indian, Chinese, Continental, Salad", "hours": "12:30pm\u20132:30pm,7:30pm\u201310:30pm(Mon-Sun)", "Cost for two": "\u20b9800"}, {"Name": "Pubg Pizza Cafe", "Rating": "NEW", "votes": "374", "location": " Shop 2, Piller C1, Johri Enclave Metro Station, Karawal Nagar, Loni, Ghaziabad", "Cuisines: ": "Pizza, Fast Food, Beverages", "hours": "11am\u201311pm(Mon-Sun)", "Cost for two": "\u20b9300"}, {"Name": "Unspoken 52", "Rating": "3.3", "votes": "12", "location": " Lake Forest Wine, Pablo Farms, Sector 52, South City 2, Gurgaon", "Cuisines: ": "North Indian, Mughlai, Chinese, Italian, Fast Food", "hours": "4pm\u20131am(Mon-Sun)", "Cost for two": "\u20b91,200"}, {"Name": "The London Shakes & Dhaba Cafe", "Rating": "NEW", "votes": "12", "location": " Plot 27, Near Indian Oil Petrol Pump, Pandav Nagar, New Delhi", "Cuisines: ": "Fast Food, Street Food, Beverages", "hours": "10am\u201310pm(Mon-Sun)", "Cost for two": "\u20b9200"}, {"Name": "Ice Spice Cafe", "Rating": "3.7", "votes": "29", "location": " B5/ 401, Near Haryana Dairy, Sector 11, Rohini, New Delhi", "Cuisines: ": "Fast Food, Chinese, Beverages", "hours": "11am\u201310:30pm(Mon-Sun)", "Cost for two": "\u20b9500"}, {"Name": "Chinese Chulha", "Rating": "4.0", "votes": "249", "location": " Shop 224, 2nd Floor, Panchsheel Sqaure Mall, Crossing Republik, Ghaziabad", "Cuisines: ": "Chinese", "hours": "12noon\u201312midnight(Mon-Sun)", "Cost for two": "\u20b9800"}, {"Name": "CurioCity", "Rating": "3.9", "votes": "707", "location": " SL 5, Friends Enclave, Sector 49, Noida", "Cuisines: ": "North Indian, Chinese", "hours": "24Hours(Mon-Sun)", "Cost for two": "\u20b9600"}, {"Name": "FoodPaco Pizza", "Rating": "4.0", "votes": "86", "location": " Delivery Only", "Cuisines: ": "Pizza, Fast Food", "hours": "11am\u20136am(Mon-Sun)", "Cost for two": "\u20b9300"}, {"Name": "KHIDKI", "Rating": "4.2", "votes": "292", "location": " SCO 87, Sector 15, Faridabad", "Cuisines: ": "Burger, Healthy Food, Continental, Fast Food, Desserts, Beverages", "hours": "11am\u20133am(Mon-Sun)", "Cost for two": "\u20b9450"}, {"Name": "The Kathi Rolls", "Rating": "3.9", "votes": "293", "location": " Shop 3, SCO Market, Sector 56, Gurgaon", "Cuisines: ": "Rolls", "hours": "11am\u201311pm(Mon-Wed),9:30am\u201311pm...", "Cost for two": "\u20b9400"}, {"Name": "ThaiCrate", "Rating": "4.2", "votes": "371", "location": " A 5, DDA Shopping Market Complex, Near Moolchand Flyover, Defence Colony, New Delhi", "Cuisines: ": "Thai, Asian, Chinese", "hours": "12noon\u201311pm(Mon-Sun)", "Cost for two": "\u20b91,000"}, {"Name": "Batra Restaurant", "Rating": "3.6", "votes": "48", "location": " B-408, Behind Reliance Estate Agency, Nehru Ground, NIT, Faridabad", "Cuisines: ": "North Indian, Chinese", "hours": "11am\u201311pm(Mon-Sun)", "Cost for two": "\u20b9400"}]