[{"Name": "Bahadur Dhaba", "Rating": "3.1", "votes": "21", "location": " Shop 313, Padam Singh Road, Karol Bagh, New Delhi", "Cuisines: ": "North Indian", "hours": "11am\u20135pm,7pm\u201311pm(Mon-Sun)", "Cost for two": "\u20b9250"}, {"Name": "Meghraj & Sons", "Rating": "3.4", "votes": "25", "location": " 292/293, Fateh Puri Chowk, Chandni Chowk, New Delhi", "Cuisines: ": "Street Food, Mithai", "hours": "7:30am\u20139pm(Mon-Sat),7:30am\u20136pm(Sun)", "Cost for two": "\u20b9200"}, {"Name": "The Dhaba Junction", "Rating": "3.2", "votes": "7", "location": " 14 A/22 Ground Floor, WEA, Karol Bagh, New Delhi", "Cuisines: ": "North Indian, Chinese, Fast Food", "hours": "11am\u201311pm(Mon-Sun)", "Cost for two": "\u20b9500"}, {"Name": "Meerut Ki Masoor Haleem Biryani", "Rating": "-", "votes": "7", "location": " Plot 114, Block C, New Seelampur Market, Jama Masjid, New Delhi", "Cuisines: ": "Biryani", "hours": "6am\u20132pm(Mon-Sun)", "Cost for two": "\u20b9150"}, {"Name": "Barwalaa", "Rating": "3.3", "votes": "10", "location": " Shop 119, Karol Bagh Mall, Gurudwara Road, Karol Bagh, New Delhi", "Cuisines: ": "Bar Food", "hours": "11am\u201312:30am(Mon-Sun)", "Cost for two": "\u20b9600"}, {"Name": "Anna Mess", "Rating": "2.7", "votes": "56", "location": " 4, 15-A/9, WEA, Ajmal Khan Road, Karol Bagh, New Delhi", "Cuisines: ": "South Indian", "hours": "8am\u201311pm(Mon-Sun)", "Cost for two": "\u20b9450"}, {"Name": "Haji Tea Point", "Rating": "3.7", "votes": "18", "location": " Jama Masjid Road, Matia Mahal, Jama Masjid, New Delhi", "Cuisines: ": "Fast Food, Beverages", "hours": "4am\u20131am(Mon-Sun)", "Cost for two": "\u20b9150"}, {"Name": "Thali Wala", "Rating": "3.0", "votes": "7", "location": " Shop 6 A, 15A/5, WEA, Karol Bagh, New Delhi", "Cuisines: ": "North Indian, Chinese, South Indian, Rolls", "hours": "11am\u201311pm(Mon-Sun)", "Cost for two": "\u20b9700"}, {"Name": "Nazakat Chicken Corner", "Rating": "3.4", "votes": "16", "location": " 4030, Gali Khana, Urdu Bazar Road, Jama Masjid, New Delhi", "Cuisines: ": "Mughlai, North Indian", "hours": "10am\u20139pm(Mon-Sun)", "Cost for two": "\u20b9200"}, {"Name": "Ameer Sweets House", "Rating": "3.3", "votes": "9", "location": " 958, Haveli Azam Khan, Chitli Qabar, Jama Masjid, New Delhi", "Cuisines: ": "Mithai, Street Food", "hours": "6am\u201312midnight(Mon-Sun)", "Cost for two": "\u20b9200"}, {"Name": "Kamal Kachori Wale", "Rating": "3.2", "votes": "5", "location": " 1006, Sitaram Bazar Road, Kucha Pati Ram, Chandni Chowk, New Delhi", "Cuisines: ": "North Indian", "hours": "8am\u20134pm(Mon-Sun)", "Cost for two": "\u20b9100"}, {"Name": "Ansari Hotel", "Rating": "3.1", "votes": "5", "location": " 1499, Sarai Khalil, Sadar Bazar, Chandni Chowk, New Delhi", "Cuisines: ": "Mughlai, North Indian, Naga", "hours": "7am\u201311pm(Mon-Sun)", "Cost for two": "\u20b9400"}, {"Name": "Grand Bakery", "Rating": "-", "votes": "5", "location": " 4B/62, Ground Floor, Salwan Marg, Rajinder Nagar, New Delhi", "Cuisines: ": "Bakery, Fast Food", "hours": "7:30am\u201310pm(Mon-Sun)", "Cost for two": "\u20b9300"}, {"Name": "Kedarnath Prem Chand Halwai", "Rating": "3.8", "votes": "53", "location": " Shop 4737, Opposite Chotti Baradari, Main Ballimaran, Chandni Chowk, New Delhi", "Cuisines: ": "Mithai, Street Food", "hours": "6am\u20139pm(Mon-Sun)", "Cost for two": "\u20b9100"}, {"Name": "Gupta G Pav Bhaji", "Rating": "3.6", "votes": "40", "location": " Shop 7, Dayanand Marg Fruit Market, Daryaganj, New Delhi", "Cuisines: ": "Street Food", "hours": "2pm\u201311pm(Mon-Sun)", "Cost for two": "\u20b9150"}]