[{"Name": "Tunnel of Fun", "Rating": "-", "location": " E-7, Prashant Vihar, Sector 14, Rohini, New Delhi", "Cuisines: ": "Fast Food", "hours": "11am\u20138pm(Mon-Sun)", "Cost for two": "\u20b9600"}, {"Name": "Binge & Slurp", "Rating": "3.5", "location": " 300, Forest Lane, Cross Lane 5, Neb Sarai, Saket, New Delhi", "Cuisines: ": "Bakery, Desserts", "hours": "11am\u201311pm(Mon-Sun)", "Cost for two": "\u20b9400", "votes": "23"}, {"Name": "Hyderabad Delights", "Rating": "3.8", "location": " A-2/08, Above Fortis Health World, Sector 110, Noida", "Cuisines: ": "Biryani, North Indian", "hours": "7:30am\u201310:30pm(Mon-Sun)", "Cost for two": "\u20b9600", "votes": "128"}, {"Name": "Khopcha", "Rating": "3.9", "location": " 14, Krishna DDA Market, Sector 10, Dwarka, New Delhi", "Cuisines: ": "Chinese", "hours": "4pm\u20133am(Mon-Sun)", "Cost for two": "\u20b9500", "votes": "487"}, {"Name": "Tete-a-Tete", "Rating": "4.1", "location": " B-24, Ground Floor, Opposite N Block Market Entrance, Greater Kailash 1 (GK1), New Delhi", "Cuisines: ": "Cafe, Healthy Food, Desserts", "hours": "8am\u20131am(Mon-Sun)", "Cost for two": "\u20b9500", "votes": "105"}, {"Name": "FNP Cakes N More", "Rating": "-", "location": " UGF 24, Hotmart, The Aranya, Sector 119, Near Sector 72, Noida", "Cuisines: ": "Bakery", "hours": "10am\u201310pm(Mon-Sun)", "Cost for two": "\u20b9250", "votes": "105"}, {"Name": "Spam The Spice Lane", "Rating": "3.3", "location": " Plot GH 3, LGF-11, Hyde Park Crown, IITL Nimbus, The Hyde Park, Sector 72, Noida", "Cuisines: ": "North Indian, Chinese", "hours": "12:45pm\u201310:45pm(Mon,Wed,Thu,Fri,Sat,Sun)...", "Cost for two": "\u20b9750", "votes": "18"}, {"Name": "FOOD 2 GO", "Rating": "3.4", "location": " Shop G2, RG Complex, Opposite Balaji Mandir, Sector 14, Prashant Vihar, New Delhi", "Cuisines: ": "Chinese, North Indian", "hours": "12noon\u20133:30pm,5:30pm\u201310pm(Mon-Sun)", "Cost for two": "\u20b9350", "votes": "41"}, {"Name": "Chander's", "Rating": "3.5", "location": " D 2/4, Model Town 3, Near Model Town 2, New Delhi", "Cuisines: ": "Street Food", "hours": "8am\u201310pm(Mon-Sun)", "Cost for two": "\u20b9100", "votes": "58"}, {"Name": "Singh Sahab", "Rating": "3.0", "location": " B-476, Ground Floor, Green Field Colony, Sector 41, Faridabad", "Cuisines: ": "North Indian, Chinese, Rolls, Biryani", "hours": "12noon\u20134pm,6pm\u201311pm(Mon-Sun)", "Cost for two": "\u20b9800", "votes": "180"}, {"Name": "The Melange", "Rating": "3.7", "location": " C-15, Ground Floor, Shyam Park Extension, Sahibabad, Ghaziabad", "Cuisines: ": "North Indian, Mughlai, Chinese", "hours": "12noon\u201311pm(Mon-Sun)", "Cost for two": "\u20b9600", "votes": "205"}, {"Name": "Dilli Biryani", "Rating": "3.2", "location": " Shop 1, CD Tower, CD Chowk, Sector 48, Sohna Road, Gurgaon", "Cuisines: ": "Biryani", "hours": "11:30am\u201312midnight(Mon-Sun)", "Cost for two": "\u20b9300", "votes": "4"}, {"Name": "Pizza Terminal", "Rating": "3.4", "location": " F 12, Jagatpuri Parwana Road, Near Reliance Fresh, Krishna Nagar, New Delhi", "Cuisines: ": "Pizza, Fast Food", "hours": "12noon\u201311pm(Mon-Sun)", "Cost for two": "\u20b9250", "votes": "19"}, {"Name": "Dragon Momo", "Rating": "4.2", "location": " Shop 5, Hazipur, Sector 104, Near Sector 110, Noida", "Cuisines: ": "Chinese, Thai", "hours": "12noon\u20132am(Mon-Sun)", "Cost for two": "\u20b9600", "votes": "114"}, {"Name": "Hira Confectioners", "Rating": "3.5", "location": " G 90, Vardhman Plus City Mall, Sector 23, Dwarka, New Delhi", "Cuisines: ": "Chinese, Fast Food, North Indian", "hours": "10am\u20139pm(Mon-Sun)", "Cost for two": "\u20b9300", "votes": "44"}]