[{"Name": "Amigos Kitchen And Grill", "Rating": "3.9", "votes": "59", "location": " B 34, RDC, Raj Nagar, Ghaziabad", "Cuisines: ": "North Indian, Fast Food", "hours": "12noon\u201311pm(Mon-Sun)", "Cost for two": "\u20b9800"}, {"Name": "Bizibean", "Rating": "NEW", "votes": "59", "location": " Sector C, Pocket 6 & 7, Vasant Kunj, New Delhi", "Cuisines: ": "Cafe", "hours": "8am\u201311pm(Mon-Sun)", "Cost for two": "\u20b9400"}, {"Name": "Maverick & Farmer Coffee", "Rating": "NEW", "votes": "59", "location": " M-31, Ground Floor, M Block Market, Greater Kailash 2 (GK 2), New Delhi", "Cuisines: ": "Coffee", "hours": "11am\u201311pm(Mon-Sun)", "Cost for two": "\u20b9150"}, {"Name": "Barkha Food Corner", "Rating": "NEW", "votes": "59", "location": " 639, Saraswati Vihar, Sector 28, MG Road, Gurgaon", "Cuisines: ": "North Indian, South Indian", "hours": "9am\u20139pm(Mon-Sun)", "Cost for two": "\u20b9300"}, {"Name": "Mummy's Food", "Rating": "3.3", "votes": "44", "location": " Shop 71, Near Omax Height, Sector 86, Faridabad", "Cuisines: ": "North Indian, Chinese", "hours": "10:30am\u201312midnight(Mon-Sun)", "Cost for two": "\u20b9300"}, {"Name": "The Foodfellas", "Rating": "3.5", "votes": "116", "location": " Plot 2B, Noida Express Way, Sector 127, Noida", "Cuisines: ": "North Indian, Chinese, Fast Food, Beverages", "hours": "9am\u20138:30pm(Mon-Sat),Closed(Sun)", "Cost for two": "\u20b9700"}, {"Name": "Rawat Tea Stall And Fast Food", "Rating": "-", "votes": "116", "location": " R-8, Green Park Main, Green Park, New Delhi", "Cuisines: ": "Chinese, North Indian", "hours": "6:30am\u20136:30pm(Mon-Sun)", "Cost for two": "\u20b9100"}, {"Name": "Shiksha Fast Food", "Rating": "3.2", "votes": "24", "location": " 13, Near Water Tank, Huda Market, Sector 28, Faridabad", "Cuisines: ": "Fast Food, Chinese", "hours": "10am\u201310pm(Mon-Sun)", "Cost for two": "\u20b9250"}, {"Name": "Pizza King", "Rating": "3.5", "votes": "115", "location": " J 15, Behind Alaknanda Market, Alaknanda, New Delhi", "Cuisines: ": "Pizza", "hours": "8am\u20132am(Mon-Sun)", "Cost for two": "\u20b9400"}, {"Name": "Sai Kutir Food", "Rating": "3.3", "votes": "146", "location": " F 206, Lane 2, Samaspur Road, Pandav Nagar, New Delhi", "Cuisines: ": "North Indian, Chinese", "hours": "10am\u201310pm(Mon-Sun)", "Cost for two": "\u20b9400"}, {"Name": "Samla Food", "Rating": "3.4", "votes": "61", "location": " Shop S18D, Shakarpur School Block, Laxmi Nagar, New Delhi", "Cuisines: ": "North Indian", "hours": "11am\u201311:30pm(Mon-Sun)", "Cost for two": "\u20b9300"}, {"Name": "Foodaro", "Rating": "4.1", "votes": "39", "location": " Shop 42, A-1 Block, Lal Market, Paschim Vihar, New Delhi", "Cuisines: ": "Chinese", "hours": "11am\u201311pm(Mon-Sun)", "Cost for two": "\u20b9300"}, {"Name": "New Punjabi Tokri", "Rating": "NEW", "votes": "39", "location": " E-1/10/1, Ground Floor, Sector 15, Rohini, New Delhi", "Cuisines: ": "North Indian", "hours": "11am\u201311pm(Mon-Sun)", "Cost for two": "\u20b9300"}, {"Name": "Chilli Indiana", "Rating": "4.2", "votes": "232", "location": " U8/18, Basement, Near DLF Phase 3 Metro Station, DLF Phase 3, Gurgaon", "Cuisines: ": "Pizza, Italian, Fast Food", "hours": "24Hours(Mon-Sun)", "Cost for two": "\u20b9500"}, {"Name": "Bhagat Ji Sweet House", "Rating": "3.2", "votes": "5", "location": " Near Baburam School, Bholanath Nagar, Shahdara, New Delhi", "Cuisines: ": "Mithai", "hours": "8am\u201311pm(Mon-Sun)", "Cost for two": "\u20b9300"}]