[{"Name": "A Cake & O'Clock", "Rating": "-", "location": " Shop 5, MMC Campus, Meerdard Road, Daryaganj, New Delhi", "Cuisines: ": "Bakery, Fast Food", "hours": "12noon\u201311pm(Mon-Sun)", "Cost for two": "\u20b9150"}, {"Name": "Zahid Chicken Corner", "Rating": "-", "location": " 1109, Matia Mahal Road, Jama Masjid, Daryaganj, New Delhi", "Cuisines: ": "North Indian", "hours": "5pm\u201312midnight(Mon-Sun)", "Cost for two": "\u20b9300"}, {"Name": "Modern Halal Meat Shop", "Rating": "-", "location": " Near Thana Bada Hindu Rav, Kamla Nagar, New Delhi", "Cuisines: ": "Raw Meats", "hours": "10am\u20139pm(Mon-Sun)", "Cost for two": "\u20b9350"}, {"Name": "Sardaar Ji ka Dhaba", "Rating": "-", "location": " 389, Lajpatrai Market, Near Red Fort, Chandni Chowk, New Delhi", "Cuisines: ": "North Indian", "hours": "10am\u20137pm(Mon-Sun)", "Cost for two": "\u20b9300"}, {"Name": "Mohit Corner", "Rating": "-", "location": " 16/360, Street 5, I-Block, Bapa Nagar, Pyare Lal Road, Dev nagar, Karol Bagh, New Delhi", "Cuisines: ": "Chinese, Fast Food, Rolls", "hours": "2pm\u201310:30pm(Mon-Sun)", "Cost for two": "\u20b9200"}, {"Name": "Himanshu Dhaba", "Rating": "-", "location": " RZ D 5/24 A, Gali 5, Vashist Park, Sagarpur, Palam, New Delhi", "Cuisines: ": "North Indian", "hours": "12noon\u20133pm,6pm\u201311pm(Mon-Sun)", "Cost for two": "\u20b9200"}, {"Name": "King Standard Halal Meat & Chicken Shop", "Rating": "-", "location": " Shop 8796, Near Thana Bada Hindu Rav, Pul Bangash, Kamla Nagar, New Delhi", "Cuisines: ": "Raw Meats", "hours": "10am\u20139pm(Mon-Sun)", "Cost for two": "\u20b9350"}, {"Name": "Kamil Meat Shop", "Rating": "-", "location": " Near Thana Bada Hindu Rav, Kamla Nagar, New Delhi", "Cuisines: ": "Raw Meats", "hours": "10am\u20139pm(Mon-Sun)", "Cost for two": "\u20b9350"}, {"Name": "Milan Chola Batura", "Rating": "-", "location": " 371, Hoje Kaij Road, Chandni Chowk, New Delhi", "Cuisines: ": "North Indian", "hours": "10am\u201310pm(Mon-Sun)", "Cost for two": "\u20b9100"}, {"Name": "Chotey Lal Paan Bhandar", "Rating": "-", "location": " 11296, Near Tibbya College Red Light, New Rohtak Road, Karol Bagh, New Delhi", "Cuisines: ": "Paan", "hours": "9am\u201311pm(Mon-Sun)", "Cost for two": "\u20b9100"}, {"Name": "South Indian Dosa Hut", "Rating": "-", "location": " L-1/G 74, Sujan Singh Park Metro Station, Khan Market, New Delhi", "Cuisines: ": "South Indian", "hours": "10am\u20139:30pm(Mon-Sun)", "Cost for two": "\u20b9250"}, {"Name": "Annapurna Rabdi Lassi", "Rating": "2.9", "location": " 1447/A, Chandni Chowk, New Delhi", "Cuisines: ": "Beverages", "hours": "7:30am\u201311pm(Mon-Sun)", "Cost for two": "\u20b9150", "votes": "4"}, {"Name": "Saini Fast Food", "Rating": "-", "location": " Shop 1446, Jama Masjid, Bazar Gulian Road, Kucha Alam, Chandni Chowk, New Delhi", "Cuisines: ": "Fast Food", "hours": "9am\u201310:30pm(Mon-Sun)", "Cost for two": "\u20b9350", "votes": "4"}, {"Name": "Panna Foods Monginis", "Rating": "-", "location": " 4973/2, Gangamandir Marg, Shivnagar, Near Khalsa College, Karol Bagh, New Delhi", "Cuisines: ": "Bakery, Desserts", "hours": "9am\u201310:30pm(Mon-Sun)", "Cost for two": "\u20b9300", "votes": "4"}, {"Name": "Shahi Anmol Chicken Corner", "Rating": "-", "location": " 1815, Kotla Marg, Opposite Bal Bhawan, ITO, New Delhi", "Cuisines: ": "Mughlai", "hours": "11am\u201311pm(Mon,Wed,Thu,Fri,Sat,Sun),Closed...", "Cost for two": "\u20b9300", "votes": "4"}]