[{"Name": "Punjabi Nation", "Rating": "-", "location": " 1/124, Shankar Road, Old Rajinder Nagar, Rajinder Nagar, New Delhi", "Cuisines: ": "North Indian, Fast Food", "hours": "11am\u201311pm(Mon-Sun)", "Cost for two": "\u20b9400"}, {"Name": "Vindhwashni Bakers , Confectioner & Florist", "Rating": "-", "location": " 44G, Khan Market, New Delhi", "Cuisines: ": "Bakery", "hours": "10am\u20138pm(Mon-Sun)", "Cost for two": "\u20b9100"}, {"Name": "Sardar Ji Corner", "Rating": "-", "location": " 10181, Manakpura East Park Road, Karol Bagh, New Delhi", "Cuisines: ": "North Indian", "hours": "7am\u20136pm(Mon-Sun)", "Cost for two": "\u20b9150"}, {"Name": "Ustad Moinuddin Kebab", "Rating": "3.7", "location": " Lal Kuan, Gali Qasimjan, Chawri Bazar, New Delhi", "Cuisines: ": "Fast Food", "hours": "5pm\u201311:30pm(Mon-Sun)", "Cost for two": "\u20b9100", "votes": "36"}, {"Name": "Jade Garden", "Rating": "2.4", "location": " 5/66, Padam Singh Road, Karol Bagh, New Delhi", "Cuisines: ": "Finger Food, North Indian, Chinese", "hours": "11am\u201312:30am(Mon-Sun)", "Cost for two": "\u20b91,000", "votes": "61"}, {"Name": "Krishna Di Kulfi", "Rating": "3.9", "location": " Shop 7, Pandara Road Market, New Delhi", "Cuisines: ": "Ice Cream, Desserts", "hours": "11am\u20131am(Mon-Sun)", "Cost for two": "\u20b9200", "votes": "251"}, {"Name": "Sikander Omelettes", "Rating": "3.7", "location": " 1425, Bazar Sita Ram Old Delhi, Chawri Bazar, New Delhi", "Cuisines: ": "Fast Food", "hours": "5pm\u201312midnight(Mon,Wed,Thu,Fri,Sat,Sun)...", "Cost for two": "\u20b9150", "votes": "42"}, {"Name": "Almani Foods", "Rating": "-", "location": " 5993, Nawab Road, Near Nawab Wali Masjid, Chandni Chowk, New Delhi", "Cuisines: ": "Fast Food", "hours": "1:30pm\u201311:30pm(Mon-Sun)", "Cost for two": "\u20b9200", "votes": "42"}, {"Name": "Brijwasi Restaurant", "Rating": "3.5", "location": " 379, Near Kucha Ghasi Ram, Chandni Chowk, New Delhi", "Cuisines: ": "North Indian, Chinese, South Indian", "hours": "11am\u201311pm(Mon-Sun)", "Cost for two": "\u20b9400", "votes": "81"}, {"Name": "Choice Corner", "Rating": "3.6", "location": " 2/70, Old Rajinder Nagar, Rajinder Nagar, New Delhi", "Cuisines: ": "Mithai, Street Food", "hours": "10am\u20137pm(Mon-Sun)", "Cost for two": "\u20b9100", "votes": "54"}, {"Name": "De Singh Sahab Bar-Be-Que", "Rating": "3.5", "location": " 1/120, Shankar Road, Old Rajinder Nagar, Rajinder Nagar, New Delhi", "Cuisines: ": "North Indian, Rolls, Mughlai, Chinese", "hours": "6pm\u20131am(Mon-Sun)", "Cost for two": "\u20b9500", "votes": "40"}, {"Name": "Goli Vada Pav No. 1", "Rating": "3.3", "location": " Shop 159, Mezzanine Floor, Gaffar Market, Karol Bagh, New Delhi", "Cuisines: ": "Street Food", "hours": "7am\u201311pm(Mon-Sun)", "Cost for two": "\u20b9200", "votes": "14"}, {"Name": "Chhotey Lal Chat Shop", "Rating": "-", "location": " Shop 1010, Kucha Sarif Bag, Sitaram Bazar, Daryaganj, New Delhi", "Cuisines: ": "Street Food", "hours": "12noon\u201311pm(Mon-Sun)", "Cost for two": "\u20b9200", "votes": "14"}, {"Name": "Fish & Chips", "Rating": "3.7", "location": " Delivery Only", "Cuisines: ": "Biryani, Mughlai, North Indian, Chinese", "hours": "8am\u20134am(Mon-Sun)", "Cost for two": "\u20b91,000", "votes": "783"}, {"Name": "Mool Chand Jagdish Prasad Halwai", "Rating": "-", "location": " 2974, Kumari Bazar, Chandni Chowk, New Delhi", "Cuisines: ": "Mithai", "hours": "10am\u201310pm(Mon-Sun)", "Cost for two": "\u20b9150", "votes": "783"}]