[{"Name": "Library Cafe", "Rating": "3.8", "votes": "544", "location": " F/21, Opposite NDPL, Vijay Nagar, New Delhi", "Cuisines: ": "North Indian, Chinese", "hours": "11am\u201312midnight(Mon-Sun)", "Cost for two": "\u20b91,200"}, {"Name": "Fiery Grills", "Rating": "3.5", "votes": "246", "location": " 306, D Mall, Netaji Subhash Place, New Delhi", "Cuisines: ": "North Indian, Chinese, Bar Food", "hours": "11am\u201311pm(Mon-Sun)", "Cost for two": "\u20b91,500"}, {"Name": "Punjabi Rasoi", "Rating": "3.5", "votes": "597", "location": " A-2, Near Batra Cinema, Commercial Complex, Mukherjee Nagar, New Delhi", "Cuisines: ": "North Indian", "hours": "11am\u20134pm,6:30pm\u20131am(Mon-Sun)", "Cost for two": "\u20b9200"}, {"Name": "Z Corner", "Rating": "3.9", "votes": "217", "location": " 28/14, East Patel Nagar Market, East Patel Nagar, New Delhi", "Cuisines: ": "Biryani, Mughlai", "hours": "1pm\u20134pm,7pm\u20139:30pm(Mon,Wed,Thu,Fri...", "Cost for two": "\u20b9350"}, {"Name": "Momos Hut", "Rating": "-", "votes": "217", "location": " Stall 6, JD Block Market, Pitampura, New Delhi", "Cuisines: ": "Chinese", "hours": "11am\u201311pm(Mon-Sun)", "Cost for two": "\u20b9250"}, {"Name": "RC - Royal Choice", "Rating": "3.7", "votes": "31", "location": " 11/114, Geeta Colony, New Delhi", "Cuisines: ": "Chinese, North Indian", "hours": "5pm\u201311pm(Mon-Sun)", "Cost for two": "\u20b9150"}, {"Name": "Decadenz", "Rating": "4.3", "votes": "371", "location": " Delivery Only", "Cuisines: ": "Bakery, Desserts", "hours": "10am\u20132am(Mon-Sun)", "Cost for two": "\u20b9400"}, {"Name": "Chokhi Handi", "Rating": "3.4", "votes": "10", "location": " WZ 444, Raj Nagar, Mehroli Road, Palam, New Delhi", "Cuisines: ": "North Indian", "hours": "1pm\u201310pm(Mon-Sun)", "Cost for two": "\u20b9400"}, {"Name": "The Riding Guns Cafe", "Rating": "3.9", "votes": "261", "location": " A Block Market, Preet Vihar, New Delhi", "Cuisines: ": "Cafe, Italian, Continental", "hours": "3pm\u20131am(Mon-Sun)", "Cost for two": "\u20b9900"}, {"Name": "Ram Chinese", "Rating": "3.6", "votes": "98", "location": " BB-80/A, West Shalimar Bagh, Shalimar Bagh, New Delhi", "Cuisines: ": "Chinese, Fast Food", "hours": "11am\u201310:30pm(Mon-Sun)", "Cost for two": "\u20b9400"}, {"Name": "Biwi No. 2", "Rating": "3.6", "votes": "133", "location": " G-3/G6, Shop 6, DDA Market, Sector 16, Rohini, New Delhi", "Cuisines: ": "North Indian, Chinese, Fast Food, Mughlai, Continental", "hours": "12noon\u20132am(Mon-Sun)", "Cost for two": "\u20b9600"}, {"Name": "BOWL Guys", "Rating": "3.8", "votes": "32", "location": " 62-63, Ground Floor, JMD Megapolis Mall, Sector 48, Sohna Road, Gurgaon", "Cuisines: ": "Japanese, Asian", "hours": "11am\u201310pm(Mon-Sun)", "Cost for two": "\u20b9700"}, {"Name": "Mughal Garhi", "Rating": "3.9", "votes": "58", "location": " SDA-20, Behind Shivalik Bank, Sector 45, Noida", "Cuisines: ": "North Indian, Chinese", "hours": "6pm\u20134am(Mon-Sun)", "Cost for two": "\u20b9500"}, {"Name": "New Al Lazeez", "Rating": "3.9", "votes": "309", "location": " 21, Gurunanak Market, Opposite Vikram Vihar, Gate 8, Amar Colony Part 4, Lajpat Nagar 4, New Delhi", "Cuisines: ": "North Indian, Mughlai, Rolls", "hours": "12noon\u201311:45pm(Mon-Sun)", "Cost for two": "\u20b9500"}, {"Name": "Shawarma Mohalla", "Rating": "3.8", "votes": "139", "location": " Shop 18, DDA Market M Block, Vikaspuri, New Delhi", "Cuisines: ": "Lebanese, Chinese", "hours": "1:30pm\u201312midnight(Mon-Sun)", "Cost for two": "\u20b9400"}]