[{"Name": "Mamma Mia Bistro Pizzeria", "Rating": "3.7", "votes": "94", "location": " Shop G1-A2, Plot 8, Onyx Plaza, Sector 3, Vasundhara, Ghaziabad", "Cuisines: ": "Pizza, Fast Food, Beverages", "hours": "12noon\u201312midnight(Mon-Sun)", "Cost for two": "\u20b9300"}, {"Name": "The Urban Pizzeria", "Rating": "3.7", "votes": "32", "location": " SD 143, Jaipuria Sunrise Plaza, Indirapuram, Ghaziabad", "Cuisines: ": "Pizza, Fast Food", "hours": "11am\u201311pm(Mon-Sun)", "Cost for two": "\u20b9300"}, {"Name": "Breakfast South Wala", "Rating": "NEW", "votes": "32", "location": " H 72, Vivek Vihar, Dilshad Garden, New Delhi", "Cuisines: ": "South Indian, Chinese", "hours": "7am\u201311pm(Mon-Sun)", "Cost for two": "\u20b9300"}, {"Name": "Sitaram Ke Special Chole Bhature", "Rating": "3.5", "votes": "215", "location": " 2, AZ, GT Road, Azadpur, New Delhi", "Cuisines: ": "North Indian", "hours": "8am\u20134pm(Mon-Sun)", "Cost for two": "\u20b9100"}, {"Name": "Sadda Adda", "Rating": "NEW", "votes": "215", "location": " CR 212, Lalita Park, Laxmi Nagar, New Delhi", "Cuisines: ": "Chinese", "hours": "8:30am\u201311:30pm(Mon-Sun)", "Cost for two": "\u20b9250"}, {"Name": "De Daru", "Rating": "NEW", "votes": "215", "location": " Shop 16, Ground Floor, Prime Tower, Okhla Phase 1, New Delhi", "Cuisines: ": "Bar Food", "hours": "11am\u201311pm(Mon-Sun)", "Cost for two": "\u20b9500"}, {"Name": "The Chainsmokers", "Rating": "3.3", "votes": "12", "location": " Delivery Only", "Cuisines: ": "North Indian, Chinese, Fast Food", "hours": "10am\u201310pm(Mon-Sun)", "Cost for two": "\u20b9400"}, {"Name": "Curryociti", "Rating": "4.1", "votes": "135", "location": " RZ/4, Palam Vihar, Sector 6, Dwarka, New Delhi", "Cuisines: ": "North Indian, Chinese, South Indian", "hours": "12noon\u201311pm(Mon-Sun)", "Cost for two": "\u20b9700"}, {"Name": "Foodies 24", "Rating": "3.5", "votes": "42", "location": " Shop 5, Kanwa Market, Opposite Gaushala, Sector 117, Near Sector 72, Noida", "Cuisines: ": "North Indian, Chinese, Fast Food", "hours": "12noon\u201312midnight(Mon-Sun)", "Cost for two": "\u20b9400"}, {"Name": "Ministry Of Cake", "Rating": "3.2", "votes": "7", "location": " 3/2/4, Gopi Nath Bazar, Delhi Cantt., New Delhi", "Cuisines: ": "Bakery, Fast Food", "hours": "9am\u20139:30pm(Mon-Sun)", "Cost for two": "\u20b9100"}, {"Name": "Bikaner Misthan Bhandar", "Rating": "3.4", "votes": "75", "location": " Patel Bhawan, Behind Vidya Mandir Public School, Sector 15 A, Near Sector 15, Faridabad", "Cuisines: ": "Mithai, Street Food", "hours": "7:30am\u201310:30pm(Mon-Sun)", "Cost for two": "\u20b9200"}, {"Name": "Mumbai Central", "Rating": "3.4", "votes": "8", "location": " Shop 3, Arjan Vihar, Opposite Dhaula Kuan Metro Station, Delhi Cantt., New Delhi", "Cuisines: ": "North Indian", "hours": "10am\u201310pm(Mon-Sun)", "Cost for two": "\u20b9350"}, {"Name": "Pirates of Punjab", "Rating": "3.8", "votes": "105", "location": " 60/14, Ashok Nagar, Near Tilak Nagar Metro Station Gate 3, Tilak Nagar, New Delhi", "Cuisines: ": "North Indian, Fast Food, Momos", "hours": "7am\u20134am(Mon-Sun)", "Cost for two": "\u20b9650"}, {"Name": "CHEESY BITE", "Rating": "3.1", "votes": "5", "location": " RZ-1, Indra Park Extension, Pali Factory Road, Uttam Nagar, New Delhi", "Cuisines: ": "Fast Food", "hours": "11am\u201311pm(Mon-Sun)", "Cost for two": "\u20b9300"}, {"Name": "Milky Milk Shake", "Rating": "3.2", "votes": "9", "location": " D60, Opposite HDFC Bank, Kamla Nagar, New Delhi", "Cuisines: ": "Beverages", "hours": "10am\u201311pm(Mon-Sun)", "Cost for two": "\u20b9150"}]