[{"Name": "Rom's Pizza", "Rating": "4.2", "votes": "225", "location": " U 112 B, Opposite Shakarpur Side Metro Station, Shakarpur, New Delhi", "Cuisines: ": "Pizza, Fast Food", "hours": "11am\u20134am(Mon-Sun)", "Cost for two": "\u20b9450"}, {"Name": "The Layer Cafe & Bistro", "Rating": "3.7", "votes": "25", "location": " 113 A, Near UCO Bank, Shahpur Jat, New Delhi", "Cuisines: ": "Cafe, Korean", "hours": "10am\u20139pm(Mon-Sun)", "Cost for two": "\u20b9600"}, {"Name": "Sakura Arigato", "Rating": "NEW", "votes": "25", "location": " House 93, Humayunpur, Safdarjung, New Delhi", "Cuisines: ": "Japanese", "hours": "2pm\u201311:30pm(Mon-Sun)", "Cost for two": "\u20b9800"}, {"Name": "Cafe BFF", "Rating": "3.6", "votes": "144", "location": " D-7/327, Sector 6, Rohini, New Delhi", "Cuisines: ": "Cafe", "hours": "12noon\u201311pm(Mon-Sun)", "Cost for two": "\u20b9500"}, {"Name": "Amritsari Thali", "Rating": "NEW", "votes": "144", "location": " Shop 2, Ground Floor, Block B1/2, Saraswati Garden City, Kirti Nagar, New Delhi", "Cuisines: ": "North Indian", "hours": "11am\u201311pm(Mon-Sun)", "Cost for two": "\u20b9300"}, {"Name": "Mr Roll Singh", "Rating": "3.9", "votes": "25", "location": " Site 1/122, Ground Floor, Vikaspuri, New Delhi", "Cuisines: ": "Rolls, Beverages", "hours": "2pm\u201312midnight(Mon,Wed,Thu,Sat,Sun),2pm...", "Cost for two": "\u20b9350"}, {"Name": "Tree House", "Rating": "2.8", "votes": "61", "location": " Shop 241, Chattarpur Mandir Road, Chattarpur Village, Opposite Apex Hospital, Chhatarpur, New Delhi", "Cuisines: ": "North Indian, Chinese, Continental, BBQ", "hours": "11am\u201311:30pm(Mon-Sun)", "Cost for two": "\u20b9800"}, {"Name": "Chole Kulche Express", "Rating": "3.2", "votes": "9", "location": " A-509, Shakur Pur, Saraswati Vihar, Pitampura, New Delhi", "Cuisines: ": "North Indian", "hours": "8am\u20136pm(Mon-Sun)", "Cost for two": "\u20b9150"}, {"Name": "Panditan Di Hatti", "Rating": "3.7", "votes": "90", "location": " 118, Samman Bazar Road, Near Jain Mandir Bhogal, Jangpura, New Delhi", "Cuisines: ": "North Indian, South Indian, Chinese", "hours": "8am\u201310pm(Mon-Sun)", "Cost for two": "\u20b9550"}, {"Name": "Greedy Soul Kitchen & Bar", "Rating": "3.8", "votes": "282", "location": " 2527, 3rd Floor, Hudson Lane, Delhi University-GTB Nagar, New Delhi", "Cuisines: ": "Cafe, Modern Indian, North Indian", "hours": "11am\u201311pm(Mon-Sun)", "Cost for two": "\u20b9800"}, {"Name": "Pajju Dosa Chole", "Rating": "3.9", "votes": "64", "location": " 2A/108, Near Raju Jewellers, NIT Faridabad", "Cuisines: ": "Street Food", "hours": "11am\u20139pm(Mon-Sun)", "Cost for two": "\u20b9100"}, {"Name": "Ravi Ande Wale", "Rating": "3.5", "votes": "28", "location": " Ambedkar Park, Jwala Nagar, Shahdara, New Delhi", "Cuisines: ": "Fast Food", "hours": "9am\u201311pm(Mon,Wed,Thu,Fri,Sat,Sun),Closed...", "Cost for two": "\u20b9250"}, {"Name": "Shree Ji Foods", "Rating": "3.5", "votes": "49", "location": " Shop SFK 1A, Galaxy Plaza, Gaur City 1, Greater Noida", "Cuisines: ": "Fast Food, North Indian, Chinese", "hours": "9am\u201311pm(Mon-Sun)", "Cost for two": "\u20b9300"}, {"Name": "Sri Balaji South Indian Food Corner", "Rating": "3.3", "votes": "22", "location": " A 1/1, Kalkaji Main Road, Kalkaji, New Delhi", "Cuisines: ": "South Indian", "hours": "4am\u20133am(Mon-Sun)", "Cost for two": "\u20b9200"}, {"Name": "Baoshuan - The Oberoi", "Rating": "3.7", "votes": "98", "location": " The Oberoi, Dr. Zakir Hussain Marg, New Delhi", "Cuisines: ": "Chinese", "hours": "12:30pm\u20133pm,7pm\u201311:30pm(Mon-Sun)", "Cost for two": "\u20b95,000"}]