[{"Name": "Sandwich Maniac", "Rating": "4.1", "votes": "83", "location": " Huda Market, Sector 32, Near Sector 31, Gurgaon", "Cuisines: ": "Sandwich, Fast Food", "hours": "8am\u201310pm(Mon-Sun)", "Cost for two": "\u20b9500"}, {"Name": "Mehphil", "Rating": "2.6", "votes": "51", "location": " 1, Metro Pillar 786, Dwarka Mod, Uttam Nagar, New Delhi", "Cuisines: ": "North Indian, Mughlai, Chinese", "hours": "11:30am\u20133:30pm,5:30pm\u201310:30pm(Mon-Sun)", "Cost for two": "\u20b9400"}, {"Name": "Royal Jahanpanah", "Rating": "3.8", "votes": "218", "location": " Shop 13 & 14, Baani Square, Near Ocus Quantum Mall, Sector 50, Gurgaon", "Cuisines: ": "North Indian, Mughlai, Kebab", "hours": "5pm\u20132am(Mon-Sun)", "Cost for two": "\u20b9500"}, {"Name": "Moets Kulfi", "Rating": "3.5", "votes": "35", "location": " 50, Defence Colony Main Market, Defence Colony, New Delhi", "Cuisines: ": "Ice Cream", "hours": "12noon\u201311:30pm(Mon-Sun)", "Cost for two": "\u20b9250"}, {"Name": "Kalkata's Lazeez Kathi Rolls", "Rating": "3.4", "votes": "26", "location": " Shop 135, Gurudwara Road, Sector 15, Faridabad", "Cuisines: ": "Rolls, Momos, Fast Food", "hours": "11:30am\u201311pm(Mon-Sun)", "Cost for two": "\u20b9300"}, {"Name": "Yo China Table", "Rating": "3.5", "votes": "87", "location": " Shop 2, Khasra 132, Main IGNOU Road, Sainik Farms, New Delhi", "Cuisines: ": "Chinese", "hours": "12noon\u201311pm(Mon-Sun)", "Cost for two": "\u20b9500"}, {"Name": "Blue Marble Coffee", "Rating": "3.1", "votes": "5", "location": " C-15, Ground Floor, Southern Side, SDA Community Centre, Opposite IIT Main Gate, SDA, New Delhi", "Cuisines: ": "Coffee, Sandwich, Beverages", "hours": "8am\u20138pm(Mon-Sun)", "Cost for two": "\u20b9500"}, {"Name": "Biryani 24", "Rating": "-", "votes": "5", "location": " Plot 48/1, Main Road Chhatarpur, Satbari, Saket, New Delhi", "Cuisines: ": "Biryani, North Indian", "hours": "11am\u201311pm(Mon-Sun)", "Cost for two": "\u20b9500"}, {"Name": "Uttarakhand Bhojnalaya", "Rating": "3.4", "votes": "22", "location": " L 125, Street 5, Near Shiv Maruti Complex, Rangpuri Road, Mahipalpur, New Delhi", "Cuisines: ": "North Indian", "hours": "9am\u20133:30pm,7pm\u201311pm(Mon-Sun)", "Cost for two": "\u20b9300"}, {"Name": "Alfa 63", "Rating": "2.7", "votes": "10", "location": " Taurus Sarovar Portico Hotel, Rangpuri Road, Block B, Mahipalpur, New Delhi", "Cuisines: ": "North Indian, Continental", "hours": "7am\u20133:30am(Mon-Sun)", "Cost for two": "\u20b91,500"}, {"Name": "Ann Jal Bhojanalay", "Rating": "3.4", "votes": "54", "location": " 253/2, Shahpur Jat, New Delhi", "Cuisines: ": "North Indian, Chinese", "hours": "12noon\u20134pm,7pm\u20134am(Mon-Sun)", "Cost for two": "\u20b9450"}, {"Name": "Pathak Food Court", "Rating": "3.5", "votes": "26", "location": " Shop 19, K 4, Shiv Murti Complex, Rangpuri Road, Mahipalpur, New Delhi", "Cuisines: ": "North Indian, Chinese", "hours": "11am\u201311pm(Mon-Sun)", "Cost for two": "\u20b9350"}, {"Name": "Punjabi Swad - Taste of Punjab", "Rating": "3.6", "votes": "50", "location": " E2/8, Malviya Nagar, New Delhi", "Cuisines: ": "North Indian, Chinese", "hours": "7pm\u201312midnight(Mon),12noon\u20134pm,6:30pm\u2013...", "Cost for two": "\u20b9500"}, {"Name": "Cakes 'n' Bakes", "Rating": "3.3", "votes": "29", "location": " 1629, Thana Road, Opposite Canara Bank, Najafgarh, New Delhi", "Cuisines: ": "Bakery, Fast Food, Pizza", "hours": "10am\u201310pm(Mon-Sun)", "Cost for two": "\u20b9350"}, {"Name": "Wake And Bake", "Rating": "3.2", "votes": "40", "location": " Shop 06, Lotus Boulevard, Sector 100, Near Sector 47, Noida", "Cuisines: ": "Bakery, Chinese, Momos", "hours": "12noon\u201311pm(Mon-Sun)", "Cost for two": "\u20b9200"}]