[{"Name": "ASAP-As Spicy As Possible Diner", "Rating": "4.0", "votes": "181", "location": " C-88, RDC, Raj Nagar, Ghaziabad", "Cuisines: ": "North Indian, Chinese, Street Food", "hours": "12noon\u201311pm(Mon-Sun)", "Cost for two": "\u20b91,000"}, {"Name": "Fateh Chand Kachori", "Rating": "4.2", "votes": "168", "location": " In Front of St. Xavier School, Civil Lines, New Delhi", "Cuisines: ": "Street Food", "hours": "11am\u20134am(Mon-Sun)", "Cost for two": "\u20b9100"}, {"Name": "OOAK Eats", "Rating": "4.1", "votes": "58", "location": " B 261, Ground Floor, Sigma 1, Greater Noida", "Cuisines: ": "Chinese, Continental, North Indian", "hours": "24Hours(Mon-Sun)", "Cost for two": "\u20b9200"}, {"Name": "Square Roots", "Rating": "3.5", "votes": "32", "location": " Raipur, Near Amity University Gate-2, Sector 126, Near Sector 125, Noida", "Cuisines: ": "Fast Food, Beverages", "hours": "11am\u201311pm(Mon-Sun)", "Cost for two": "\u20b9400"}, {"Name": "Glued Reloaded", "Rating": "3.8", "votes": "447", "location": " Glued Reloaded, Dynamic House, Next HP Petrol Pump, Sector 41, Noida", "Cuisines: ": "Cafe, Fast Food, Rolls", "hours": "10am\u20132am(Mon),9am\u20132am(Tue-Sun)", "Cost for two": "\u20b91,000"}, {"Name": "Dhaba HR 26", "Rating": "2.1", "votes": "137", "location": " Near Vatika Towers, Sector 54, Gurgaon", "Cuisines: ": "North Indian, Mughlai, Chinese", "hours": "11am\u201311pm(Mon-Sun)", "Cost for two": "\u20b9800"}, {"Name": "Samrat Restaurant", "Rating": "3.7", "votes": "490", "location": " 74-A, Near Gate 1, GTB Nagar Metro Station, Kingsway Camp Chowk, Delhi University-GTB Nagar, New Delhi", "Cuisines: ": "North Indian, Chinese, Mughlai, South Indian, Fast Food", "hours": "12noon\u201311:30pm(Mon-Sun)", "Cost for two": "\u20b9600"}, {"Name": "Oh Yummy", "Rating": "4.3", "votes": "314", "location": " 40, J Block, DDA Market, Vikaspuri, New Delhi", "Cuisines: ": "Pizza, Italian, Fast Food", "hours": "1pm\u201311pm(Mon-Sun)", "Cost for two": "\u20b9500"}, {"Name": "Kf Kitchen", "Rating": "3.6", "votes": "32", "location": " 166-D, Jeewan Nagar, Ashram, Defence Colony, New Delhi", "Cuisines: ": "Fast Food, Desserts", "hours": "11am\u201310pm(Mon-Sun)", "Cost for two": "\u20b9300"}, {"Name": "Burrppp", "Rating": "4.0", "votes": "139", "location": " GF-181, Sushant Vyapar Kendra, Sushant Lok, Gurgaon", "Cuisines: ": "North Indian, Chinese, Fast Food, Pizza", "hours": "12noon\u201311pm(Mon-Sun)", "Cost for two": "\u20b9500"}, {"Name": "Dilkhush Food Plaza", "Rating": "3.7", "votes": "511", "location": " A3, DDA Market, Paschim Vihar, New Delhi", "Cuisines: ": "North Indian, Mughlai, Chinese, Fast Food", "hours": "12midnight\u201311pm(Mon),11am\u201311pm(Tue-Sun)", "Cost for two": "\u20b9900"}, {"Name": "Sardar Express", "Rating": "3.8", "votes": "145", "location": " Shop 33, CSC 6, Park Plaza Market, Sector 9, Rohini, New Delhi", "Cuisines: ": "North Indian, Mughlai, Chinese", "hours": "5:30pm\u201310pm(Mon-Sun)", "Cost for two": "\u20b9550"}, {"Name": "The Chocolate Room", "Rating": "3.7", "votes": "440", "location": " B-6, Ground Floor, Shivalik, Malviya Nagar, New Delhi", "Cuisines: ": "Fast Food, Desserts, Beverages", "hours": "12noon\u201311:30pm(Mon-Sun)", "Cost for two": "\u20b9600"}, {"Name": "Hot Pot China", "Rating": "NEW", "votes": "440", "location": " A 213, Beta 1, Greater Noida", "Cuisines: ": "Rolls, Fast Food, Chinese, North Indian, Beverages", "hours": "11am\u20134pm(Mon-Sun)", "Cost for two": "\u20b9400"}, {"Name": "Amritsari Kulcha King", "Rating": "4.0", "votes": "1028", "location": " Near Neelam Petrol Pump, NIT, Faridabad", "Cuisines: ": "North Indian", "hours": "8:30am\u201310pm(Mon-Sun)", "Cost for two": "\u20b9200"}]