[{"Name": "Chicken Mughlai Junction", "Rating": "-", "location": " 1216, Gali Sangat Raashan, Hotel Bombay Palace, Paharganj, New Delhi", "Cuisines: ": "Mughlai, North Indian", "hours": "12noon\u201311pm(Mon-Sun)", "Cost for two": "\u20b9400"}, {"Name": "Le Fairway Restaurant & Bar", "Rating": "3.4", "location": " Hotel Le Roi, 2206, Rajguru Road, Chuna Mandi, Paharganj, New Delhi", "Cuisines: ": "North Indian, Fast Food, Chinese", "hours": "11:30am\u201312midnight(Mon-Sun)", "Cost for two": "\u20b9900", "votes": "27"}, {"Name": "Al Back Chicken Biryani", "Rating": "-", "location": " 1214, Sangatrashan Bazar, Paharganj, New Delhi", "Cuisines: ": "North Indian", "hours": "11am\u201311pm(Mon-Sun)", "Cost for two": "\u20b9300", "votes": "27"}, {"Name": "Gurdev Punjabi Restaurant", "Rating": "3.7", "location": " 8563, Arakashan Road, Paharganj, New Delhi", "Cuisines: ": "North Indian", "hours": "7:30am\u20134pm,6pm\u201310:30pm(Mon-Sun)", "Cost for two": "\u20b9250", "votes": "54"}, {"Name": "Delhi Ka Tadka Restaurant", "Rating": "-", "location": " 3738, Hotel Delhi Heart, New Delhi Station Gate-2, Paharganj, New Delhi", "Cuisines: ": "North Indian, Chinese", "hours": "11am\u20131am(Mon-Sun)", "Cost for two": "\u20b9700", "votes": "54"}, {"Name": "Sai ki Rasoi", "Rating": "2.9", "location": " 2215, Raj Guru Road Chuna Mandi, Paharganj, New Delhi", "Cuisines: ": "North Indian", "hours": "8am\u201312midnight(Mon-Sun)", "Cost for two": "\u20b9350", "votes": "6"}, {"Name": "Hotel Madras Dx", "Rating": "-", "location": " 11, Amrit Kaur Market, Opposite of New Delhi Railway Station Entry Gate, Paharganj, New Delhi", "Cuisines: ": "South Indian, North Indian", "hours": "6am\u201311:30pm(Mon-Sun)", "Cost for two": "\u20b9300", "votes": "6"}, {"Name": "Allure", "Rating": "2.8", "location": " 65, D.B. Gupta Road, Paharganj, New Delhi", "Cuisines: ": "North Indian, Chinese, Finger Food", "hours": "11am\u201311:30pm(Mon-Sun)", "Cost for two": "\u20b91,500", "votes": "10"}, {"Name": "Pizzaon", "Rating": "3.4", "location": " G 7-8, Ground Floor, Wardhman Plaza, Asaf Ali Road, New Delhi", "Cuisines: ": "Pizza, Fast Food", "hours": "11am\u201311pm(Mon-Sun)", "Cost for two": "\u20b9500", "votes": "41"}, {"Name": "Satguru Dhabha", "Rating": "-", "location": " 854, Mantola Road, Paharganj, New Delhi", "Cuisines: ": "North Indian", "hours": "8am\u20133pm,8pm\u201312midnight(Mon-Sun)", "Cost for two": "\u20b9300", "votes": "41"}, {"Name": "Joginder Meat Corner", "Rating": "-", "location": " Motia Khan, Paharganj, New Delhi", "Cuisines: ": "Fast Food", "hours": "11am\u201311pm(Mon-Sun)", "Cost for two": "\u20b9500", "votes": "41"}, {"Name": "Jain Lassi", "Rating": "-", "location": " 61, Gali Halwai, Paharganj, New Delhi", "Cuisines: ": "Beverages", "hours": "10am\u201310pm(Mon-Sun)", "Cost for two": "\u20b9200", "votes": "41"}, {"Name": "Dilli Da Dhaba", "Rating": "3.0", "location": " 3417, Gali Hari Mandir, Paharganj, New Delhi", "Cuisines: ": "North Indian, South Indian", "hours": "9am\u201311pm(Mon-Sun)", "Cost for two": "\u20b9300", "votes": "5"}, {"Name": "Soni Sweets", "Rating": "-", "location": " 3178, Sang Trashan Marg, Paharganj, New Delhi", "Cuisines: ": "Mithai", "hours": "8:30am\u20138pm(Mon-Sun)", "Cost for two": "\u20b9100", "votes": "5"}, {"Name": "Jai  Grilled Corner", "Rating": "-", "location": " Shop 1669, Opposite RK Ashram, Paharganj, New Delhi", "Cuisines: ": "Fast Food", "hours": "11am\u201311pm(Mon-Sun)", "Cost for two": "\u20b9200", "votes": "5"}]