[{"Name": "Chawlas'2(Since 1960)", "Rating": "3.5", "votes": "79", "location": " 12A/20, WEA, Saraswati Marg, Karol Bagh, New Delhi", "Cuisines: ": "North Indian, Chinese", "hours": "12noon\u201312midnight(Mon-Sun)", "Cost for two": "\u20b9700"}, {"Name": "Mr Jha's Food", "Rating": "NEW", "votes": "79", "location": " Shop SE 11, Jaipuriya Sunrise Plaza, Ahinsa Khand-1, Indirapuram, Ghaziabad", "Cuisines: ": "Street Food, Chinese", "hours": "9am\u201312midnight(Mon-Sun)", "Cost for two": "\u20b9150"}, {"Name": "Fit-Licious", "Rating": "NEW", "votes": "79", "location": " 70, Vivekanand Puri, Sarai Rohilla, Karol Bagh, New Delhi", "Cuisines: ": "Healthy Food, Chinese, North Indian", "hours": "10am\u201310pm(Mon-Sun)", "Cost for two": "\u20b9350"}, {"Name": "Kolkatha Kathi Roll", "Rating": "-", "votes": "79", "location": " 9/8, Bara Bazar Road, Old Rajinder Nagar, Rajinder Nagar, New Delhi", "Cuisines: ": "Rolls", "hours": "11am\u201311pm(Mon-Sun)", "Cost for two": "\u20b9100"}, {"Name": "Uttam Sweet Corner", "Rating": "2.8", "votes": "5", "location": " 32, Bhagwati Market, Bank Street, Karol Bagh, New Delhi", "Cuisines: ": "Mithai, Street Food", "hours": "7:30am\u201311pm(Mon-Sun)", "Cost for two": "\u20b9100"}, {"Name": "Cravings By Arshi Dhupia", "Rating": "3.8", "votes": "42", "location": " 100, Golf Links, Near, Khan Market, New Delhi", "Cuisines: ": "Bakery, Desserts, Fast Food", "hours": "9am\u20137:30pm(Mon-Sun)", "Cost for two": "\u20b9800"}, {"Name": "Salim Kababs", "Rating": "3.2", "votes": "9", "location": " 52-A, Back Lane Khan Market, New Delhi", "Cuisines: ": "North Indian", "hours": "12noon\u201311pm(Mon-Sun)", "Cost for two": "\u20b9300"}, {"Name": "Sharma Bhojnalay", "Rating": "3.2", "votes": "26", "location": " Paranthe Wali Gali, Chandni Chowk, New Delhi", "Cuisines: ": "North Indian", "hours": "11am\u20134pm,6pm\u201311pm(Mon-Sun)", "Cost for two": "\u20b9150"}, {"Name": "Giani Restaurant", "Rating": "3.2", "votes": "6", "location": " Shop 37, Gokhale Market, Tis Hazari Court, Kashmiri Gate, New Delhi", "Cuisines: ": "North Indian", "hours": "10am\u201310pm(Mon-Sat),Closed(Sun)", "Cost for two": "\u20b9300"}, {"Name": "Sudarshan", "Rating": "3.9", "votes": "94", "location": " 4005, Second Floor, Raghu Ganj, Chawri Bazar, New Delhi", "Cuisines: ": "Beverages, Street Food", "hours": "11am\u201311pm(Mon-Sun)", "Cost for two": "\u20b9150"}, {"Name": "Punjabi Swad", "Rating": "2.9", "votes": "6", "location": " 3557, Main Road, Mori Gate Civil Lines, Kashmiri Gate, New Delhi", "Cuisines: ": "North Indian", "hours": "12noon\u201310:30pm(Mon-Sun)", "Cost for two": "\u20b9400"}, {"Name": "Desi Tadka", "Rating": "2.8", "votes": "7", "location": " Shop 38, Pusa Road, Opposite Metro Pillar 119, Karol Bagh, New Delhi", "Cuisines: ": "North Indian, Fast Food", "hours": "2pm\u201311pm(Mon-Sun)", "Cost for two": "\u20b9200"}, {"Name": "Rambhoj", "Rating": "2.9", "votes": "7", "location": " 1894, Main Road, Opposite Dariba Kalan, Chandni Chowk, New Delhi", "Cuisines: ": "North Indian, South Indian", "hours": "10:30am\u20139pm(Mon-Sun)", "Cost for two": "\u20b9150"}, {"Name": "Bhikharam's", "Rating": "3.2", "votes": "7", "location": " 251, Near Fathehpuri Masjid, Fatehpuri, Chandni Chowk, New Delhi", "Cuisines: ": "Mithai", "hours": "10am\u201311pm(Mon-Sun)", "Cost for two": "\u20b9150"}, {"Name": "Hotel 121 Shakahari", "Rating": "3.1", "votes": "12", "location": " 121, Kucha Ghasiram, Chatta Bhawani Shankar, Fatehpuri Chowk, Chandni Chowk, New Delhi", "Cuisines: ": "North Indian", "hours": "10:30am\u20133:30pm,6:30pm\u201311:30pm(Mon-Sun)", "Cost for two": "\u20b9300"}]