[{"Name": "Gaur Farmaiye", "Rating": "-", "location": " Shop 206, 2nd Floor, Panchsheel Square, Crossing Republik, Ghaziabad", "Cuisines: ": "Chinese", "hours": "12noon\u201311pm(Mon-Sun)", "Cost for two": "\u20b9300"}, {"Name": "Darshnam Family Restaurant", "Rating": "3.2", "location": " Near Barat Ghar, C Block, Sector 22, Noida", "Cuisines: ": "North Indian, Chinese", "hours": "2pm\u201312midnight(Mon-Sun)", "Cost for two": "\u20b9400", "votes": "81"}, {"Name": "Tikka Tikka", "Rating": "3.6", "location": " 2nd Floor, Logix City Centre, Sector 34, Noida", "Cuisines: ": "North Indian, Mughlai", "hours": "11am\u201311:30pm(Mon-Sun)", "Cost for two": "\u20b9600", "votes": "16"}, {"Name": "Tiffynn", "Rating": "3.6", "location": " Shop 1, DDA Market, Near Maharaja Agrasen College, Vasundhara Enclave, New Delhi", "Cuisines: ": "Chinese, North Indian, Rolls", "hours": "11:30am\u201310:30pm(Mon-Sun)", "Cost for two": "\u20b9450", "votes": "109"}, {"Name": "Singh Sahib - Eros Hotel", "Rating": "3.9", "location": " Eros Hotel, American Plaza, Nehru Place, New Delhi", "Cuisines: ": "North Indian", "hours": "12noon\u20132:45pm,7pm\u201311:45pm(Mon-Sun)", "Cost for two": "\u20b93,400", "votes": "315"}, {"Name": "A-One  Bakers And Cafe", "Rating": "3.5", "location": " Shop 8, 137, Near Paras 13, Gate 2, Numberdaar Market, Sector 137, Near Sector 135, Noida", "Cuisines: ": "Bakery, Fast Food", "hours": "11:50am\u201312:50am(Mon-Sun)", "Cost for two": "\u20b9200", "votes": "29"}, {"Name": "Shivam Dosa Junction", "Rating": "4.0", "location": " 1A/132, Nathi Chowk, NIT, Faridabad", "Cuisines: ": "South Indian", "hours": "11am\u201311pm(Mon-Sun)", "Cost for two": "\u20b9300", "votes": "174"}, {"Name": "Brunch Biryani Corner", "Rating": "3.4", "location": " B-39, Sector 10, Noida", "Cuisines: ": "North Indian, Mughlai, Biryani", "hours": "11:30am\u20134am(Mon-Sun)", "Cost for two": "\u20b9500", "votes": "81"}, {"Name": "Are You Hungry", "Rating": "3.8", "location": " 2B, 3, Ecotech 1 Extention, Sigma 1, Greater Noida", "Cuisines: ": "Continental, Burger, Pizza, Desserts, North Indian", "hours": "11am\u201310:30pm(Mon-Wed),11:30am\u201310:30pm...", "Cost for two": "\u20b9500", "votes": "37"}, {"Name": "Lucky Tandoori Chaap", "Rating": "NEW", "location": " 19, Baldev Park, Parwana Road, Krishna Nagar, New Delhi", "Cuisines: ": "Rolls, North Indian", "hours": "12noon\u20134pm,6pm\u201311pm(Mon-Sun)", "Cost for two": "\u20b9350", "votes": "37"}, {"Name": "Just Bakers", "Rating": "2.9", "location": " Plot 1223, First Floor, Sector 5, Vasundhara, Ghaziabad", "Cuisines: ": "Bakery, Fast Food", "hours": "10am\u201310pm(Mon-Sun)", "Cost for two": "\u20b9300", "votes": "4"}, {"Name": "Ravi Ke Parathe", "Rating": "3.6", "location": " F-114, Katwaria Sarai, Qutab Institutional Area, New Delhi", "Cuisines: ": "North Indian", "hours": "10:30am\u201311:30pm(Mon-Sun)", "Cost for two": "\u20b9150", "votes": "63"}, {"Name": "JD's Peezza Wood Fire Stone Baked", "Rating": "4.2", "location": " Shop 16A, Ground Floor, Lotus Plaza Market, Vaibhav Khand, Indirapuram, Ghaziabad", "Cuisines: ": "Pizza, Fast Food, Beverages", "hours": "3pm\u20131am(Mon-Sun)", "Cost for two": "\u20b9450", "votes": "194"}, {"Name": "Welcome Fast Food", "Rating": "3.4", "location": " Suneja Tower 1, District Centre, Janakpuri, New Delhi", "Cuisines: ": "Chinese", "hours": "11am\u201311pm(Mon-Sun)", "Cost for two": "\u20b9300", "votes": "45"}, {"Name": "Garden House Cafe & Health Kitchen", "Rating": "3.9", "location": " 251, Gora Designer Lane 2, Shahpur Jat, New Delhi", "Cuisines: ": "Cafe, Healthy Food, Beverages", "hours": "9am\u201311pm(Mon-Sat),10am\u20138pm(Sun)", "Cost for two": "\u20b9600", "votes": "115"}]