[{"Name": "Murari Ji Ka Mashoor Parantha And Roll", "Rating": "NEW", "location": " Near HCL, Sector 125, Noida", "Cuisines: ": "North Indian", "hours": "11am\u201311pm(Mon-Sun)", "Cost for two": "\u20b9150"}, {"Name": "Breakfast Express", "Rating": "3.2", "location": " J-15, Alaknanda Mini Markte, Near Safal, Kalkaji, New Delhi", "Cuisines: ": "Chinese, Fast Food", "hours": "24Hours(Mon-Sun)", "Cost for two": "\u20b9250", "votes": "9"}, {"Name": "Tandoori Bite", "Rating": "-", "location": " J3/4, DDA Flats, Kalkaji, New Delhi", "Cuisines: ": "North Indian, Chinese", "hours": "11am\u201311pm(Mon-Sun)", "Cost for two": "\u20b9400", "votes": "9"}, {"Name": "Ronny's", "Rating": "3.5", "location": " 153, Ground Floor, Tilakkhand, Giri Nagar, Kalkaji, New Delhi", "Cuisines: ": "Fast Food, Burger, Beverages", "hours": "12noon\u201310pm(Mon-Sun)", "Cost for two": "\u20b9250", "votes": "19"}, {"Name": "Burger Wala", "Rating": "3.0", "location": " Beside Fluid Gym, Near Fortis Hospital, Kishangarh, Vasant Kunj, New Delhi", "Cuisines: ": "Burger, Fast Food", "hours": "10am\u201311pm(Mon-Sun)", "Cost for two": "\u20b9200", "votes": "84"}, {"Name": "D'zire Pizza", "Rating": "3.5", "location": " Plot 19, Budh Bazaar Road, Near Shiv Chowk, Shalimar Garden, Ghaziabad", "Cuisines: ": "Pizza, Fast Food", "hours": "10am\u201310pm(Mon-Sun)", "Cost for two": "\u20b9700", "votes": "82"}, {"Name": "Stony's", "Rating": "3.8", "location": " C25, Ground Floor, Amar Colony Market, Lajpat Nagar 4, New Delhi", "Cuisines: ": "Chinese, Italian, Momos", "hours": "2pm\u20132am(Mon-Sun)", "Cost for two": "\u20b9500", "votes": "94"}, {"Name": "Surya Cake Shop", "Rating": "3.5", "location": " Shop 3, Sector 132, Noida", "Cuisines: ": "Bakery, Desserts", "hours": "10am\u20131am(Mon-Sun)", "Cost for two": "\u20b9350", "votes": "25"}, {"Name": "Pummy's Food Zone", "Rating": "3.4", "location": " 15, O & P Market, Near Shani Mandir, Dilshad Garden, New Delhi", "Cuisines: ": "North Indian, Chinese, South Indian", "hours": "11am\u201311pm(Mon-Sun)", "Cost for two": "\u20b9400", "votes": "110"}, {"Name": "True Blue Classroom", "Rating": "-", "location": " LSC-9, IP Extension, Patparganj, New Delhi", "Cuisines: ": "Chinese, North Indian, Mughlai", "hours": "11am\u201312midnight(Mon-Sun)", "Cost for two": "\u20b91,000", "votes": "110"}, {"Name": "Gupta Ji Bhojnalay", "Rating": "-", "location": " House 71A, Gali 1, Vijay Chowk, Laxmi Nagar, Delhi", "Cuisines: ": "North Indian", "hours": "10am\u201311pm(Mon-Sun)", "Cost for two": "\u20b9200", "votes": "110"}, {"Name": "Royal Tadka India", "Rating": "-", "location": " Shop 08, Prateek Stylome Mart, Gautam Buddha Nagar, Zone 4, Sector 45, Noida", "Cuisines: ": "North Indian, Mughlai, Chinese", "hours": "11am\u201311pm(Mon-Sun)", "Cost for two": "\u20b9700", "votes": "110"}, {"Name": "Foodwing Kitchen", "Rating": "2.8", "location": " Street 37, Khajur Colony, Chhalera Bangar, Sector 45, Noida", "Cuisines: ": "North Indian, Chinese, Fast Food, Beverages", "hours": "11am\u20134am(Mon-Sun)", "Cost for two": "\u20b9450", "votes": "6"}, {"Name": "Bhashi Caterers", "Rating": "2.8", "location": " Shastri Market, Bhogal, Jangpura, New Delhi", "Cuisines: ": "North Indian", "hours": "12noon\u201311pm(Mon-Sun)", "Cost for two": "\u20b9900", "votes": "22"}, {"Name": "The Singaporean Wok", "Rating": "-", "location": " Delivery Only", "Cuisines: ": "Chinese", "hours": "12noon\u201312midnight(Mon,Wed,Thu,Fri,Sat...", "Cost for two": "\u20b9600", "votes": "22"}]