[{"Name": "SnowBite Ice Cream & Shakes", "Rating": "3.9", "votes": "206", "location": " Shop 60, Basement, Near Baskin Robbins, Sector 16, Faridabad", "Cuisines: ": "Desserts, Ice Cream, Beverages", "hours": "10am\u20132am(Mon-Sun)", "Cost for two": "\u20b9200"}, {"Name": "Jain Rasoi", "Rating": "3.5", "votes": "31", "location": " A 12, Near Fatima Convent, Nandgram, Raj Nagar, Ghaziabad", "Cuisines: ": "North Indian, South Indian, Chinese", "hours": "11am\u201311pm(Mon-Sun)", "Cost for two": "\u20b9350"}, {"Name": "The Pizza Slice", "Rating": "3.2", "votes": "10", "location": " Shop 6, 69 Avenue, Sector 69, Sohna Road, Gurgaon", "Cuisines: ": "Pizza, Fast Food", "hours": "11am\u201311pm(Mon-Sun)", "Cost for two": "\u20b9500"}, {"Name": "Northern Delights", "Rating": "3.9", "votes": "361", "location": " Shop 3, GC Grand Market, Vaibhav Khand, Indirapuram, Ghaziabad", "Cuisines: ": "North Indian, Mughlai, Chinese", "hours": "12noon\u201311:30pm(Mon-Sun)", "Cost for two": "\u20b9900"}, {"Name": "Kakaji Corner", "Rating": "3.9", "votes": "121", "location": " J-39, Old Double Storey, Lajpat Nagar 4, New Delhi", "Cuisines: ": "Street Food", "hours": "8am\u20134pm(Mon-Sun)", "Cost for two": "\u20b9150"}, {"Name": "Chick Chicken Barbeque", "Rating": "3.1", "votes": "1187", "location": " 42, Shopping Plaza, Shipra Sun City, Indirapuram, Ghaziabad", "Cuisines: ": "North Indian, Mughlai, Chinese, BBQ", "hours": "11am\u201311:30pm(Mon-Sun)", "Cost for two": "\u20b9500"}, {"Name": "Veere Da Dhaba", "Rating": "3.7", "votes": "114", "location": " Delivery Only", "Cuisines: ": "North Indian, Chinese", "hours": "9am\u201312midnight(Mon-Sun)", "Cost for two": "\u20b9400"}, {"Name": "Khushboo Vaishno Dhaba", "Rating": "3.5", "votes": "33", "location": " 1613, Kolapur Road Ghanta Ghar, Near Mashhur Matthi Wale, Kamla Nagar, New Delhi", "Cuisines: ": "North Indian", "hours": "11am\u201311:30pm(Mon-Sun)", "Cost for two": "\u20b9250"}, {"Name": "Cocoberry", "Rating": "3.8", "votes": "213", "location": " 32, Defence Colony Market, Defence Colony, New Delhi", "Cuisines: ": "Frozen Yogurt, Desserts", "hours": "11am\u201312midnight(Mon-Sun)", "Cost for two": "\u20b9300"}, {"Name": "Cake Dernier", "Rating": "3.1", "votes": "4", "location": " 3026, Basement, DLF Phase 4, Gurgaon", "Cuisines: ": "Desserts, Bakery", "hours": "11am\u201311pm(Mon-Sun)", "Cost for two": "\u20b9550"}, {"Name": "Jack Brothers", "Rating": "3.8", "votes": "34", "location": " Plot 2, Block B, Sector 62, Noida", "Cuisines: ": "Chinese, Thai", "hours": "12noon\u201311pm(Mon-Sun)", "Cost for two": "\u20b9700"}, {"Name": "Pizza Bae", "Rating": "3.8", "votes": "122", "location": " Delivery Only", "Cuisines: ": "Pizza, Italian", "hours": "12noon\u201311pm(Mon-Sun)", "Cost for two": "\u20b9500"}, {"Name": "The Cheff Corner", "Rating": "4.2", "votes": "225", "location": " 1A, Pocket A3, Mayur Vihar Phase 3, New Delhi", "Cuisines: ": "Chinese, South Indian", "hours": "7am\u201311pm(Mon-Sun)", "Cost for two": "\u20b9450"}, {"Name": "Momo Singh", "Rating": "3.4", "votes": "24", "location": " Shop 4, B5/58, Sector 7, Rohini, New Delhi", "Cuisines: ": "Momos, Fast Food", "hours": "4pm\u20134am(Mon-Sun)", "Cost for two": "\u20b9200"}, {"Name": "Rasoi The Food Express", "Rating": "3.5", "votes": "149", "location": " 5/8, 1st Floor, Industrial Area, Kirti Nagar, New Delhi", "Cuisines: ": "North Indian", "hours": "11am\u20134am(Mon-Sun)", "Cost for two": "\u20b9400"}]