[{"Name": "Ganesh Dhaba", "Rating": "3.1", "votes": "5", "location": " Shop-8, DDA Market, Opposite Ca Lines, ITO, New Delhi", "Cuisines: ": "North Indian", "hours": "8am\u20138pm(Mon-Sat),Closed(Sun)", "Cost for two": "\u20b9250"}, {"Name": "Omee Dosa King", "Rating": "-", "votes": "5", "location": " Metro Station, 3543, Sitaram Bazar Road, Near Chawri Bazar, Sirkiwalan, Chandni Chowk, New Delhi", "Cuisines: ": "Chinese, South Indian", "hours": "10:30am\u201310:30pm(Mon-Sun)", "Cost for two": "\u20b9300"}, {"Name": "Zaika Dhaba", "Rating": "-", "votes": "5", "location": " Shop 141, Tibia College Market, Karol Bagh, New Delhi", "Cuisines: ": "Biryani", "hours": "10am\u201310pm(Mon-Sun)", "Cost for two": "\u20b9200"}, {"Name": "Arora Sweets", "Rating": "-", "votes": "5", "location": " Street 4288, Satara, Ajmeri Gate, Chawri Bazar, New Delhi", "Cuisines: ": "Mithai", "hours": "8am\u201310pm(Mon-Sun)", "Cost for two": "\u20b9150"}, {"Name": "Kwality Bengali Sweets", "Rating": "2.8", "votes": "8", "location": " 8351, Rani Jhansi Road, Near Filmistan, Karol Bagh, New Delhi", "Cuisines: ": "Desserts, Mithai", "hours": "7am\u201312midnight(Mon-Sun)", "Cost for two": "\u20b9200"}, {"Name": "Narang Sweet Corner", "Rating": "2.8", "votes": "3", "location": " 462, Joshi Road, Karol Bagh, New Delhi", "Cuisines: ": "Mithai, Street Food", "hours": "8:30am\u20137pm(Mon-Sun)", "Cost for two": "\u20b9200"}, {"Name": "Super Restaurant", "Rating": "3.0", "votes": "7", "location": " 1936, HC Sen Road, Fountain, Chandni Chowk, New Delhi", "Cuisines: ": "North Indian", "hours": "10:30am\u201310:30pm(Mon-Sun)", "Cost for two": "\u20b9400"}, {"Name": "Standard Snax", "Rating": "3.1", "votes": "11", "location": " 15A/14, Ajmal Khan Road, Karol Bagh, New Delhi", "Cuisines: ": "Fast Food", "hours": "9am\u201311pm(Mon-Sun)", "Cost for two": "\u20b9100"}, {"Name": "Yadav Da Dhaba", "Rating": "2.8", "votes": "7", "location": " 176 & 177, Netaji Subhash Market, Ajmal Khan Road, Karol Bagh, New Delhi", "Cuisines: ": "North Indian", "hours": "10am\u20134pm,7pm\u201311:30pm(Mon-Sun)", "Cost for two": "\u20b9300"}, {"Name": "Chandrika", "Rating": "2.8", "votes": "12", "location": " 4/9, Near Bank of India, Daryaganj, New Delhi", "Cuisines: ": "North Indian", "hours": "11am\u20139:30pm(Mon-Sun)", "Cost for two": "\u20b9400"}, {"Name": "Wah Bikaner", "Rating": "3.6", "votes": "27", "location": " 2682/2, Ajmal Khan Road, Karol Bagh, New Delhi", "Cuisines: ": "Mithai, North Indian, Fast Food, South Indian, Chinese", "hours": "8:30am\u201310:30pm(Mon-Sun)", "Cost for two": "\u20b9300"}, {"Name": "Negi Restaurant", "Rating": "-", "votes": "27", "location": " 3454, Near Mother Dairy, Daryaganj, New Delhi", "Cuisines: ": "North Indian", "hours": "10am\u201310pm(Mon-Sun)", "Cost for two": "\u20b9150"}, {"Name": "Mughal Chicken Zaika", "Rating": "-", "votes": "27", "location": " Shop 1, Near Golcha Cinema, Sir Syed Ahmed Road, Daryaganj, New Delhi", "Cuisines: ": "Mughlai, Fast Food", "hours": "11:30am\u201310pm(Mon,Wed,Thu,Fri,Sat,Sun)...", "Cost for two": "\u20b9200"}, {"Name": "Tika Ram Chinese Corner", "Rating": "3.2", "votes": "12", "location": " Shop 119, Netaji Subhash Market, Karol Bagh, New Delhi", "Cuisines: ": "Chinese", "hours": "11am\u20139pm(Mon-Sun)", "Cost for two": "\u20b9300"}, {"Name": "Kamaal Sweet House", "Rating": "3.2", "votes": "11", "location": " 1114, Bazaar Matia Mahal, Jama Masjid, New Delhi", "Cuisines: ": "Mithai, Street Food", "hours": "9am\u201310pm(Mon-Sun)", "Cost for two": "\u20b9500"}]