[{"Name": "DNR Restaurant", "Rating": "4.0", "votes": "34", "location": " D 47, South Extension Part 1, Defence Colony, New Delhi", "Cuisines: ": "North Indian, Asian, Italian", "hours": "11am\u201311pm(Mon-Sun)", "Cost for two": "\u20b9600"}, {"Name": "The Destination", "Rating": "3.5", "votes": "133", "location": " B 10, B Block, Community Centre, Janakpuri, New Delhi", "Cuisines: ": "North Indian, Mughlai, Chinese, Continental", "hours": "11am\u201312midnight(Mon-Sun)", "Cost for two": "\u20b91,400"}, {"Name": "Foodie 18", "Rating": "3.9", "votes": "329", "location": " 26/32, East Patel Nagar, New Delhi", "Cuisines: ": "Fast Food", "hours": "10am\u20131am(Mon-Sun)", "Cost for two": "\u20b9350"}, {"Name": "Kathi Roll Please", "Rating": "4.4", "votes": "85", "location": " 93, DDA Market, Greater Kailash 1 (GK 1), New Delhi", "Cuisines: ": "Rolls", "hours": "12noon\u20133:30pm,6pm\u201312midnight(Mon-Sun)", "Cost for two": "\u20b9400"}, {"Name": "Panditji Malai Chaap Wale", "Rating": "3.3", "votes": "29", "location": " Shop 2, 90/36, Malviya Nagar, New Delhi", "Cuisines: ": "North Indian", "hours": "12noon\u201312midnight(Mon-Sun)", "Cost for two": "\u20b9450"}, {"Name": "Modi's Baker's Zone", "Rating": "3.8", "votes": "230", "location": " Shop 10 & 11, A.K. Plaza, Jagat Farm, Gamma 1, Greater Noida", "Cuisines: ": "Bakery, Fast Food, Chinese", "hours": "10am\u201310pm(Mon-Sun)", "Cost for two": "\u20b9350"}, {"Name": "24 Hrs. Tawa V/S Tandoor", "Rating": "3.6", "votes": "659", "location": " Rz-194, Indra Park, Janakpuri, New Delhi", "Cuisines: ": "Rolls, Momos, Chinese, Fast Food, North Indian", "hours": "7am\u20134am(Mon-Sun)", "Cost for two": "\u20b9400"}, {"Name": "The Cake Masters", "Rating": "3.8", "votes": "149", "location": " 4/463, Sector 4, Vaishali, Ghaziabad", "Cuisines: ": "Bakery, Fast Food", "hours": "10:30am\u201310pm(Mon-Sun)", "Cost for two": "\u20b9500"}, {"Name": "Banarsi Zaika", "Rating": "3.6", "votes": "16", "location": " RN 10, B Block, Sector 62, Noida", "Cuisines: ": "North Indian", "hours": "11:30am\u201310:30pm(Mon-Sun)", "Cost for two": "\u20b9400"}, {"Name": "Laziz Chinese Fast Food", "Rating": "3.6", "votes": "43", "location": " Kalka Devi Marg, Near DDA Park, East Of Kailash, New Delhi", "Cuisines: ": "Chinese", "hours": "11am\u201310pm(Mon-Sun)", "Cost for two": "\u20b9300"}, {"Name": "Baker's Strabe", "Rating": "-", "votes": "43", "location": " Shop 8, Plot A-44, 45, Galaxy Business Park, Sector 62, Noida", "Cuisines: ": "Bakery, Beverages, Desserts", "hours": "8am\u201310:30pm(Mon-Sun)", "Cost for two": "\u20b9350"}, {"Name": "Oye! Chinese", "Rating": "NEW", "votes": "43", "location": " A1, Sector 51, Noida", "Cuisines: ": "Chinese", "hours": "24Hours(Mon-Sun)", "Cost for two": "\u20b9250"}, {"Name": "Jacket Aloo", "Rating": "4.4", "votes": "106", "location": " Shop 46, Eros City Square, Sector 49, Gurgaon", "Cuisines: ": "Healthy Food, Sandwich, Beverages, Desserts", "hours": "11am\u201311pm(Mon-Sun)", "Cost for two": "\u20b9400"}, {"Name": "Gayatri's Break Point Restaurant", "Rating": "3.5", "votes": "82", "location": " G-116/117, School Road, SDM Market, Mangal Bazaar Chowk, Uttam Nagar, New Delhi", "Cuisines: ": "North Indian, South Indian, Chinese, Fast Food", "hours": "11am\u201311pm(Mon-Sun)", "Cost for two": "\u20b9300"}, {"Name": "Publick", "Rating": "4.0", "votes": "216", "location": " Shop 30, Ground Floor, Corner Market, Malviya Nagar, New Delhi", "Cuisines: ": "North Indian, Chinese, Mughlai", "hours": "12noon\u201311pm(Mon-Sun)", "Cost for two": "\u20b91,200", "Featured in: ": "Food Hygiene Rated Restaurants"}]