[{"Name": "Al - Tamash Food Corner", "Rating": "3.1", "votes": "8", "location": " A-16, Near Jamia Nagar Police Station, Abul Fazal Enclave, Jasola, New Delhi", "Cuisines: ": "Mughlai, North Indian", "hours": "11am\u201311pm(Mon-Sun)", "Cost for two": "\u20b9400"}, {"Name": "Mukul Food Court", "Rating": "3.6", "votes": "51", "location": " Amritpuram Jagat Farm, Near Raja Dhaba, Gamma 1, Noida", "Cuisines: ": "North Indian", "hours": "10:30am\u201310pm(Mon-Sun)", "Cost for two": "\u20b9400"}, {"Name": "Verma Ji Punjabi Thali", "Rating": "2.9", "votes": "18", "location": " WZ 22, Om Vihar Phase 4, Uttam Nagar, New Delhi", "Cuisines: ": "North Indian", "hours": "11am\u20133am(Mon-Sun)", "Cost for two": "\u20b9300"}, {"Name": "Chacha Chawal Wala", "Rating": "3.5", "votes": "26", "location": " Shop 1, Main Road, Shakti Nagar, Near Kamla Nagar, New Delhi", "Cuisines: ": "North Indian", "hours": "9am\u20134pm(Mon-Sun)", "Cost for two": "\u20b9100"}, {"Name": "Amaravathi Hotel", "Rating": "3.4", "votes": "26", "location": " 529, Near Huda City Centre Metro, Sector 45, Gurgaon", "Cuisines: ": "South Indian", "hours": "11am\u201310:30pm(Mon-Sun)", "Cost for two": "\u20b9300"}, {"Name": "Junk Filter", "Rating": "3.7", "votes": "53", "location": " D-56 Khanpur School Road, Near MCD School, Khanpur, New Delhi", "Cuisines: ": "Healthy Food, Salad", "hours": "11am\u201311pm(Mon-Sun)", "Cost for two": "\u20b9200"}, {"Name": "Daxita Food Point", "Rating": "3.1", "votes": "6", "location": " Street 4, K Block, Mahipalpur, New Delhi", "Cuisines: ": "North Indian", "hours": "11am\u201311pm(Mon-Sun)", "Cost for two": "\u20b9200"}, {"Name": "Aai", "Rating": "NEW", "votes": "6", "location": " Central Market, Masudpur, Vasant Kunj, New Delhi", "Cuisines: ": "Fast Food, Street Food, Maharashtrian", "hours": "4pm\u201310pm(Mon-Sun)", "Cost for two": "\u20b9350"}, {"Name": "Gupta Ji Dhaba", "Rating": "3.3", "votes": "22", "location": " Opposite Vipul Business Park, Sohna Road, Gurgaon", "Cuisines: ": "North Indian", "hours": "9am\u201311pm(Mon-Sun)", "Cost for two": "\u20b9250"}, {"Name": "Grillz Sandwich And More", "Rating": "3.6", "votes": "32", "location": " Reliance Mall, Ground Floor, Vikaspuri, New Delhi", "Cuisines: ": "Sandwich, Fast Food", "hours": "11am\u201310pm(Mon-Sun)", "Cost for two": "\u20b9250"}, {"Name": "Oli's Chinese and Indian Food Corner", "Rating": "3.7", "votes": "62", "location": " House 22, Choudhary Mohalla, Dada Bhaiya Market, Rangpuri, Mahipalpur, New Delhi", "Cuisines: ": "North Indian, Chinese", "hours": "11am\u201312midnight(Mon-Sun)", "Cost for two": "\u20b9400"}, {"Name": "The Night Shift", "Rating": "3.6", "votes": "278", "location": " Delivery Only", "Cuisines: ": "North Indian", "hours": "8pm\u20134am(Mon-Sun)", "Cost for two": "\u20b9800"}, {"Name": "Momo Momos", "Rating": "-", "votes": "278", "location": " B-8/31, Shankar Chowk, Sector 11, Rohini, New Delhi", "Cuisines: ": "Fast Food, Momos", "hours": "11am\u201311pm(Mon-Sun)", "Cost for two": "\u20b9500"}, {"Name": "Bhoj Restaurant", "Rating": "3.5", "votes": "196", "location": " 24, Community Center, New Friends Colony, New Delhi", "Cuisines: ": "North Indian, Mughlai, Chinese", "hours": "24Hours(Mon),11am\u201312midnight(Tue-Sun)", "Cost for two": "\u20b9600"}, {"Name": "Bunny's Xpress", "Rating": "3.4", "votes": "35", "location": " Shop 57, Huda Market, Sector 23, Gurgaon, Haryana", "Cuisines: ": "Chinese, North Indian, Fast Food", "hours": "8am\u201311pm(Mon-Sun)", "Cost for two": "\u20b9350"}]