[{"Name": "Unique Cake and Pastry Shop", "Rating": "3.3", "votes": "64", "location": " 544 A/2, Acharaya Niketan, Mayur Vihar Phase 1, New Delhi", "Cuisines: ": "Bakery, Desserts", "hours": "10:30am\u201310:30pm(Mon-Sun)", "Cost for two": "\u20b9300"}, {"Name": "Jarfull", "Rating": "4.0", "votes": "198", "location": " F13, Sushant Shopping Arcade, Sushant Lok Gurgaon", "Cuisines: ": "Desserts, Beverages", "hours": "11am\u20134am(Mon-Sun)", "Cost for two": "\u20b9350"}, {"Name": "Pizza 96", "Rating": "3.6", "votes": "352", "location": " A96, Saidulajab, Sainik Farms, New Delhi", "Cuisines: ": "Pizza, Desserts", "hours": "11am\u201311pm(Mon-Sun)", "Cost for two": "\u20b9500"}, {"Name": "Lazeez Restaurant", "Rating": "3.9", "votes": "240", "location": " Jagat Farm, Amritpuram, Gamma 1, Greater Noida", "Cuisines: ": "North Indian, Mughlai", "hours": "11am\u201311:30pm(Mon-Sun)", "Cost for two": "\u20b9400"}, {"Name": "Gelato Vinto", "Rating": "3.3", "votes": "31", "location": " Ground Floor, Epicuria Food Mall, Nehru Place Metro Station, Nehru Place, New Delhi", "Cuisines: ": "Ice Cream, Desserts", "hours": "11am\u201311pm(Mon-Sun)", "Cost for two": "\u20b9250"}, {"Name": "Pizza & Burger Hub", "Rating": "3.9", "votes": "110", "location": " C 93, Budhvihar Dharamvir Market, Badarpur Border, Faridabad", "Cuisines: ": "Pizza, Fast Food", "hours": "10am\u201311pm(Mon-Sun)", "Cost for two": "\u20b9400"}, {"Name": "Healthy Cravings", "Rating": "4.1", "votes": "328", "location": " E2, E Block, Kalkaji, New Delhi", "Cuisines: ": "Healthy Food, Fast Food, Salad, Juices", "hours": "12midnight\u20131am,9am\u201312midnight(Mon-Sun)", "Cost for two": "\u20b9400"}, {"Name": "South Indian Cafe", "Rating": "3.8", "votes": "260", "location": " 591, Site 1, Vikaspuri Mod, Vikaspuri, New Delhi", "Cuisines: ": "South Indian, Chinese", "hours": "8am\u201310pm(Mon-Sun)", "Cost for two": "\u20b9350"}, {"Name": "Aromas And Flavours", "Rating": "3.8", "votes": "110", "location": " S 1/97, Old Mahavir Nagar, Near Tilak Nagar, New Delhi", "Cuisines: ": "North Indian, Chinese", "hours": "24Hours(Mon-Sun)", "Cost for two": "\u20b9400"}, {"Name": "Goyal Momos", "Rating": "-", "votes": "110", "location": " Near Siddharth Medicos, Main Market, Savita Vihar, Anand Vihar, New Delhi", "Cuisines: ": "Momos, Fast Food", "hours": "6pm\u20139:30pm(Mon-Sun)", "Cost for two": "\u20b9200"}, {"Name": "Barbeque Junction", "Rating": "3.3", "votes": "55", "location": " 148, Block B, Pocket D, Mayur Vihar Phase 1, New Delhi", "Cuisines: ": "Mughlai, North Indian, Chinese", "hours": "12noon\u201311:30pm(Mon-Sun)", "Cost for two": "\u20b9400"}, {"Name": "Sindhi Kulfi", "Rating": "3.7", "votes": "49", "location": " Shop 17, Lal Sai Market, Lajpat Nagar 2, New Delhi", "Cuisines: ": "Desserts, Ice Cream", "hours": "10am\u201311pm(Mon-Sun)", "Cost for two": "\u20b9100"}, {"Name": "Sairam Sweets & Bakers", "Rating": "3.2", "votes": "8", "location": " B 371, Nilothi - Meera Bagh Road, Paschim Vihar, New Delhi", "Cuisines: ": "Mithai, Bakery", "hours": "9am\u20139:30pm(Mon-Sun)", "Cost for two": "\u20b9400"}, {"Name": "Apetino", "Rating": "3.5", "votes": "27", "location": " Shop 37, Paras Trade Center, Gwal Pahari, Gurgaon", "Cuisines: ": "Fast Food", "hours": "9:30am\u20139pm(Mon-Sun)", "Cost for two": "\u20b9500"}, {"Name": "Calorie 750", "Rating": "3.1", "votes": "6", "location": " Shop 182, Gali 4, Block U, Veer Savarkar, Shakarpur, New Delhi", "Cuisines: ": "North Indian", "hours": "10am\u201310:30pm(Mon-Sun)", "Cost for two": "\u20b9150"}]