[{"Name": "Aunty Ka Dhaba", "Rating": "NEW", "location": " 393, Sector 28, Faridabad", "Cuisines: ": "North Indian", "hours": "7pm\u201310:30pm(Mon-Sun)", "Cost for two": "\u20b9350"}, {"Name": "Swagat", "Rating": "3.9", "location": " Road 6, Near TNT, Mahipalpur, New Delhi", "Cuisines: ": "North Indian, Fast Food, Chinese", "hours": "24Hours(Mon-Sun)", "Cost for two": "\u20b9550", "votes": "74"}, {"Name": "Pizza Fun Club", "Rating": "NEW", "location": " C/99/B, Pansheel Vihar, Malviya Nagar, New Delhi", "Cuisines: ": "Pizza, Fast Food", "hours": "24Hours(Mon-Sun)", "Cost for two": "\u20b9500", "votes": "74"}, {"Name": "Cafe BIR", "Rating": "4.0", "location": " 1\\F, Gora Lane, Shahpur Jat, New Delhi", "Cuisines: ": "Cafe", "hours": "10am\u201310pm(Mon-Sun)", "Cost for two": "\u20b91,000", "votes": "36"}, {"Name": "Zubair Alam Muradabadi Chicken Biryani", "Rating": "NEW", "location": " Shop A 1, C 18, Ground Floor, Main Road, Masoodpur, Vasant Kunj, New Delhi", "Cuisines: ": "North Indian, Biryani", "hours": "8am\u201311pm(Mon-Sun)", "Cost for two": "\u20b9500", "votes": "36"}, {"Name": "Bunty Dhaba", "Rating": "3.5", "location": " 19/1, Near B Block Gurudwara, EPDP Main Road, Chittaranjan Park, New Delhi", "Cuisines: ": "Rolls, Chinese, North Indian", "hours": "12noon\u201311pm(Mon-Sun)", "Cost for two": "\u20b9500", "votes": "100"}, {"Name": "Lazeez Zaika", "Rating": "3.9", "location": " 439, Jheel Khuranja, Near Bank Of Baroda, Krishna Nagar, New Delhi", "Cuisines: ": "Chinese", "hours": "12noon\u20133am(Mon,Wed,Thu,Fri,Sat,Sun),4pm...", "Cost for two": "\u20b9300", "votes": "155"}, {"Name": "New Paratha House", "Rating": "3.6", "location": " 32/379, Trilokpuri, Mayur Vihar Phase 1, New Delhi", "Cuisines: ": "North Indian, Fast Food, Chinese", "hours": "11am\u201311pm(Mon-Sun)", "Cost for two": "\u20b9400", "votes": "36"}, {"Name": "Waffle Dream", "Rating": "3.4", "location": " House 62, O D S Dayanand Colony, Lajpat Nagar 4, New Delhi", "Cuisines: ": "Fast Food, Beverages, Desserts", "hours": "11am\u201311pm(Mon-Sun)", "Cost for two": "\u20b9300", "votes": "21"}, {"Name": "Momos Corner", "Rating": "3.9", "location": " E-5  Ajay Enclave, Opposite Pacific Mall, Najafgarh Road, Subhash Nagar, New Delhi", "Cuisines: ": "Chinese", "hours": "2pm\u201311pm(Mon-Sun)", "Cost for two": "\u20b9350", "votes": "564"}, {"Name": "Aggarwal Sweets & Restaurant", "Rating": "2.8", "location": " Old Gurgaon Road, Opposite Hanuman Mandir, Kapashera, New Delhi", "Cuisines: ": "Mithai, North Indian, Chinese, South Indian", "hours": "11am\u201310:30pm(Mon-Sun)", "Cost for two": "\u20b9550", "votes": "90"}, {"Name": "What's In the Name", "Rating": "NEW", "location": " 1F/30, Kalyan Singh Chowk, NIT, Faridabad", "Cuisines: ": "Pizza, Sandwich, Fast Food, Beverages", "hours": "11:30am\u201311:30pm(Mon-Sun)", "Cost for two": "\u20b9200", "votes": "90"}, {"Name": "Swag Kitchen", "Rating": "NEW", "location": " Shop 05, Ground Floor, Block A, Raj Empire, Khasra 146 & 199, Raj Nagar, Ghaziabad", "Cuisines: ": "North Indian, Chinese, Rolls", "hours": "1:30pm\u201311pm(Mon-Sun)", "Cost for two": "\u20b9400", "votes": "90"}, {"Name": "Parmeshwar Food Corner", "Rating": "3.3", "location": " 84, Near Modi Mill, Okhla Phase 3, New Delhi", "Cuisines: ": "North Indian, Chinese", "hours": "8am\u201311pm(Mon-Sat),Closed(Sun)", "Cost for two": "\u20b9300", "votes": "89"}, {"Name": "Noodle House", "Rating": "3.9", "location": " G 9, Amba Tower, DC Chowk, Sector 9, Rohini, New Delhi", "Cuisines: ": "Chinese, Japanese", "hours": "11am\u201311pm(Mon-Sun)", "Cost for two": "\u20b9600", "votes": "420"}]