[{"Name": "Zosse", "Rating": "3.5", "votes": "124", "location": " 2nd Floor, Crown Plaza Mall, Sector 15-A, Sector 15, Faridabad", "Cuisines: ": "North Indian, Chinese", "hours": "12noon\u201312midnight(Mon-Sun)", "Cost for two": "\u20b91,500"}, {"Name": "Mithlesh Ande Wala", "Rating": "4.1", "votes": "309", "location": " Shop D-1, Fateh Nagar, Tilak Nagar, New Delhi", "Cuisines: ": "Fast Food", "hours": "8:30am\u20133pm,4:30pm\u201311:30pm(Mon,Wed,Thu...", "Cost for two": "\u20b9200"}, {"Name": "Biryani 24", "Rating": "3.4", "votes": "33", "location": " Shop 107, Jaipuriya Plaza, Sector 26, Noida", "Cuisines: ": "Biryani", "hours": "12noon\u201310:30pm(Mon-Sun)", "Cost for two": "\u20b9600"}, {"Name": "Tau's Cafe & Lassi Bar", "Rating": "3.8", "votes": "575", "location": " Ground Floor, 13 /12 Ansal Plaza, Palam Vihar, Gurgaon", "Cuisines: ": "North Indian, Fast Food, Rolls", "hours": "10am\u201310:30pm(Mon-Sun)", "Cost for two": "\u20b9450"}, {"Name": "Chai Pakoda House", "Rating": "3.6", "votes": "30", "location": " Shop SC - 181, Jaipuria Sunrise Plaza, Ahinsa Khand 1, Indirapuram, Ghaziabad", "Cuisines: ": "Street Food, Tea, Beverages", "hours": "24Hours(Mon-Sun)", "Cost for two": "\u20b9250"}, {"Name": "Classic Juice, Shakes & Mocktails", "Rating": "3.9", "votes": "85", "location": " F-20, Single Story, Opposite NDPL Office, Vijay Nagar, New Delhi", "Cuisines: ": "Beverages, Ice Cream, Desserts", "hours": "8:30am\u20133am(Mon-Sun)", "Cost for two": "\u20b9200"}, {"Name": "Roll Box", "Rating": "3.9", "votes": "690", "location": " Shop 23, GH 13, DDA Market, Paschim Vihar, New Delhi", "Cuisines: ": "Rolls, Momos, Chinese", "hours": "11am\u201311pm(Mon-Sun)", "Cost for two": "\u20b9200"}, {"Name": "Maple Street Bakery", "Rating": "4.3", "votes": "65", "location": " Delivery Only", "Cuisines: ": "Bakery, Desserts", "hours": "11am\u20139pm(Mon-Sun)", "Cost for two": "\u20b9500"}, {"Name": "Choudhary Dhaba", "Rating": "3.6", "votes": "113", "location": " Near Rohillapur, Block A, Sector 132, Noida", "Cuisines: ": "North Indian", "hours": "8am\u201312midnight(Mon-Sun)", "Cost for two": "\u20b9350"}, {"Name": "Zahra Restaurant & Cafe", "Rating": "4.0", "votes": "152", "location": " Shop 84, Tikona Park, Jamia Nagar, Jasola, New Delhi", "Cuisines: ": "North Indian, Fast Food, Desserts, Beverages", "hours": "12:30pm\u201311pm(Mon-Sun)", "Cost for two": "\u20b9400"}, {"Name": "Dada's Rolls & Momos", "Rating": "3.8", "votes": "204", "location": " Near A One, Dabri Road, Palam, New Delhi", "Cuisines: ": "Fast Food, Rolls, Momos", "hours": "11am\u201310pm(Mon-Sun)", "Cost for two": "\u20b9300"}, {"Name": "New Anand Sagar Sweets", "Rating": "3.7", "votes": "20", "location": " C1/1A, Yamuna Vihar, Shahdara, New Delhi", "Cuisines: ": "Mithai, Street Food", "hours": "8am\u201311pm(Mon-Sun)", "Cost for two": "\u20b9200"}, {"Name": "Grilleria", "Rating": "NEW", "votes": "20", "location": " Shop 162, Grilleria, Central Arcade, DLF Phase 2, Gurgaon", "Cuisines: ": "North Indian", "hours": "12:30pm\u201311:30pm(Mon-Sun)", "Cost for two": "\u20b9450"}, {"Name": "Mini Sweets Corner", "Rating": "3.6", "votes": "27", "location": " Shop 73, Sector 22, NIT, Faridabad", "Cuisines: ": "Mithai, South Indian, Chinese", "hours": "8:30am\u20139:30pm(Mon-Sun)", "Cost for two": "\u20b9150"}, {"Name": "Pindiwala", "Rating": "3.8", "votes": "162", "location": " B-2/1, Double Storey, Opposite Metro Pillar 367, Ramesh Nagar, Moti Nagar, New Delhi", "Cuisines: ": "Mughlai", "hours": "5pm\u201311pm(Mon-Sun)", "Cost for two": "\u20b9400"}]