[{"Name": "J.D. Food Junction", "Rating": "-", "location": " Shop 1, Gate 1, R.B.I.P.M.T Hospital, Near G.T.B. Nagar Metro Station, Delhi University-GTB Nagar, New Delhi", "Cuisines: ": "Chinese, Italian, North Indian", "hours": "7am\u201312midnight(Mon-Sun)", "Cost for two": "\u20b9250"}, {"Name": "Sarthak Break Time", "Rating": "-", "location": " 111, Gurunanak Market, Karol Bagh, New Delhi", "Cuisines: ": "Street Food", "hours": "8am\u20139:30pm(Mon-Sun)", "Cost for two": "\u20b9100"}, {"Name": "Ridhi Shidhi", "Rating": "-", "location": " Shop 119, WEA Gurunanak Market, Karol Bagh, New Delhi", "Cuisines: ": "North Indian", "hours": "8am\u201310pm(Mon-Sun)", "Cost for two": "\u20b9150"}, {"Name": "Refreshment Point", "Rating": "-", "location": " 15A/5, Channa Market, Karol Bagh, New Delhi", "Cuisines: ": "Beverages", "hours": "10am\u201311:30pm(Mon-Sun)", "Cost for two": "\u20b9200"}, {"Name": "Jawahar Halal Meat Shop", "Rating": "-", "location": " Shop 8793, Near Thana Bada Hindu Rav, Pul Bangash, Azad Market, Kamla Nagar, New Delhi", "Cuisines: ": "Raw Meats", "hours": "10am\u20139pm(Mon-Sun)", "Cost for two": "\u20b9350"}, {"Name": "Thalisthan", "Rating": "-", "location": " 1073/30, Gali Langre Wali, Malwara, Chandni Chowk, New Delhi", "Cuisines: ": "North Indian, Rolls, Sandwich", "hours": "11am\u20138pm(Mon-Sat),Closed(Sun)", "Cost for two": "\u20b9250"}, {"Name": "Shri Bhujia Bhandar", "Rating": "-", "location": " 117, Moti Bazar, Chandni Chowk, New Delhi", "Cuisines: ": "Mithai, Street Food", "hours": "11am\u20137pm(Mon-Sun)", "Cost for two": "\u20b9400"}, {"Name": "Aggarwal Sweets India", "Rating": "2.4", "location": " 17/10, Main Market Road, Near Gol Chakkar, Old Rajinder Nagar, New Delhi", "Cuisines: ": "Mithai, Street Food", "hours": "8am\u201310:30pm(Mon-Sun)", "Cost for two": "\u20b9200", "votes": "93"}, {"Name": "Kiwi Restro Bar", "Rating": "2.8", "location": " Karat 87, Hotel, 16/21, WEA, Padam Singh Road, Karol Bagh, New Delhi", "Cuisines: ": "North Indian, Mughlai, Chinese, Fast Food", "hours": "12noon\u201312midnight(Mon-Sun)", "Cost for two": "\u20b91,200", "votes": "8"}, {"Name": "Al Naseem Foods", "Rating": "3.7", "location": " 3561, Near Choti Masjid, Peer Ji Chowk Road, Bara Hindu Rao, Karol Bagh, New Delhi", "Cuisines: ": "North Indian, Lebanese", "hours": "6:30pm\u20132pm(Mon-Sun)", "Cost for two": "\u20b9450", "votes": "50"}, {"Name": "R.P.W Pizza", "Rating": "3.5", "location": " Shop 7, Dayanand Marg Fruit Market, Daryaganj, New Delhi", "Cuisines: ": "Pizza", "hours": "11am\u201310pm(Mon-Sun)", "Cost for two": "\u20b9300", "votes": "38"}, {"Name": "Olive Daniels", "Rating": "3.4", "location": " 14-A/32, Channa Market, Karol Bagh, New Delhi", "Cuisines: ": "North Indian, Chinese, Mughlai", "hours": "11am\u201311pm(Mon-Sun)", "Cost for two": "\u20b9500", "votes": "44"}, {"Name": "Soni Bhojnalaya", "Rating": "3.5", "location": " 161, Kucha Ghasi Ram, Fatehpuri, Chandni Chowk, New Delhi", "Cuisines: ": "North Indian", "hours": "10am\u20133pm,6:30pm\u201311pm(Mon-Sat),10am\u20133pm...", "Cost for two": "\u20b9300", "votes": "27"}, {"Name": "Victoria", "Rating": "3.6", "location": " 19, Ansari Road, Ring Road, MGM Club, Daryaganj, New Delhi", "Cuisines: ": "North Indian, Chinese", "hours": "11am\u201311pm(Mon-Sun)", "Cost for two": "\u20b91,200", "votes": "36"}, {"Name": "Sugandh", "Rating": "3.9", "location": " 4702/21, Ansari Road, Daryaganj, New Delhi", "Cuisines: ": "North Indian", "hours": "11am\u201311pm(Mon-Sun)", "Cost for two": "\u20b9400", "votes": "110"}]