[{"Name": "Order Online Cake Delivery", "Rating": "3.4", "votes": "38", "location": " Delivery Only", "Cuisines: ": "Bakery", "hours": "10am\u201310pm(Mon-Sun)", "Cost for two": "\u20b9200"}, {"Name": "No Objection House", "Rating": "3.7", "votes": "360", "location": " 2nd Floor, Gardens Galleria, Sector 38, Noida", "Cuisines: ": "Chinese, Continental, Finger Food, North Indian, Italian", "hours": "12noon\u20131am(Mon-Sun)", "Cost for two": "\u20b92,300"}, {"Name": "Variety of Shawarma's", "Rating": "4.0", "votes": "224", "location": " Shop 4, 25/6, East Patel Nagar, New Delhi", "Cuisines: ": "Lebanese, Momos, Burger, Chinese", "hours": "12noon\u201311pm(Mon,Wed,Thu,Fri,Sat,Sun)...", "Cost for two": "\u20b9300"}, {"Name": "Bittoo Juice & Shakes", "Rating": "4.0", "votes": "61", "location": " B 6/120, Sector 8, Rohini, New Delhi", "Cuisines: ": "Beverages, Juices", "hours": "11am\u201311pm(Mon-Sun)", "Cost for two": "\u20b9150"}, {"Name": "China Street", "Rating": "3.7", "votes": "49", "location": " Shop 12, Plot 10, Gardenia Gateway, Noida City Zone 4, Gautam Buddha Nagar, Sector 75, Near, Sector 72, Noida", "Cuisines: ": "Chinese", "hours": "12noon\u201311pm(Mon,Wed,Thu,Fri,Sat,Sun)...", "Cost for two": "\u20b9300"}, {"Name": "Kakka", "Rating": "NEW", "votes": "49", "location": " F 108, Plot 16 & 17, Khasra 778, First Floor, Mahipalpur, New Delhi", "Cuisines: ": "North Indian", "hours": "12midnight\u20131am,12noon\u201312midnight(Mon-Sun)", "Cost for two": "\u20b9600"}, {"Name": "Only 99", "Rating": "NEW", "votes": "49", "location": " Shop 27-29, Huda Market, Sector 15 A, Near Sector 15, Faridabad", "Cuisines: ": "North Indian", "hours": "11am\u201311pm(Mon-Sun)", "Cost for two": "\u20b9200"}, {"Name": "IndiBlends", "Rating": "NEW", "votes": "49", "location": " Ground Floor, Palm Court, MG Road, Sector 14, Gurgaon", "Cuisines: ": "Fast Food, Beverages", "hours": "9am\u20138pm(Mon-Sat),Closed(Sun)", "Cost for two": "\u20b9250"}, {"Name": "Thikaana", "Rating": "3.7", "votes": "55", "location": " 06, Lower Ground, Amrapali Sapphire, Sector 45, Noida", "Cuisines: ": "Fast Food, Chinese, North Indian", "hours": "4pm\u20135am(Mon-Sun)", "Cost for two": "\u20b9400"}, {"Name": "Annapurna Pure Veg", "Rating": "3.9", "votes": "349", "location": " 3C 185, NIT, Faridabad", "Cuisines: ": "North Indian, Mughlai", "hours": "11am\u201311:30pm(Mon-Sun)", "Cost for two": "\u20b9500"}, {"Name": "Pizzasia", "Rating": "3.8", "votes": "798", "location": " Shop 1 A, 315, Ground Floor Of Ocean Complex, Maharaja Agrasen Marg, P Block, Pocket A, Sector 18, Noida", "Cuisines: ": "Pizza, Italian", "hours": "12midnight\u20132am,11am\u201312midnight(Mon-Sun)", "Cost for two": "\u20b9400"}, {"Name": "Bhatura Express", "Rating": "4.0", "votes": "87", "location": " U 75/2, Shop 7 & 8 D, Sector 24, DLF Phase 3, Gurgaon", "Cuisines: ": "North Indian", "hours": "7am\u201312midnight(Mon-Sun)", "Cost for two": "\u20b9200"}, {"Name": "Gyms Cook", "Rating": "3.8", "votes": "44", "location": " Shop 26, KD Block, DDA Market, Pitampura, New Delhi", "Cuisines: ": "Fast Food, Healthy Food, Juices", "hours": "11am\u201312midnight(Mon-Sun)", "Cost for two": "\u20b9500"}, {"Name": "Flavours Of Magadh", "Rating": "4.0", "votes": "169", "location": " Shop 12, Plot 10, Gardenia Gateway, Sector 75, Near Sector 72, Noida", "Cuisines: ": "North Indian, Chinese, Bihari", "hours": "1pm\u201312midnight(Mon-Sun)", "Cost for two": "\u20b9600"}, {"Name": "Amiko's Pizza", "Rating": "4.0", "votes": "69", "location": " G 29/13, Sector 3, Rohini, New Delhi", "Cuisines: ": "Pizza, Fast Food", "hours": "11am\u201311pm(Mon-Sun)", "Cost for two": "\u20b9400"}]