[{"Name": "Pind Cafe And Lounge", "Rating": "4.0", "votes": "32", "location": " Mahagun Metro Mall, 12, Plot VC-3, 3rd Floor, Sector 3, Vaishali, Ghaziabad", "Cuisines: ": "North Indian, Chinese", "hours": "12noon\u201312midnight(Mon-Sun)", "Cost for two": "\u20b91,200"}, {"Name": "Delhi'cious", "Rating": "3.6", "votes": "182", "location": " G 42, Ground Floor, Vardhman Plaza, Vasundhara Enclave, New Delhi", "Cuisines: ": "North Indian, Chinese", "hours": "11am\u201311pm(Mon-Sun)", "Cost for two": "\u20b9600"}, {"Name": "Kathuria Dairy And Sweets", "Rating": "3.4", "votes": "42", "location": " A 1, Gharoli Dairy Farm, Mayur Vihar Phase 3, New Delhi", "Cuisines: ": "Mithai, Fast Food", "hours": "9am\u201310pm(Mon-Sun)", "Cost for two": "\u20b9350"}, {"Name": "Taste Of Chawla", "Rating": "-", "votes": "42", "location": " F 71, Near Swastik House, Sector 51, Noida", "Cuisines: ": "North Indian, Chinese", "hours": "8am\u20133pm(Mon-Sun)", "Cost for two": "\u20b9600"}, {"Name": "Sindh Sweet Corner", "Rating": "3.0", "votes": "36", "location": " 131, Shankar Road Market, New Rajinder Nagar, New Delhi", "Cuisines: ": "Mithai, Street Food", "hours": "8am\u201310pm(Mon-Sun)", "Cost for two": "\u20b9250"}, {"Name": "Whizzo", "Rating": "3.6", "votes": "37", "location": " Unit 20, Vipul Trade Center, Sohna Road, Gurgaon", "Cuisines: ": "Cafe, Continental, Fast Food", "hours": "10am\u20139pm(Mon-Sun)", "Cost for two": "\u20b9300"}, {"Name": "Zaika Kitchen", "Rating": "3.1", "votes": "10", "location": " Shop 21, Paryavaran Complex, Near Vidya Sagar Hospital, Sainik Farms, New Delhi", "Cuisines: ": "North Indian, Rolls, Chinese", "hours": "10am\u201311pm(Mon-Sun)", "Cost for two": "\u20b9500"}, {"Name": "Hunger Maggi Point", "Rating": "3.5", "votes": "61", "location": " J 45, J Block, Sector 41, Noida", "Cuisines: ": "Fast Food, Sandwich", "hours": "4pm\u20134am(Mon-Sun)", "Cost for two": "\u20b9250"}, {"Name": "Rumali's", "Rating": "3.0", "votes": "5", "location": " Shop 2, Ground Floor, Naya Bans, Sector 15, Noida", "Cuisines: ": "North Indian, Chinese, South Indian", "hours": "11am\u201311pm(Mon-Sun)", "Cost for two": "\u20b9600"}, {"Name": "501 Kitchen", "Rating": "4.0", "votes": "830", "location": " A-130, Sector 83, Noida", "Cuisines: ": "North Indian, Mughlai, Chinese, Biryani", "hours": "12noon\u20134am(Mon-Sun)", "Cost for two": "\u20b9700"}, {"Name": "BFF", "Rating": "3.5", "votes": "35", "location": " Shop 8, Neha Complex, Sant Ram Market, Near By Shiv Temple, Sector 104, Near Sector 110, Noida", "Cuisines: ": "North Indian, Fast Food", "hours": "12noon\u201312midnight(Mon-Sun)", "Cost for two": "\u20b9400"}, {"Name": "Balle Balle Spices", "Rating": "3.7", "votes": "48", "location": " 75 & 76, Tuda Mandi, Opposite TATA Motors, Najafgarh, New Delhi", "Cuisines: ": "North Indian, Chinese, Mughlai", "hours": "12noon\u201311:30pm(Mon-Sun)", "Cost for two": "\u20b9600"}, {"Name": "Gobind Dhaba", "Rating": "3.4", "votes": "21", "location": " H-1-6, Pocket H, Dilshad Garden, New Delhi", "Cuisines: ": "North Indian", "hours": "12noon\u20136:30pm(Mon-Sun)", "Cost for two": "\u20b9200"}, {"Name": "Caf\u00e9 Aqua", "Rating": "3.2", "votes": "5", "location": " 88, Paschimi Marg, Block D, Vasant Vihar, New Delhi", "Cuisines: ": "Cafe, Mexican, Beverages", "hours": "8am\u201310pm(Mon-Sun)", "Cost for two": "\u20b9500"}, {"Name": "The Branch 24", "Rating": "3.1", "votes": "5", "location": " F 151 And F 151 A, Main Bazar, Laxmi Nagar, New Delhi", "Cuisines: ": "North Indian, Chinese, Fast Food", "hours": "10am\u201312midnight(Mon-Sun)", "Cost for two": "\u20b9250"}]