[{"Name": "Cafe Warm Discussion", "Rating": "3.5", "votes": "20", "location": " 41, Lower Ground, Tower 2, Cloud 9, Sector 1, Vaishali, Ghaziabad", "Cuisines: ": "Fast Food", "hours": "10:30am\u20138:30pm(Mon-Sat),Closed(Sun)", "Cost for two": "\u20b9400"}, {"Name": "Hara Bhara House", "Rating": "-", "votes": "20", "location": " A- 32, Gandhi Nagar, Krishna Nagar, New Delhi", "Cuisines: ": "Chinese, North Indian", "hours": "5:30pm\u20134am(Mon-Sun)", "Cost for two": "\u20b9300"}, {"Name": "Humis Kitchen", "Rating": "3.2", "votes": "8", "location": " House 1, Gali 3, Village Kadipur, Behind MCG Bus Depot, Sector 10, Near Sector 37, Gurgaon", "Cuisines: ": "North Indian, South Indian, Fast Food", "hours": "7am\u201312midnight(Mon-Sun)", "Cost for two": "\u20b9250"}, {"Name": "Ramu Ka Dhaba", "Rating": "3.8", "votes": "104", "location": " Shop 17, DDA Market, Tagore Garden, New Delhi", "Cuisines: ": "North Indian", "hours": "5pm\u201311:30pm(Mon-Sun)", "Cost for two": "\u20b9500"}, {"Name": "Shudh Vaishno Rasoi", "Rating": "3.6", "votes": "44", "location": " 80/25, Shakti Nagar, Near Tikona Park, Sector 37, Gurgaon", "Cuisines: ": "North Indian", "hours": "10am\u20134pm,6:30pm\u201311pm(Mon-Sun)", "Cost for two": "\u20b9350"}, {"Name": "Shree Krishna Foods", "Rating": "3.2", "votes": "7", "location": " Shop 1, Plot 1538, Ground Floor, Kotla Mubarak Pur, Defence Colony, New Delhi", "Cuisines: ": "North Indian, Chinese", "hours": "12noon\u201311pm(Mon-Sun)", "Cost for two": "\u20b9300"}, {"Name": "Tandoori Kukkad", "Rating": "3.5", "votes": "28", "location": " Shop 1, C-66, RDC, Raj Nagar", "Cuisines: ": "Mughlai, North Indian", "hours": "10am\u201311pm(Mon-Sun)", "Cost for two": "\u20b9350"}, {"Name": "Cooknook", "Rating": "NEW", "votes": "28", "location": " Plot 659, Koyal Vihar, Sector 52, Near Sector 50, Gurgaon", "Cuisines: ": "North Indian, Fast Food, Beverages", "hours": "11am\u201311pm(Mon-Sun)", "Cost for two": "\u20b9400"}, {"Name": "Sugandh", "Rating": "3.6", "votes": "50", "location": " 3/23, Ambedkar Road, Ghaziabad", "Cuisines: ": "Mithai, Street Food", "hours": "8:30am\u20139:30pm(Mon-Sun)", "Cost for two": "\u20b9300"}, {"Name": "Cafe J - Country Inn & Suites", "Rating": "3.5", "votes": "40", "location": " Country Inn & Suites by Carlson, Sahibabad, Ghaziabad", "Cuisines: ": "Cafe, Desserts", "hours": "24Hours(Mon-Sun)", "Cost for two": "\u20b91,000"}, {"Name": "Haribol Family Kitchen", "Rating": "3.1", "votes": "6", "location": " Shop 13/2, Asalatpur, Janakpuri, New Delhi", "Cuisines: ": "North Indian, Fast Food", "hours": "8am\u20138pm(Mon-Sun)", "Cost for two": "\u20b9350"}, {"Name": "Ranks Pizzeria", "Rating": "3.4", "votes": "30", "location": " 2D/11 BP, Ground Floor, Tikona Park NIT, NIT, Faridabad", "Cuisines: ": "Fast Food", "hours": "12noon\u201311pm(Mon-Sun)", "Cost for two": "\u20b9400"}, {"Name": "Little China Cuisine", "Rating": "3.5", "votes": "215", "location": " 25, Panchsheel Well Bazaar, Near SBI Bank, Crossing Republik, Ghaziabad", "Cuisines: ": "Chinese", "hours": "11am\u201311pm(Mon-Sun)", "Cost for two": "\u20b9400"}, {"Name": "Janta Meat & Chicken Shop", "Rating": "-", "votes": "215", "location": " 208, Mohan Singh Market, INA, New Delhi", "Cuisines: ": "Raw Meats, North Indian", "hours": "9am\u201310pm(Mon-Sun)", "Cost for two": "\u20b9500"}, {"Name": "Shudh Vaishno Amritsari Naan", "Rating": "-", "votes": "215", "location": " G-422, Opposite PAC Gate, Govind Puram, Ghaziabad", "Cuisines: ": "North Indian", "hours": "11am\u201310:30pm(Mon-Sun)", "Cost for two": "\u20b9250"}]