[{"Name": "Delhi Metro Food Plaza", "Rating": "3.1", "votes": "4", "location": " Gate 3, New Delhi Metro Station, Paharganj, New Delhi", "Cuisines: ": "Fast Food, Street Food, South Indian", "hours": "9am\u201310:30pm(Mon-Sun)", "Cost for two": "\u20b9250"}, {"Name": "Arabian Shisha Restaurant", "Rating": "-", "votes": "4", "location": " 1750 - 51, Laxmi Nariyan Street, Chuna Mandi, Paharganj, New Delhi", "Cuisines: ": "Middle Eastern", "hours": "11am\u201311pm(Mon-Sun)", "Cost for two": "\u20b9400"}, {"Name": "Shudh Shakahari Vaishno Dhaba", "Rating": "-", "votes": "4", "location": " Nehru Bazar, Main Road, Near Panchkuiyan Road, Paharganj, New Delhi", "Cuisines: ": "North Indian", "hours": "12noon\u20134pm,7pm\u201311pm(Mon-Sun)", "Cost for two": "\u20b9200"}, {"Name": "Narula Bakery", "Rating": "3.4", "votes": "9", "location": " Shop 25, Nehru Bazaar, Near Mahavir Mandir, Opposite PNB ATM, Paharganj, New Delhi", "Cuisines: ": "Bakery", "hours": "7am\u201310pm(Mon-Sun)", "Cost for two": "\u20b9200"}, {"Name": "Kalpana Restaurant", "Rating": "3.5", "votes": "76", "location": " 84/A, Tolstoy Lane, Janpath, New Delhi", "Cuisines: ": "Chinese, North Indian, Mughlai", "hours": "11am\u201311pm(Mon-Sat),Closed(Sun)", "Cost for two": "\u20b9500"}, {"Name": "Shan E Dilli", "Rating": "3.3", "votes": "14", "location": " 148, Scindia House, Behind Prem Nath Motor Corporation, Janpath, New Delhi", "Cuisines: ": "North Indian", "hours": "11am\u20134pm,6:30pm\u201311pm(Mon-Sun)", "Cost for two": "\u20b9300"}, {"Name": "Narula Bakery by SK Cakes", "Rating": "3.8", "votes": "114", "location": " 3/38, Nehru Bazar, Paharganj, New Delhi", "Cuisines: ": "Bakery, Desserts, Fast Food", "hours": "9am\u20139pm(Mon-Sun)", "Cost for two": "\u20b9300"}, {"Name": "True Blue", "Rating": "3.2", "votes": "14", "location": " 11, Qutub Road, Ramnagar, Paharganj, New Delhi", "Cuisines: ": "North Indian, Mughlai, Chinese", "hours": "10am\u201311:30pm(Mon-Sun)", "Cost for two": "\u20b91,000"}, {"Name": "Spice Of India", "Rating": "3.6", "votes": "160", "location": " 5146, Krishna Market, Paharganj, New Delhi", "Cuisines: ": "Rolls, Chinese", "hours": "11am\u201311pm(Mon-Sun)", "Cost for two": "\u20b9200"}, {"Name": "Sachdeva's: The Multi Cuisine Joint", "Rating": "3.6", "votes": "210", "location": " 1, Gandhi Market, Barakhamba Road, New Delhi", "Cuisines: ": "North Indian, Chinese, Fast Food", "hours": "11am\u201310pm(Mon-Sun)", "Cost for two": "\u20b9500"}, {"Name": "M Bar & Lounge", "Rating": "3.3", "votes": "20", "location": " Near RK Ashram Metro Station, 11 Panchkuian Road, Paharganj, New Delhi", "Cuisines: ": "Finger Food", "hours": "11am\u20131am(Mon-Sun)", "Cost for two": "\u20b91,000"}, {"Name": "Kuremal Mohan Lal Kulfi Wale", "Rating": "3.8", "votes": "55", "location": " Babar Road, Todermal Road Area, Mandi House, New Delhi", "Cuisines: ": "Ice Cream", "hours": "11am\u201311:30pm(Mon-Sun)", "Cost for two": "\u20b9200"}, {"Name": "Om Best Bangali Sweets", "Rating": "-", "votes": "55", "location": " Gandhi Market, Mirdard Road, Barakhamba Road, New Delhi", "Cuisines: ": "Mithai, Street Food", "hours": "8am\u201310pm(Mon-Sun)", "Cost for two": "\u20b9150"}, {"Name": "Cakes & More", "Rating": "2.9", "votes": "28", "location": " 2/37, Nehru Bazar, Near R.K. Ashram Metro Station, Paharganj, New Delhi", "Cuisines: ": "Bakery", "hours": "9am\u20138pm(Mon-Sun)", "Cost for two": "\u20b9200"}, {"Name": "EXOTIC CAFE", "Rating": "2.9", "votes": "16", "location": " 1084, Mandir Wali Gali , Main Bazaar, Paharganj, New Delhi", "Cuisines: ": "Chinese, Tibetan, Thai", "hours": "11am\u201310:30pm(Mon-Sun)", "Cost for two": "\u20b9600"}]