[{"Name": "Wat a Momo", "Rating": "-", "location": " Office 11, Plot 8, Sector 75, Near Sector 72, Noida", "Cuisines: ": "Momos, North Indian", "hours": "2pm\u201311pm(Mon-Sun)", "Cost for two": "\u20b9300"}, {"Name": "Gronito.Com", "Rating": "-", "location": " A 8, Sanjay Enclave, Raja Puri Road, Uttam Nagar, New Delhi", "Cuisines: ": "Mexican", "hours": "24Hours(Mon-Sun)", "Cost for two": "\u20b9600"}, {"Name": "Chinese Hut", "Rating": "3.7", "location": " Shop 1, JD Block Market, Pitampura, New Delhi", "Cuisines: ": "Chinese, Momos", "hours": "11am\u201311pm(Mon-Sun)", "Cost for two": "\u20b9600", "votes": "242"}, {"Name": "Tasty Chinese", "Rating": "-", "location": " Plot 34, Pocket 9, Sector 23B, Near Sector 23, Dwarka, New Delhi", "Cuisines: ": "Chinese, Rolls", "hours": "12noon\u20132am(Mon-Sun)", "Cost for two": "\u20b9600", "votes": "242"}, {"Name": "Cake Room", "Rating": "3.2", "location": " Shop 36, Huda Market, Sector 22, Gurgaon", "Cuisines: ": "Bakery, Desserts", "hours": "9am\u201311pm(Mon-Sun)", "Cost for two": "\u20b9250", "votes": "15"}, {"Name": "Moments Bar and Lounge", "Rating": "2.5", "location": " F-101-104, North East Mall, Netaji Subhash Place, New Delhi", "Cuisines: ": "Finger Food", "hours": "11am\u201311pm(Mon-Sun)", "Cost for two": "\u20b9800", "votes": "25"}, {"Name": "Pakwan", "Rating": "3.1", "location": " G 69, Vardhman Star Citi Mall, Behind Mother Dairy, Sector 7, Dwarka, New Delhi", "Cuisines: ": "North Indian, Chinese", "hours": "11am\u201311pm(Mon,Wed,Thu,Fri,Sat,Sun),Closed...", "Cost for two": "\u20b9500", "votes": "228"}, {"Name": "Biji De Chole Bhature", "Rating": "3.4", "location": " D1/73, Sector 11, Rohini, New Delhi", "Cuisines: ": "Street Food", "hours": "8am\u20134pm(Mon-Sun)", "Cost for two": "\u20b9100", "votes": "13"}, {"Name": "Food Food Sec 4", "Rating": "3.3", "location": " Delivery Only", "Cuisines: ": "Fast Food", "hours": "4pm\u201310:30pm(Mon-Sun)", "Cost for two": "\u20b9200", "votes": "10"}, {"Name": "Sampoornam", "Rating": "4.0", "location": " A-50, Sector 5, Noida", "Cuisines: ": "North Indian, South Indian, Chinese, Continental", "hours": "12noon\u20135pm,6pm\u201311pm(Mon-Sun)", "Cost for two": "\u20b9350", "votes": "60"}, {"Name": "Dietomania", "Rating": "3.4", "location": " SCF 26, Sector 4, Huda Market, Near Sector 4, Gurgaon", "Cuisines: ": "Healthy Food", "hours": "8am\u201310pm(Mon-Sun)", "Cost for two": "\u20b9250", "votes": "16"}, {"Name": "Punjabi Pakwaan", "Rating": "3.5", "location": " 153, Ground Floor, Supertech Shopprix Mall, Sector 61, Noida", "Cuisines: ": "North Indian, Mughlai", "hours": "11am\u201311pm(Mon-Sun)", "Cost for two": "\u20b91,200", "votes": "166"}, {"Name": "Dilli Ton Italy", "Rating": "4.1", "location": " B-1/14, Central Market, Block B, Sector 50, Noida", "Cuisines: ": "North Indian, Italian", "hours": "11am\u201311pm(Mon-Sun)", "Cost for two": "\u20b92,100", "votes": "239"}, {"Name": "Sita Ram Bedmi Poori Wale", "Rating": "3.2", "location": " Shop 1, Plot 27, Double Storey, Ashok Nagar, Jail Road, New Delhi", "Cuisines: ": "Street Food", "hours": "8am\u20134pm(Mon-Sun)", "Cost for two": "\u20b9200", "votes": "17"}, {"Name": "Sweeter Delight", "Rating": "3.3", "location": " G-3/67, Model Town 2, New Delhi", "Cuisines: ": "Bakery", "hours": "11am\u20138pm(Mon-Sun)", "Cost for two": "\u20b9300", "votes": "8"}]