[{"Name": "Ankit Maggi Point", "Rating": "3.2", "votes": "8", "location": " Tigri Cut Taj Highway Road, NH 24, Pratap Vihar, Ghaziabad", "Cuisines: ": "North Indian, Fast Food", "hours": "11am\u201311pm(Mon-Sun)", "Cost for two": "\u20b9200"}, {"Name": "The Cake Bros", "Rating": "4.1", "votes": "302", "location": " KP-09, Gopal Mandir Road, Near City Park Hotel, Pitampura, New Delhi", "Cuisines: ": "Bakery, Fast Food, Chinese, Street Food", "hours": "9am\u201310pm(Mon-Sun)", "Cost for two": "\u20b9300"}, {"Name": "New Dilli Darbar Chicken Point", "Rating": "3.6", "votes": "31", "location": " Mange Khan Market Near Pasaunda Pulia, Shalimar Garden, Ghaziabad", "Cuisines: ": "North Indian", "hours": "11am\u201310:30pm(Mon-Sun)", "Cost for two": "\u20b9300"}, {"Name": "Item No.", "Rating": "4.0", "votes": "259", "location": " Food Court, DLF Mall Of India, Sector 18, Noida", "Cuisines: ": "Biryani, North Indian", "hours": "11am\u201311pm(Mon-Sun)", "Cost for two": "\u20b9500"}, {"Name": "KVC Chinese Fast Food", "Rating": "NEW", "votes": "259", "location": " Shop 1, Plot 45 & 46, Balaji Building, Mohan Park, Opposite Radhu Palace, Laxmi Nagar, New Delhi", "Cuisines: ": "Fast Food, Chinese", "hours": "11am\u201311pm(Mon-Sun)", "Cost for two": "\u20b9250"}, {"Name": "Cake Master", "Rating": "NEW", "votes": "259", "location": " H 8/4, Anamika Enclave, Near Indian Oil CNG Pump, Sector 14, Gurgaon", "Cuisines: ": "Bakery, Desserts, Beverages", "hours": "8:30am\u201311pm(Mon-Sun)", "Cost for two": "\u20b9300"}, {"Name": "The Rock 49 Cafe", "Rating": "NEW", "votes": "259", "location": " Shop 1, Yamaha Vihar Market, Near Sri Ram Hospital, Sector 49, Noida", "Cuisines: ": "Chinese", "hours": "11am\u201312midnight(Mon-Sun)", "Cost for two": "\u20b9300"}, {"Name": "Delhiwala", "Rating": "3.1", "votes": "6", "location": " Shop 28, Shri Sanatan Dharam Mandir, Main Market, Subhash Nagar, New Delhi", "Cuisines: ": "North Indian, Chinese", "hours": "12noon\u201311:30pm(Mon-Sun)", "Cost for two": "\u20b9350"}, {"Name": "Pizza Yum", "Rating": "3.5", "votes": "31", "location": " Plot 106, Som Bazar, Vipin Garden Road, Near Metro Pillar 798, Uttam Nagar New Delhi", "Cuisines: ": "Pizza", "hours": "11am\u201311pm(Mon-Sun)", "Cost for two": "\u20b9300"}, {"Name": "Jaya's Cakewalk", "Rating": "3.8", "votes": "70", "location": " Old Willingdon Camp, Opposite PM House, Race Course, New Delhi", "Cuisines: ": "Bakery, Desserts", "hours": "8:30am\u20137:30pm(Mon-Sun)", "Cost for two": "\u20b9700"}, {"Name": "Kinara", "Rating": "4.0", "votes": "90", "location": " Plot 7, First Floor, BN Block, LSC Market, Shalimar Bagh, New Delhi", "Cuisines: ": "North Indian, Chinese", "hours": "11:30am\u201311pm(Mon-Sun)", "Cost for two": "\u20b91,200"}, {"Name": "Kamal Sweets", "Rating": "3.2", "votes": "7", "location": " 3834, Pahari Dhiraj, Sadar Bazaar, Chandni Chowk, New Delhi", "Cuisines: ": "Mithai", "hours": "7:30am\u201310pm(Mon-Sun)", "Cost for two": "\u20b9150"}, {"Name": "Baba Ka Dhaba", "Rating": "3.4", "votes": "24", "location": " WZ-425, Main Road, Palam Colony, Opposite Railway Crossing, Palam, New Delhi", "Cuisines: ": "North Indian", "hours": "11am\u201311pm(Mon-Sun)", "Cost for two": "\u20b9200"}, {"Name": "Vicky Punjabi Chicken", "Rating": "3.2", "votes": "12", "location": " Huda Market, Sector 56, Gurgaon", "Cuisines: ": "Mughlai, North Indian", "hours": "4pm\u201311pm(Mon,Wed,Thu,Fri,Sat,Sun),Closed...", "Cost for two": "\u20b9400"}, {"Name": "34 Chorangi Line Zaika", "Rating": "3.4", "votes": "47", "location": " MS 1, Yadav Complex, Sector 12, Pratap Vihar, Ghaziabad", "Cuisines: ": "Rolls", "hours": "11am\u201310:30pm(Mon-Sun)", "Cost for two": "\u20b9200"}]