[{"Name": "Rajpoot Dhaba", "Rating": "3.5", "votes": "31", "location": " Opposite Jwala Mill, Old Delhi Gurgaon Road, Sector 22, Gurgaon", "Cuisines: ": "North Indian", "hours": "8am\u201310:30pm(Mon-Sun)", "Cost for two": "\u20b9150"}, {"Name": "Italian D\u2019lite", "Rating": "3.3", "votes": "20", "location": " Shop 20, Upper Ground,Greenarch, Tech Zone 4, Amrapali Dream Valley, Greater Noida", "Cuisines: ": "Italian, Pizza, North Indian, Mughlai, Chinese", "hours": "10am\u201311pm(Mon-Sun)", "Cost for two": "\u20b9300"}, {"Name": "K Biryani", "Rating": "-", "votes": "20", "location": " 1756 P, 1st Floor, Sector 23, Gurgaon", "Cuisines: ": "Biryani", "hours": "8:15pm\u201311:30pm(Mon-Sun)", "Cost for two": "\u20b9300"}, {"Name": "Lemon Chick", "Rating": "3.9", "votes": "53", "location": " Khasra 70, Dayanand Market, Ignou Road, Saket, New Delhi", "Cuisines: ": "Chinese, North Indian", "hours": "12midnight\u20135am,12noon\u201312midnight(Mon-Sun)", "Cost for two": "\u20b9400"}, {"Name": "Banjara", "Rating": "3.4", "votes": "9", "location": " Club House, DLF New Town Heights, Sector 90, Near Sector 83, Gurgaon", "Cuisines: ": "Chinese", "hours": "2pm\u201311pm(Mon-Sun)", "Cost for two": "\u20b9450"}, {"Name": "Pandit Ramsharan Sharma", "Rating": "3.8", "votes": "17", "location": " Shop 22A, Kashmiri Market, INA, New Delhi", "Cuisines: ": "Street Food", "hours": "9am\u20139pm(Mon-Sun)", "Cost for two": "\u20b9100"}, {"Name": "Evening Rolls", "Rating": "3.1", "votes": "4", "location": " 29, Kings Food Avenue, Crossing Republik, Ghaziabad", "Cuisines: ": "Chinese, Rolls, Momos", "hours": "11:30am\u201310:30pm(Mon-Sun)", "Cost for two": "\u20b9300"}, {"Name": "Shree Shyam Rasoi", "Rating": "-", "votes": "4", "location": " Shop 7 & 8, GD ITL Tower B 8, Netaji Subhash Place, Delhi", "Cuisines: ": "North Indian, South Indian, Chinese", "hours": "8am\u20138pm(Mon-Sun)", "Cost for two": "\u20b9300"}, {"Name": "A One Chicken Point", "Rating": "3.6", "votes": "57", "location": " Plot 440, Shehzada Bagh, Phase 1, Inderlok, New Delhi", "Cuisines: ": "North Indian, Mughlai", "hours": "11am\u201312midnight(Mon,Wed,Thu,Fri,Sat,Sun)...", "Cost for two": "\u20b9400"}, {"Name": "Gulshan Di Chaap", "Rating": "3.6", "votes": "195", "location": " G-23/19-20, Sector 7, Opposite Government School, Rohini, New Delhi", "Cuisines: ": "North Indian", "hours": "6pm\u201311pm(Mon-Sun)", "Cost for two": "\u20b9300"}, {"Name": "Pavitra Bakers", "Rating": "3.5", "votes": "175", "location": " B-1/58, Sector 18, Rohini, New Delhi", "Cuisines: ": "Bakery, Chinese, Fast Food, Momos", "hours": "10am\u201310pm(Mon-Sun)", "Cost for two": "\u20b9450"}, {"Name": "Muradabadi & Hydrabadi Chicken Biryani", "Rating": "3.5", "votes": "26", "location": " Near American Express India Times, Golf Course Road, Gurgaon", "Cuisines: ": "North Indian, Biryani", "hours": "10am\u201310:30pm(Mon-Sun)", "Cost for two": "\u20b9400"}, {"Name": "Good Heaven Bakery", "Rating": "NEW", "votes": "26", "location": " E 6, GL 14, Block E, Seema Puri, Dilshad Colony, Shahdara, New Delhi", "Cuisines: ": "Bakery, Desserts, Fast Food", "hours": "10:30am\u20139pm(Mon-Sun)", "Cost for two": "\u20b9400"}, {"Name": "Aazad Chicken Corner", "Rating": "3.4", "votes": "27", "location": " S-12, Green Park Extension, Green Park, New Delhi", "Cuisines: ": "Biryani, Mughlai", "hours": "11am\u201311pm(Mon-Sun)", "Cost for two": "\u20b9400"}, {"Name": "Zoomeno\u2019d Pizza", "Rating": "3.0", "votes": "4", "location": " Bhopani More, Near HDFC Bank, Kheri Jasana Road, Near Sector 86, Faridabad", "Cuisines: ": "Pizza, Fast Food", "hours": "10am\u201311pm(Mon-Sun)", "Cost for two": "\u20b9350"}]