[{"Name": "Chaap Kitchen", "Rating": "2.7", "votes": "294", "location": " E-124, Amar Colony, New Delhi", "Cuisines: ": "North Indian, Chinese, Rolls", "hours": "12noon\u20134am(Mon-Sun)", "Cost for two": "\u20b9500"}, {"Name": "F.O.D", "Rating": "3.8", "votes": "39", "location": " Shop 2, Windsor Street, Indirapuram, Ghaziabad", "Cuisines: ": "North Indian, Fast Food, Biryani", "hours": "11am\u20134am(Mon-Sun)", "Cost for two": "\u20b9300"}, {"Name": "Tandoori Chicken", "Rating": "-", "votes": "39", "location": " B4/389 Ground Floor Opposite HDFC Bank Century Plaza, Near Petrol Pump, Sector 8, Rohini, New Delhi", "Cuisines: ": "North Indian, Mughlai, Chinese", "hours": "11:45am\u20134am(Mon-Sun)", "Cost for two": "\u20b9500"}, {"Name": "Way2Burger", "Rating": "3.8", "votes": "112", "location": " A-124, Nirvana Courtyard, Nirvana Country, Sector 50, Gurgaon", "Cuisines: ": "Burger, Fast Food", "hours": "11am\u20136am(Mon-Sun)", "Cost for two": "\u20b9600"}, {"Name": "Lovely Food Point", "Rating": "-", "votes": "112", "location": " Gali 12, Road 4, Mahipalpur, New Delhi", "Cuisines: ": "North Indian, Chinese", "hours": "8am\u201311pm(Mon-Sun)", "Cost for two": "\u20b9300"}, {"Name": "Pizza King", "Rating": "2.9", "votes": "38", "location": " F 81, Near Kudi Chowk, Lado Sarai, New Delhi", "Cuisines: ": "Pizza, Fast Food", "hours": "8am\u20134am(Mon-Sun)", "Cost for two": "\u20b9300"}, {"Name": "The Club Bar & Cigar Lounge - The Oberoi", "Rating": "3.2", "votes": "13", "location": " The Oberoi, Dr. Zakir Hussain Marg, New Delhi", "Cuisines: ": "Finger Food", "hours": "10am\u20133pm,5pm\u20131am(Mon-Sun)", "Cost for two": "\u20b93,000"}, {"Name": "LMB Food Point", "Rating": "3.7", "votes": "45", "location": " RZ C 186/1, Madhu Vihar, Near Bhaskarachrya College, Sector 2, Dwarka, New Delhi", "Cuisines: ": "Chinese, North Indian, Mithai", "hours": "24Hours(Mon-Sun)", "Cost for two": "\u20b9500"}, {"Name": "Singh Sahab Chaap Wale", "Rating": "3.9", "votes": "86", "location": " Shop E 20, Single Story, Near Shani Mandir, Vijay Nagar, New Delhi", "Cuisines: ": "North Indian", "hours": "11am\u201311pm(Mon-Sun)", "Cost for two": "\u20b9150"}, {"Name": "Oh My Grill", "Rating": "3.9", "votes": "152", "location": " KD 8, C Block Market, Sector 18, Kavi Nagar, Ghaziabad", "Cuisines: ": "North Indian, Mughlai", "hours": "12noon\u201310:30pm(Mon,Tue,Fri,Sat,Sun)...", "Cost for two": "\u20b9500"}, {"Name": "Swiss Softy", "Rating": "3.8", "votes": "65", "location": " Ground Floor, Unity One Mall, Bhagawan Mahavir Marg, Near Rohini West Metro Station, Sector 10, Rohini, New Delhi", "Cuisines: ": "Ice Cream, Desserts, Beverages", "hours": "11am\u201311pm(Mon-Sun)", "Cost for two": "\u20b9300"}, {"Name": "Tee Spots", "Rating": "3.7", "votes": "30", "location": " 39, Ground Floor, Satya Niketan, Moti Bagh-2, Chanakyapuri, New Delhi", "Cuisines: ": "Beverages, Fast Food", "hours": "8am\u201310pm(Mon-Sun)", "Cost for two": "\u20b9200"}, {"Name": "Zayka Chicken Biryani Corner", "Rating": "3.2", "votes": "13", "location": " Plot 56, Shop 3, Main Jharsa Road, Sector 15, Gurgaon", "Cuisines: ": "Biryani, Mughlai", "hours": "8am\u201310pm(Mon-Sun)", "Cost for two": "\u20b9450"}, {"Name": "Day Night Meal", "Rating": "3.4", "votes": "57", "location": " C-234, Sector 63, Noida", "Cuisines: ": "Chinese, North Indian, Fast Food", "hours": "11:30am\u20134pm,6:30pm\u20131am(Mon-Sun)", "Cost for two": "\u20b9500"}, {"Name": "Mehak Dhaba", "Rating": "2.8", "votes": "143", "location": " Shop 17-18, Malik Buildcon Plaza 2, Pocket 5, Near K.M. Chowk, Sector 12, Dwarka, New Delhi", "Cuisines: ": "North Indian", "hours": "12:30pm\u20134:30pm,7pm\u201311pm(Mon-Sun)", "Cost for two": "\u20b9300"}]