[{"Name": "Delliccio by J", "Rating": "3.3", "votes": "10", "location": " C8/8753, Vasant Kunj, New Delhi", "Cuisines: ": "Rolls, Biryani", "hours": "8pm\u20134am(Mon-Sun)", "Cost for two": "\u20b9350"}, {"Name": "The Hakka Story", "Rating": "3.1", "votes": "5", "location": " F344/1, Tara Bhawan, Near Central Bank Of India, Lado Sarai, New Delhi", "Cuisines: ": "Chinese", "hours": "11am\u201311pm(Mon-Sun)", "Cost for two": "\u20b9450"}, {"Name": "Yash Fast Food Corner", "Rating": "-", "votes": "5", "location": " 219, Gali 7, Near Parkash Building, Desu Wali Gali, Road 4, Mahipalpur, New Delhi", "Cuisines: ": "Chinese", "hours": "12noon\u201310pm(Mon-Sun)", "Cost for two": "\u20b9300"}, {"Name": "Panjabi Nawabi", "Rating": "NEW", "votes": "5", "location": " A 207, Road 4, Mahipalpur, New Delhi", "Cuisines: ": "North Indian, Beverages", "hours": "10am\u20132am(Mon-Sun)", "Cost for two": "\u20b9350"}, {"Name": "Zaika Dilli Ka", "Rating": "3.5", "votes": "17", "location": " 7, Taneja Complex, Gautam Nagar Road, Yusuf Sarai, New Delhi", "Cuisines: ": "North Indian, Chinese", "hours": "11:30am\u201311pm(Mon-Sun)", "Cost for two": "\u20b9500"}, {"Name": "Meethas Sweets", "Rating": "2.5", "votes": "18", "location": " 6, UG62, Ansal Chamber 2, Bhikaji Cama Place, New Delhi", "Cuisines: ": "North Indian, Mithai", "hours": "7am\u20137:30pm(Mon-Sat),Closed(Sun)", "Cost for two": "\u20b9300"}, {"Name": "Nirmal Food & Caterers", "Rating": "3.9", "votes": "192", "location": " 12/89, Kabool Nagar, Shahdara, New Delhi", "Cuisines: ": "North Indian", "hours": "12:30pm\u20134pm,7pm\u201311pm(Mon-Sun)", "Cost for two": "\u20b9300"}, {"Name": "Chaat Ki BAAT", "Rating": "3.4", "votes": "14", "location": " Shop 20, Galleria, DLF Phase 4, Gurgaon", "Cuisines: ": "Street Food", "hours": "11am\u201311pm(Mon-Sun)", "Cost for two": "\u20b9200"}, {"Name": "Kolkata Khathi Roll", "Rating": "3.0", "votes": "9", "location": " Street 5, DDA Market, Anupam Apartment, Saidulajab, Saket, New Delhi", "Cuisines: ": "Rolls", "hours": "4pm\u201310:30pm(Mon-Sun)", "Cost for two": "\u20b9150"}, {"Name": "Rasoi The Caterers", "Rating": "3.6", "votes": "136", "location": " G-2, Main Surajkund Road, Charmwood Village, Faridabad", "Cuisines: ": "North Indian, Chinese", "hours": "11am\u201311pm(Mon-Sun)", "Cost for two": "\u20b9800"}, {"Name": "Chef 207", "Rating": "3.4", "votes": "20", "location": " D-438/1, Mahavir Enclave, Part 3, Near Sector 2, Dwarka, New Delhi", "Cuisines: ": "Biryani, North Indian", "hours": "10:30am\u201310:30pm(Mon-Sun)", "Cost for two": "\u20b9450"}, {"Name": "Krips Restaurant", "Rating": "3.7", "votes": "372", "location": " 59, Community Centre, Basant Lok Market, Vasant Vihar, New Delhi", "Cuisines: ": "North Indian, Chinese", "hours": "11am\u201312midnight(Mon-Sun)", "Cost for two": "\u20b9900"}, {"Name": "Chawla Pure Vegetarian Dillivala", "Rating": "3.5", "votes": "28", "location": " 35/2, Gurunanakpura, Opposite V3S Mall, Laxmi Nagar, New Delhi", "Cuisines: ": "North Indian, Chinese", "hours": "11:30am\u201311:30pm(Mon-Sun)", "Cost for two": "\u20b9500"}, {"Name": "Amma Food Corner", "Rating": "3.2", "votes": "7", "location": " A 429, Ground Floor, Front portion, Double Storey Kalkaji, New Delhi", "Cuisines: ": "South Indian", "hours": "8am\u201310:30pm(Mon,Wed,Thu,Fri,Sat,Sun)...", "Cost for two": "\u20b9200"}, {"Name": "Al Fahm Barbeque", "Rating": "3.1", "votes": "5", "location": " G 51/9C, Upper Ground Floor, Shaheen Bagh, Abul Fazal Enclave, Part 11, Jamia Nagar, Jasola, New Delhi", "Cuisines: ": "Arabian, Rolls", "hours": "10:30am\u201311pm(Mon-Sun)", "Cost for two": "\u20b9300"}]