[{"Name": "Hangchuaa's Chinese Food Corner", "Rating": "3.6", "votes": "98", "location": " D 65, Arjun Nagar, Safdarjung Enclave, Safdarjung, New Delhi", "Cuisines: ": "Chinese", "hours": "11am\u201311pm(Mon-Sun)", "Cost for two": "\u20b9450"}, {"Name": "Nocturyum", "Rating": "3.4", "votes": "17", "location": " Delivery Only", "Cuisines: ": "Burger", "hours": "6pm\u20134am(Mon-Sun)", "Cost for two": "\u20b9300"}, {"Name": "Bingers", "Rating": "3.5", "votes": "259", "location": " 63, Rampuri, Opposite Hanuman Mandir, Kalkaji, New Delhi", "Cuisines: ": "North Indian, Rolls, Chinese, Momos", "hours": "12noon\u201311:30pm(Mon-Sun)", "Cost for two": "\u20b9300"}, {"Name": "Ghalib Kabab Corner", "Rating": "3.9", "votes": "446", "location": " Shop 57, Ghalib Road, Near Lal Mahal, Nizamuddin, New Delhi", "Cuisines: ": "Mughlai, Kebab", "hours": "12noon\u201311:30pm(Mon-Sun)", "Cost for two": "\u20b9350"}, {"Name": "Pradeep Pav Bhaji", "Rating": "4.0", "votes": "462", "location": " G-2, Vardhman Shrenik Plaza, Pocket B, Mayur Vihar Phase 2, New Delhi", "Cuisines: ": "Street Food", "hours": "1pm\u201311pm(Mon-Sun)", "Cost for two": "\u20b9200"}, {"Name": "Monu Jain Kachori Wala", "Rating": "3.9", "votes": "108", "location": " Churi Wali Market, Jacobpura, Sadar Bazar, Gurgaon", "Cuisines: ": "Street Food", "hours": "8am\u20133pm(Mon-Sun)", "Cost for two": "\u20b9150"}, {"Name": "Yours Truly- Butter Chicken", "Rating": "4.3", "votes": "121", "location": " Greater Kailash 1 (GK 1), New Delhi", "Cuisines: ": "North Indian", "hours": "11am\u20133am(Mon-Sun)", "Cost for two": "\u20b9600"}, {"Name": "Taza Day", "Rating": "3.8", "votes": "43", "location": " Delivery Only", "Cuisines: ": "North Indian, Chinese, Fast Food", "hours": "24Hours(Mon-Sun)", "Cost for two": "\u20b9200"}, {"Name": "Priya Organic Food", "Rating": "3.4", "votes": "17", "location": " Y-215 A, Budh Vihar, Block Y, Gautam Buddha Nagar, Sector 12, Noida", "Cuisines: ": "North Indian, South Indian", "hours": "8am\u201312noon(Mon-Sun)", "Cost for two": "\u20b9400"}, {"Name": "The Colony Bistro", "Rating": "4.1", "votes": "1057", "location": " C-31, Amar Colony Main Market, Lajpat Nagar 4, New Delhi", "Cuisines: ": "American, North Indian, Chinese, Pizza", "hours": "12midnight\u20132:30am,12noon\u201312midnight(Mon...", "Cost for two": "\u20b91,500"}, {"Name": "Sardar Jalebi", "Rating": "3.8", "votes": "95", "location": " Jacobpura, Roshan Pura, Sadar Bazar, Gurgaon", "Cuisines: ": "Mithai", "hours": "10am\u20138pm(Mon-Sun)", "Cost for two": "\u20b9100"}, {"Name": "Kapoor Snacks Corner", "Rating": "3.8", "votes": "83", "location": " M1, Shop 1, Malviya Nagar, New Delhi", "Cuisines: ": "North Indian", "hours": "8am\u20138pm(Mon-Sun)", "Cost for two": "\u20b9100"}, {"Name": "Limitless Cookhouse & Bar", "Rating": "4.0", "votes": "738", "location": " 3rd Floor, Ansal Plaza Mall, Khel Gaon Marg, New Delhi", "Cuisines: ": "North Indian, Italian", "hours": "12:30pm\u201312:30am(Mon-Sun)", "Cost for two": "\u20b92,000"}, {"Name": "36 Lebzelter", "Rating": "4.3", "votes": "129", "location": " C 30/2, Ground Floor, Acharya Niketan, Mayur Vihar Phase 1, New Delhi", "Cuisines: ": "Italian, Mexican, Chinese, North Indian, Fast Food", "hours": "12noon\u201310:30pm(Mon-Sun)", "Cost for two": "\u20b9900"}, {"Name": "Clay Oven's", "Rating": "3.7", "votes": "286", "location": " 155, Ground Floor, Central Arcade, Opposite Sahara Mall, DLF Phase 2, Gurgaon", "Cuisines: ": "North Indian, Chinese", "hours": "12noon\u20133am(Mon-Sun)", "Cost for two": "\u20b9700"}]