[{"Name": "Sugar Cry Cafe", "Rating": "3.3", "votes": "20", "location": " R - 1, Second Floor, Hari Nagar Extention, Badarpur Border, Faridabad", "Cuisines: ": "Bakery", "hours": "11am\u201310:30pm(Mon-Sun)", "Cost for two": "\u20b9400"}, {"Name": "Viva Deli - Holiday Inn", "Rating": "3.5", "votes": "45", "location": " Holiday Inn, 12, Asset Area, Hospitality District, Aerocity, New Delhi", "Cuisines: ": "Bakery", "hours": "11am\u20138pm(Mon-Sun)", "Cost for two": "\u20b91,000"}, {"Name": "Whisk n Shake", "Rating": "3.9", "votes": "176", "location": " Shop 7, Krishna Apra Sapphire Plaza, Vaibhav Khand, Indirapuram, Ghaziabad", "Cuisines: ": "Desserts, Beverages, Fast Food", "hours": "12noon\u201311pm(Mon,Tue,Wed,Thu,Fri,Sun)...", "Cost for two": "\u20b9300"}, {"Name": "Mayur Restaurant", "Rating": "3.2", "votes": "279", "location": " A 8, Ground Floor, Acharya Niketan, Mayur Vihar Phase 1, New Delhi", "Cuisines: ": "South Indian, North Indian, Chinese", "hours": "10am\u201311pm(Mon-Sun)", "Cost for two": "\u20b9450"}, {"Name": "Chinese Rasoi", "Rating": "-", "votes": "279", "location": " 110/12, Amritpuri Garhi, Near Iskcon Temple, East Of Kailash, New Delhi", "Cuisines: ": "Momos, Rolls, Chinese, Fast Food", "hours": "12:30pm\u20134am(Mon-Sun)", "Cost for two": "\u20b9400"}, {"Name": "Deseez", "Rating": "3.8", "votes": "277", "location": " 702, Near Qutub Auto, Jharsa, Sector 39, Gurgaon", "Cuisines: ": "North Indian, Mughlai, Biryani", "hours": "11am\u201311pm(Mon-Sun)", "Cost for two": "\u20b9700"}, {"Name": "Pizza And Burger Hut", "Rating": "3.4", "votes": "31", "location": " 1/277, Shastri Colony, Old Faridabad, Near Sector 19, Faridabad", "Cuisines: ": "Pizza, Fast Food", "hours": "10am\u201312midnight(Mon-Sun)", "Cost for two": "\u20b9300"}, {"Name": "Cake Boy", "Rating": "3.1", "votes": "6", "location": " Gali 4E, 77, New Ashok Nagar, Near Dashmesh Public School, Vasundhara Enclave, New Delhi", "Cuisines: ": "Bakery", "hours": "6:30am\u201311:30pm(Mon-Sun)", "Cost for two": "\u20b9350"}, {"Name": "Hunger Rasoi", "Rating": "-", "votes": "6", "location": " C 11, 1st Floor, Amar Colony, New Delhi", "Cuisines: ": "Chinese, North Indian, Mughlai", "hours": "11am\u201311pm(Mon-Sun)", "Cost for two": "\u20b9650"}, {"Name": "Durbar Restaurant", "Rating": "2.8", "votes": "170", "location": " 166, Opposite Pocket 4, Pratap Nagar, Near Mayur Vihar Phase 1, New Delhi", "Cuisines: ": "North Indian, Chinese", "hours": "11am\u201311pm(Mon-Sun)", "Cost for two": "\u20b9600"}, {"Name": "Baweja's Cakes N Bakes", "Rating": "3.4", "votes": "70", "location": " 5D/98, Sardar Ji Matthi Wale, NIT, Faridabad", "Cuisines: ": "Fast Food", "hours": "10:30am\u201310pm(Mon-Sun)", "Cost for two": "\u20b9100"}, {"Name": "Desi Foods", "Rating": "3.0", "votes": "12", "location": " D-90/2, Mohan Baba Nagar, Budh Vihar Main Road, Badarpur Border, Faridabad", "Cuisines: ": "Street Food", "hours": "7am\u201311pm(Mon-Sun)", "Cost for two": "\u20b9100"}, {"Name": "Roll Is Roll", "Rating": "-", "votes": "12", "location": " Plot 5, Nehru Nagar Main Market, Lajpat Nagar 2, New Delhi", "Cuisines: ": "Rolls", "hours": "12noon\u201312midnight(Mon-Sun)", "Cost for two": "\u20b9400"}, {"Name": "Biryani Darbaar", "Rating": "3.8", "votes": "89", "location": " 110, Gali 12, S/F Amritpuri B, Garhi Near Iskcon Temple, East of Kailash, New Delhi", "Cuisines: ": "Biryani, Kebab", "hours": "12:30pm\u20134am(Mon-Sun)", "Cost for two": "\u20b9350"}, {"Name": "Uncle's Kabaab", "Rating": "3.6", "votes": "48", "location": " C 13, Amar Colony, Main Market, Lajpat Nagar 4, New Delhi", "Cuisines: ": "Kebab, Chinese, North Indian", "hours": "12noon\u201311pm(Mon-Sun)", "Cost for two": "\u20b9450"}]