[{"Name": "The Munch Box", "Rating": "-", "location": " Baba Balgiri Mandir Road, Sadarpur, Sector-45, Noida", "Cuisines: ": "Pizza", "hours": "10am\u201311:30pm(Mon-Sun)", "Cost for two": "\u20b9700"}, {"Name": "Desi they\u0938\u0940", "Rating": "4.0", "location": " Delivery Only", "Cuisines: ": "North Indian, Mughlai, Chinese, Momos", "hours": "11:30am\u201311:30pm(Mon,Tue,Wed,Fri,Sat,Sun)...", "Cost for two": "\u20b9800", "votes": "128"}, {"Name": "The Pizza Kitchen", "Rating": "3.7", "location": " Shop 497, Ground Floor, Street 6, Near Ram Leela Ground, Arjun Nagar, Sector 8, Gurgaon", "Cuisines: ": "Pizza, Fast Food, Beverages", "hours": "1pm\u201311pm(Mon-Sun)", "Cost for two": "\u20b9400", "votes": "61"}, {"Name": "Yadav Dhaba", "Rating": "3.5", "location": " E 30, Bharat Vihar, Begumpur, Rohini, New Delhi", "Cuisines: ": "North Indian", "hours": "7pm\u20134am(Mon-Sun)", "Cost for two": "\u20b9250", "votes": "27"}, {"Name": "Snacks Bar", "Rating": "2.8", "location": " Near Pristine Mall, Sector 31, Faridabad", "Cuisines: ": "Chinese, Fast Food", "hours": "12noon\u201310pm(Mon-Sun)", "Cost for two": "\u20b9450", "votes": "42"}, {"Name": "Khandani Pakode Wala", "Rating": "3.6", "location": " Shop 14-15, Central Market, Malviya Nagar, New Delhi", "Cuisines: ": "Street Food, Chinese", "hours": "10am\u201310pm(Mon-Sun)", "Cost for two": "\u20b9250", "votes": "154"}, {"Name": "Shutup 'N' Eat", "Rating": "3.7", "location": " Shop 23, Garg Plaza, Sainik Vihar, Pitampura, New Delhi", "Cuisines: ": "North Indian, Mughlai, Rolls", "hours": "11am\u201311pm(Mon-Sun)", "Cost for two": "\u20b9500", "votes": "570"}, {"Name": "Khana Khazana Restaurant", "Rating": "3.0", "location": " Shop 2, Near Mother Dairy, Mullahera, Sector 22A, Gurgaon", "Cuisines: ": "North Indian, Chinese", "hours": "24Hours(Mon-Sun)", "Cost for two": "\u20b9400", "votes": "7"}, {"Name": "T Buddy", "Rating": "-", "location": " House 9, Khand B, Air Force Road, Jawahar Colony, Faridabad", "Cuisines: ": "Fast Food", "hours": "9:30am\u201312midnight(Mon-Sun)", "Cost for two": "\u20b9150", "votes": "7"}, {"Name": "Bihar ki Rasoi", "Rating": "3.7", "location": " Stall 14, Dilli Haat, Near INA Market, INA, New Delhi", "Cuisines: ": "Bihari", "hours": "12noon\u201310pm(Mon-Sun)", "Cost for two": "\u20b9500", "votes": "101"}, {"Name": "Delhi Food Factory", "Rating": "3.6", "location": " B 38, Ground Floor, Left Side Gali 14, B Block, Madhu Vihar, IP Extension, New Delhi", "Cuisines: ": "North Indian, Chinese", "hours": "6pm\u20135am(Mon-Sun)", "Cost for two": "\u20b9700", "votes": "110"}, {"Name": "Gupta Fast Food", "Rating": "3.5", "location": " 446, Leela Ram Market, Masjid Moth, NDSE II, South Extension 2, New Delhi", "Cuisines: ": "North Indian, Chinese", "hours": "9am\u201311:30pm(Mon-Sun)", "Cost for two": "\u20b9600", "votes": "66"}, {"Name": "The Golden Buns", "Rating": "3.7", "location": " 4/123, Budhela Market, Vikaspuri, New Delhi", "Cuisines: ": "Fast Food, Beverages", "hours": "9:15am\u201311:55pm(Mon-Sun)", "Cost for two": "\u20b9300", "votes": "133"}, {"Name": "Hungrier", "Rating": "3.4", "location": " Amrpali Princely Estate, Beside Silicon City, Sector 76, Near Sector 72, Noida", "Cuisines: ": "North Indian, Chinese, Mughlai", "hours": "12noon\u201312midnight(Mon-Sun)", "Cost for two": "\u20b9500", "votes": "36"}, {"Name": "Shri Ganesh Rasoi", "Rating": "3.5", "location": " 161/162, A 6, LSC DDA Market, Near Sport Complex, Paschim Vihar, New Delhi", "Cuisines: ": "North Indian, South Indian, Chinese", "hours": "11:30am\u20134pm,7pm\u201312midnight(Mon-Sun)", "Cost for two": "\u20b9350", "votes": "89"}]