[{"Name": "Baweja's Pizza Xpress", "Rating": "2.8", "votes": "59", "location": " 3A/WH/76, Near Dav College, NIT, Faridabad", "Cuisines: ": "Pizza, Beverages", "hours": "10am\u201310pm(Mon-Sun)", "Cost for two": "\u20b9300"}, {"Name": "Guru Ji Parantha", "Rating": "NEW", "votes": "59", "location": " 2755, Gali Ram Roop, Old Sabzi Mandi, Kamla Nagar, New Delhi", "Cuisines: ": "North Indian, Fast Food", "hours": "7:30am\u201312noon,8pm\u20132am(Mon-Sun)", "Cost for two": "\u20b9250"}, {"Name": "Koko-Nut", "Rating": "NEW", "votes": "59", "location": " 32 UB, Jawahar Nagar, Kamla Nagar, Civil Lines, New Delhi", "Cuisines: ": "South Indian, North Indian", "hours": "11am\u201311pm(Mon-Sun)", "Cost for two": "\u20b9300"}, {"Name": "Fresh Pizza House", "Rating": "3.0", "votes": "11", "location": " Sector 87, Near Sector 86, Faridabad", "Cuisines: ": "Pizza", "hours": "10am\u201311pm(Mon-Sun)", "Cost for two": "\u20b9200"}, {"Name": "Brickyard Cafe & Lounge", "Rating": "3.8", "votes": "78", "location": " Shop 11, Ground Floor, Satyaniketan, New Delhi", "Cuisines: ": "Chinese, North Indian, Italian, Fast Food, Beverages", "hours": "11am\u20133am(Mon-Sun)", "Cost for two": "\u20b9600"}, {"Name": "Gurunanak Rasoi", "Rating": "3.2", "votes": "10", "location": " 186/B, New Colony, Near Mother Dairy, Sector 7, Gurgaon", "Cuisines: ": "North Indian", "hours": "11am\u201311:30pm(Mon-Sun)", "Cost for two": "\u20b9250"}, {"Name": "Fitkut", "Rating": "3.2", "votes": "9", "location": " Shop 15, Ground Floor, Vipul Trade Center, Sector 48, Near Sohna Road, Gurgaon", "Cuisines: ": "Healthy Food, North Indian, Fast Food", "hours": "10:30am\u201310pm(Mon-Sat),Closed(Sun)", "Cost for two": "\u20b9400"}, {"Name": "Wild Willy", "Rating": "3.6", "votes": "70", "location": " India Habitat Centre, Lodhi Road, New Delhi", "Cuisines: ": "Pizza, Fast Food", "hours": "12noon\u201311pm(Mon-Sun)", "Cost for two": "\u20b9500"}, {"Name": "Best Muradabadi & Hyderabadi", "Rating": "3.6", "votes": "55", "location": " Shop 7, GG 1, Shankar Chowk, PVR Road, Vikaspuri, New Delhi", "Cuisines: ": "Biryani, Mughlai", "hours": "11am\u201312midnight(Mon-Sun)", "Cost for two": "\u20b9500"}, {"Name": "Cafe Risalo", "Rating": "3.7", "votes": "51", "location": " Shop 2, Supertech Mart, Sec 74, Near Sector 72, Noida", "Cuisines: ": "Italian, Fast Food, Beverages", "hours": "12midnight\u20133am,1pm\u201312midnight(Mon,Tue...", "Cost for two": "\u20b9450"}, {"Name": "Gupta Bikaneri Namkeen", "Rating": "3.7", "votes": "90", "location": " G 21/1A, Main Market, Rajouri Garden, New Delhi", "Cuisines: ": "Mithai, Street Food", "hours": "9am\u201310pm(Mon-Sun)", "Cost for two": "\u20b9200"}, {"Name": "Batman Delivers", "Rating": "3.0", "votes": "361", "location": " Delivery Only", "Cuisines: ": "Chinese, Fast Food", "hours": "8am\u20135am(Mon-Sun)", "Cost for two": "\u20b9300"}, {"Name": "Swad Anusar", "Rating": "3.2", "votes": "8", "location": " 1693, Railway Road, Laxman Vihar, Phase 2, Old Railway Road, Gurgaon", "Cuisines: ": "Chinese, North Indian, Fast Food, Beverages", "hours": "8am\u20134am(Mon-Sun)", "Cost for two": "\u20b9300"}, {"Name": "Cafe Tuscany", "Rating": "-", "votes": "8", "location": " C 28/29, Logix Cyber Park, Sector 62, Noida", "Cuisines: ": "Fast Food, Pizza, Salad, Beverages, Rolls", "hours": "9:30am\u201311pm(Mon-Sun)", "Cost for two": "\u20b9450"}, {"Name": "Anna Madras Cafe", "Rating": "3.6", "votes": "99", "location": " C-42, Nehru Road, Azadpur, New Delhi", "Cuisines: ": "South Indian", "hours": "9am\u201311pm(Mon-Sun)", "Cost for two": "\u20b9300"}]