[{"Name": "New Vaishno Food Junction", "Rating": "3.1", "votes": "10", "location": " B 191/5, Ground Floor, B Block, Parwatiya Anchal, Gali 6, Sant Nagar, Burari, Azadpur, New Delhi", "Cuisines: ": "North Indian", "hours": "12midnight\u20132:30am,10am\u201312midnight...", "Cost for two": "\u20b9250"}, {"Name": "Kwality Wall's Swirl's", "Rating": "3.0", "votes": "11", "location": " Shop 19, Ground Floor, Pacific Mall, Sahibabad, Ghaziabad", "Cuisines: ": "Ice Cream, Beverages", "hours": "11am\u201311pm(Mon-Sun)", "Cost for two": "\u20b9200"}, {"Name": "Captain's Resto Bar", "Rating": "3.6", "votes": "73", "location": " Plot 9, Syndicate Bank Building, Sector 4, Vaishali, Ghaziabad", "Cuisines: ": "North Indian, Chinese, Continental", "hours": "12noon\u201312midnight(Mon-Sun)", "Cost for two": "\u20b91,600"}, {"Name": "Unique Cafe", "Rating": "3.4", "votes": "13", "location": " Saveri Village, Near Bank Of India, Crossing Republik, Ghaziabad", "Cuisines: ": "North Indian, Chinese, Fast Food", "hours": "11am\u201311pm(Mon-Sun)", "Cost for two": "\u20b9600"}, {"Name": "Kolkata Roll Munna Bhai", "Rating": "2.8", "votes": "39", "location": " Community Centre, New Friends Colony, New Delhi", "Cuisines: ": "Rolls", "hours": "4pm\u201311:30pm(Mon-Sun)", "Cost for two": "\u20b9200"}, {"Name": "Sandwich Hub", "Rating": "4.0", "votes": "130", "location": " Sector 16, Near Jackson HP, Rohini, New Delhi", "Cuisines: ": "Italian, Fast Food, Beverages", "hours": "8am\u20132am(Mon-Sun)", "Cost for two": "\u20b9400"}, {"Name": "Ego Obsession", "Rating": "3.8", "votes": "317", "location": " 4, Community Centre, New Friends Colony, New Delhi", "Cuisines: ": "Italian", "hours": "12noon\u20133:30pm,7pm\u201312midnight(Mon-Sun)", "Cost for two": "\u20b91,900"}, {"Name": "Cafe 29", "Rating": "NEW", "votes": "317", "location": " 1-J/29, Arya Samaj Road, NIT, Faridabad", "Cuisines: ": "North Indian, Chinese", "hours": "12noon\u201312midnight(Mon-Sun)", "Cost for two": "\u20b9500"}, {"Name": "The Crest", "Rating": "3.8", "votes": "40", "location": " Sandal Suites, Assotech Business Cresterra, 22, Sector 135, Noida", "Cuisines: ": "North Indian, Continental, European, BBQ", "hours": "7:30pm\u201311:30pm(Mon-Sun)", "Cost for two": "\u20b93,500"}, {"Name": "Kafe Mitro", "Rating": "2.7", "votes": "29", "location": " F 601, Ramphal Chowk, Sector 7, Dwarka, New Delhi", "Cuisines: ": "Cafe", "hours": "11am\u201311pm(Mon-Sun)", "Cost for two": "\u20b9700"}, {"Name": "Cooknook", "Rating": "NEW", "votes": "29", "location": " Ploto 556P, Near Bakhtawar Chowk, Sector 39, Gurgaon", "Cuisines: ": "North Indian, Fast Food", "hours": "7:30am\u20131am(Mon-Sun)", "Cost for two": "\u20b9350"}, {"Name": "Into The Spice", "Rating": "NEW", "votes": "29", "location": " G 15, RG Complex, Sector 14, Prashant Vihar, Rohini, New Delhi", "Cuisines: ": "North Indian, Chinese, Mughlai", "hours": "12noon\u201311pm(Mon-Sun)", "Cost for two": "\u20b9500"}, {"Name": "Mehfil", "Rating": "NEW", "votes": "29", "location": " Plot 6, Main Najafgarh Gurgaon Road, Opposite Royal Enfield Showroom, Najafgarh, New Delhi", "Cuisines: ": "North Indian, Chinese", "hours": "12noon\u201311pm(Mon-Sun)", "Cost for two": "\u20b9200"}, {"Name": "Aham Banarasi", "Rating": "3.3", "votes": "13", "location": " Shop 15, Lower Ground Floor, City Plaza Market, Gaur City 1, Greater Noida", "Cuisines: ": "North Indian", "hours": "11am\u20133am(Mon-Sun)", "Cost for two": "\u20b9300"}, {"Name": "Mughal Cuisine Foods", "Rating": "3.8", "votes": "141", "location": " D 23, Abdul Fazal Enclave Part 1, Kalindi Kunj Road, Jasola, New Delhi", "Cuisines: ": "Mughlai, Chinese, North Indian", "hours": "12:30pm\u201311pm(Mon-Sun)", "Cost for two": "\u20b91,000"}]