[{"Name": "Tesoro Mio", "Rating": "3.9", "votes": "996", "location": " G-13, Top Floor, Opposite Metro Pillar 106, Vikas Marg, Preet Vihar, New Delhi", "Cuisines: ": "Continental, Chinese, Italian, Mexican, North Indian, Salad", "hours": "12noon\u201311pm(Mon-Thu),12noon\u201311:30pm(Fri-Sun)", "Cost for two": "\u20b91,500"}, {"Name": "Burger Time", "Rating": "3.6", "votes": "39", "location": " Shop 17, Ground Floor, Shivam Plaza, Delta 1, Greater Noida", "Cuisines: ": "Burger, Fast Food", "hours": "12noon\u20136am(Mon-Sun)", "Cost for two": "\u20b9300"}, {"Name": "Cakes Super", "Rating": "3.1", "votes": "6", "location": " 3026/27, Near Vihari Mandi, Sector 28, DLF Phase 4, Gurgaon", "Cuisines: ": "Bakery", "hours": "9am\u20134am(Mon-Sun)", "Cost for two": "\u20b9550"}, {"Name": "The Bamboo House", "Rating": "3.4", "votes": "26", "location": " 14, Central Market, West Punjabi Bagh, New Delhi", "Cuisines: ": "North Indian", "hours": "12noon\u201312midnight(Mon-Sun)", "Cost for two": "\u20b9400"}, {"Name": "Juice On Go", "Rating": "3.2", "votes": "8", "location": " Shop 1, Golf Avenue 2, Plot 3, Sector 75, Near Sector 72, Noida", "Cuisines: ": "Juices", "hours": "11am\u201310pm(Mon-Sun)", "Cost for two": "\u20b9150"}, {"Name": "Bakers Island", "Rating": "3.7", "votes": "60", "location": " C-49, Milan Cinema Road, Karampura, New Delhi", "Cuisines: ": "Bakery, Chinese, Fast Food", "hours": "10am\u201310pm(Mon-Sun)", "Cost for two": "\u20b9350"}, {"Name": "Biryani Express", "Rating": "3.5", "votes": "49", "location": " 9, Chimni Bai Chowk, Block G, New Industrial Town, NIT, Faridabad", "Cuisines: ": "Biryani", "hours": "11am\u201311pm(Mon-Sun)", "Cost for two": "\u20b9200"}, {"Name": "The Chinese Hungers", "Rating": "3.7", "votes": "99", "location": " A-19/1, Second Floor, Panchsheel Vihar, Malviya Nagar, New Delhi", "Cuisines: ": "Chinese", "hours": "11am\u20133am(Mon-Sun)", "Cost for two": "\u20b9250"}, {"Name": "Punjabi's Veg Grill", "Rating": "3.7", "votes": "170", "location": " 9/108, Subhash Nagar, New Delhi", "Cuisines: ": "North Indian", "hours": "11:30am\u201311pm(Mon-Sun)", "Cost for two": "\u20b9350"}, {"Name": "Ahmad Chicken Corner", "Rating": "3.2", "votes": "7", "location": " Shop 3, Plot 10, Durga Plaza, District Center, Sanjay Nagar, Near Raj Nagar, Ghaziabad", "Cuisines: ": "North Indian", "hours": "2pm\u201312midnight(Mon-Sun)", "Cost for two": "\u20b9400"}, {"Name": "Last Exit Cafe", "Rating": "3.7", "votes": "42", "location": " 179, Ground Floor, C Block, Sushant Vyapar Kendra, Sector 43, Sushant Lok, Gurgaon", "Cuisines: ": "North Indian, Biryani, Fast Food", "hours": "11am\u201311pm(Mon-Sun)", "Cost for two": "\u20b9300"}, {"Name": "Dhading KTM", "Rating": "3.6", "votes": "51", "location": " 4/141, Lalita Park, Laxmi Nagar, New Delhi", "Cuisines: ": "Chinese, Fast Food", "hours": "10am\u201311pm(Mon-Sun)", "Cost for two": "\u20b9500"}, {"Name": "BFF (Best Food Forever)", "Rating": "3.5", "votes": "111", "location": " Shop A1, Shiva Tower, Gali 7, Sector 66, Near Sector 65, Noida", "Cuisines: ": "North Indian, Chinese, Mughlai", "hours": "12noon\u20134am(Mon-Sun)", "Cost for two": "\u20b9300"}, {"Name": "States", "Rating": "3.7", "votes": "88", "location": " Delivery Only", "Cuisines: ": "North Indian, South Indian", "hours": "8am\u201312midnight(Mon-Sun)", "Cost for two": "\u20b9450"}, {"Name": "Singh's Vada Pav", "Rating": "3.9", "votes": "158", "location": " D-47, Old Gupta Colony, Near Shani Mandir, Delhi University-GTB Nagar, New Delhi", "Cuisines: ": "Street Food, Fast Food", "hours": "9:30am\u201311:30pm(Mon-Sun)", "Cost for two": "\u20b9150"}]