[{"Name": "24/7 Pastry Shop - The Lalit New Delhi", "Rating": "3.4", "votes": "56", "location": " The Lalit, Barakhamba Avenue, Barakhamba Road, New Delhi", "Cuisines: ": "Bakery, Desserts", "hours": "11am\u201311pm(Mon-Sun)", "Cost for two": "\u20b9900"}, {"Name": "Swagat Dhaba", "Rating": "3.4", "votes": "90", "location": " 5137, Main Bazaar, Paharganj, New Delhi", "Cuisines: ": "North Indian, South Indian", "hours": "10am\u201311:30pm(Mon-Sun)", "Cost for two": "\u20b9200"}, {"Name": "Rishi Vaishno Dhaba", "Rating": "3.5", "votes": "19", "location": " 5582/83, Basant Road, Paharganj, New Delhi", "Cuisines: ": "North Indian", "hours": "11:30am\u201310:30pm(Mon-Sun)", "Cost for two": "\u20b9300"}, {"Name": "Malhotra Restaurant", "Rating": "3.2", "votes": "38", "location": " 1833-34, Laxmi Narain Street, Chuna Mandi, Paharganj, New Delhi", "Cuisines: ": "North Indian, Chinese, Fast Food", "hours": "7am\u201311pm(Mon-Sun)", "Cost for two": "\u20b9700"}, {"Name": "Mehfil Dhaba", "Rating": "-", "votes": "38", "location": " Shop 101, Amrit Kaur Market, Paharganj, New Delhi", "Cuisines: ": "North Indian", "hours": "8am\u201311pm(Mon-Sun)", "Cost for two": "\u20b9400"}, {"Name": "Singhs Cafe & Restaurant", "Rating": "2.9", "votes": "12", "location": " 6, Tooti Chowk, Paharganj, New Delhi", "Cuisines: ": "North Indian, Chinese", "hours": "11am\u201311pm(Mon-Sun)", "Cost for two": "\u20b9300"}, {"Name": "The Hungerss", "Rating": "2.7", "votes": "24", "location": " 13, Gandhi Market, Mirdard Road, Barakhamba Road, New Delhi", "Cuisines: ": "Chinese, Fast Food, North Indian", "hours": "10am\u201310pm(Mon-Sat),11am\u201310pm(Sun)", "Cost for two": "\u20b9650"}, {"Name": "SumBerries", "Rating": "-", "votes": "24", "location": " Shop 7, Near Mother Diary, Safdar Hasmi Marg, Mandi House, New Delhi", "Cuisines: ": "Beverages, Sandwich", "hours": "9am\u20138:30pm(Mon-Sun)", "Cost for two": "\u20b9300"}, {"Name": "Aditya Hotel", "Rating": "-", "votes": "24", "location": " Shop 144, Rajkumari Amritkaur Market, Paharganj, New Delhi", "Cuisines: ": "North Indian, Chinese", "hours": "8am\u201312midnight(Mon-Sun)", "Cost for two": "\u20b9400"}, {"Name": "Mums Grace", "Rating": "3.2", "votes": "9", "location": " 25, Gandhi Market, Minto Roa, Barakhamba Road, New Delhi", "Cuisines: ": "North Indian", "hours": "9am\u201311pm(Mon-Sun)", "Cost for two": "\u20b9300"}, {"Name": "Shyam Ji Special Chole Bhature", "Rating": "3.0", "votes": "5", "location": " Shop 186, Amrit Kaur Market, Near New Delhi Railway Station, Paharganj, New Delhi", "Cuisines: ": "Street Food", "hours": "8am\u20135pm(Mon-Sun)", "Cost for two": "\u20b9100"}, {"Name": "Chacha Da Hotel", "Rating": "3.0", "votes": "4", "location": " 120, Amrit Kaur Market, Opposite New Delhi Railway Station Gate 4, Paharganj, New Delhi", "Cuisines: ": "North Indian, Mughlai", "hours": "9am\u201310pm(Mon-Sun)", "Cost for two": "\u20b9450"}, {"Name": "Wow Cafe", "Rating": "3.1", "votes": "15", "location": " 1085, Mandir Wali Gali, Near ICICI Bank ATM, Main Bazaar, Paharganj, New Delhi", "Cuisines: ": "North Indian, Chinese", "hours": "7am\u201311pm(Mon-Sun)", "Cost for two": "\u20b9350"}, {"Name": "Curries & Kababs", "Rating": "3.2", "votes": "46", "location": " Shop 42/43, NDMC Market, Barakhamba Road, New Delhi", "Cuisines: ": "North Indian, Fast Food, Rolls", "hours": "11am\u201311pm(Mon-Sun)", "Cost for two": "\u20b9750"}, {"Name": "Khosla Cafe", "Rating": "3.3", "votes": "26", "location": " 5024, Main Bazaar, Paharganj, New Delhi", "Cuisines: ": "North Indian", "hours": "9am\u201310pm(Mon-Sun)", "Cost for two": "\u20b9500"}]