[{"Name": "Baker's Dozen", "Rating": "3.7", "votes": "99", "location": " NR 27, Shop 2, Cross Road Complex, Near S Block, Nathupur, DLF Phase 3, Gurgaon", "Cuisines: ": "Bakery, Desserts", "hours": "10am\u201310pm(Mon,Wed,Thu,Fri,Sat,Sun),Closed...", "Cost for two": "\u20b9600"}, {"Name": "House of Candy", "Rating": "3.1", "votes": "5", "location": " Delivery Only", "Cuisines: ": "Desserts", "hours": "11am\u201310pm(Mon-Sun)", "Cost for two": "\u20b9300"}, {"Name": "Madan Sweets & Food Point", "Rating": "3.7", "votes": "247", "location": " 3rd, H-126, Rakesh Marg, Nehru Nagar, Ghaziabad", "Cuisines: ": "South Indian, North Indian, Mithai, Chinese", "hours": "8am\u201311pm(Mon-Sun)", "Cost for two": "\u20b9400"}, {"Name": "Shyam Rasoi", "Rating": "NEW", "votes": "247", "location": " F-3, 927, Sector 3F, Vaishali, Ghaziabad", "Cuisines: ": "North Indian", "hours": "11am\u201311pm(Mon-Sun)", "Cost for two": "\u20b9300"}, {"Name": "The Sugar Factory", "Rating": "3.7", "votes": "133", "location": " Shop 3, Near Hanuman Mandir, Near Sector 20, Sector 21, Gurgaon", "Cuisines: ": "Bakery, Desserts", "hours": "9am\u201310pm(Mon-Sun)", "Cost for two": "\u20b9250"}, {"Name": "Punjab Tadka", "Rating": "NEW", "votes": "133", "location": " House 486, T Block, Nathupur, Sector 24, DLF Phase 3, Gurgaon", "Cuisines: ": "Chinese", "hours": "9am\u20134am(Mon-Sun)", "Cost for two": "\u20b9400"}, {"Name": "Pappu Ka Dhaba", "Rating": "3.3", "votes": "41", "location": " 143, Shankar Road, Rajinder Nagar, New Delhi", "Cuisines: ": "North Indian", "hours": "11:30am\u20133:30pm,7:30pm\u201311pm(Mon-Sun)", "Cost for two": "\u20b9250"}, {"Name": "The White Biryani", "Rating": "3.3", "votes": "6", "location": " Shop 22, Ground Floor, Scottish Mall, Sector 48, Sohna Road, Gurgaon", "Cuisines: ": "Biryani, North Indian", "hours": "24Hours(Mon-Sun)", "Cost for two": "\u20b9750"}, {"Name": "The Real Pizza", "Rating": "3.1", "votes": "8", "location": " Gali 7, Jawahar Colony, NIT, Faridabad", "Cuisines: ": "Pizza, Fast Food", "hours": "10am\u201311pm(Mon-Sun)", "Cost for two": "\u20b9450"}, {"Name": "Chill Point Cakes & More", "Rating": "3.8", "votes": "100", "location": " 715 A, Pocket 2, Near Madipur Police Chowki, Paschim Puri, Paschim Vihar, New Delhi", "Cuisines: ": "Bakery, Chinese, Fast Food", "hours": "10am\u201311pm(Mon-Sun)", "Cost for two": "\u20b9250"}, {"Name": "The Grilling", "Rating": "-", "votes": "100", "location": " RZL-13, Bengali Colony, Mahavir Enclave, Palam Dabri Road, Palam, New Delhi", "Cuisines: ": "Continental, Desserts", "hours": "24Hours(Mon-Sun)", "Cost for two": "\u20b9500"}, {"Name": "Noodle Dream Restaurant", "Rating": "3.4", "votes": "31", "location": " H-2, Block-17, Vasundhara Road, Trilokpuri, Mayur Vihar Phase 1, New Delhi", "Cuisines: ": "Chinese, North Indian", "hours": "11am\u201311pm(Mon-Sun)", "Cost for two": "\u20b9300"}, {"Name": "Cold Monsters", "Rating": "3.8", "votes": "84", "location": " 153-B, Opposite Police Station, New Colony, Sector 7, Gurgaon", "Cuisines: ": "Fast Food, Beverages", "hours": "12:30pm\u201310:15pm(Mon-Sun)", "Cost for two": "\u20b9300"}, {"Name": "Coffee Cafe 9", "Rating": "3.8", "votes": "79", "location": " 143, Khirki Extension, Malviya Nagar, New Delhi", "Cuisines: ": "Cafe, Fast Food, Desserts", "hours": "9am\u201311pm(Mon-Sun)", "Cost for two": "\u20b9600"}, {"Name": "Uncle's Kitchen", "Rating": "3.5", "votes": "32", "location": " Shop 9, Lotus Panache, Fortune School Road, Sector 110, Noida", "Cuisines: ": "North Indian, Momos, Chinese", "hours": "11am\u201311pm(Mon-Sun)", "Cost for two": "\u20b9350"}]