[{"Name": "Radhey Radhey Pure Veg", "Rating": "3.1", "votes": "7", "location": " 13032, Tower 2, GH-7, Crossing Republik, Ghaziabad", "Cuisines: ": "North Indian", "hours": "8am\u20136am(Mon-Sun)", "Cost for two": "\u20b9250"}, {"Name": "Jai Maa Annapurna Bakery", "Rating": "3.7", "votes": "69", "location": " 63/11, Shivpuri, Old Railway Road, Gurgaon", "Cuisines: ": "Mithai, Fast Food", "hours": "6am\u201310pm(Mon-Sun)", "Cost for two": "\u20b9200"}, {"Name": "Youth Coffee Cafe", "Rating": "3.6", "votes": "172", "location": " 37-A, Pocket D2, Sunday Bazaar Road, Old Kondli, Unnamed Road, Mayur Vihar Phase 3, New Delhi", "Cuisines: ": "Fast Food, Italian, Beverages", "hours": "9am\u201310pm(Mon-Sat),9:30am\u201310pm(Sun)", "Cost for two": "\u20b9350"}, {"Name": "Italy In The Town", "Rating": "3.9", "votes": "134", "location": " C-3, Near Ram Mandir, Janakpuri, New Delhi", "Cuisines: ": "Italian, Fast Food, Beverages", "hours": "11am\u201311pm(Mon-Sun)", "Cost for two": "\u20b9300"}, {"Name": "Indian Rasoi", "Rating": "-", "votes": "134", "location": " Plot 209, Sarai, Sadarpur, Sector 45, Noida", "Cuisines: ": "North Indian, Mughlai", "hours": "11am\u201311pm(Mon-Sun)", "Cost for two": "\u20b9400"}, {"Name": "Thyme Pass Food", "Rating": "3.7", "votes": "26", "location": " Corner Shop, Village Hazipur, Opposite Chhavi Travels, Sector 104 Near Sector 110, Noida", "Cuisines: ": "North Indian, Fast Food", "hours": "6pm\u20132am(Mon-Sun)", "Cost for two": "\u20b9300"}, {"Name": "Modern Chicken Biryani", "Rating": "NEW", "votes": "26", "location": " House Db/899, 33 Feet Road, Near Masjid, Dabua Colony, NIT, Faridabad", "Cuisines: ": "Biryani", "hours": "11am\u201311pm(Mon-Sun)", "Cost for two": "\u20b9250"}, {"Name": "Changezi Corner", "Rating": "NEW", "votes": "26", "location": " V-23, Naveen Shahdara, Shahdara, New Delhi", "Cuisines: ": "North Indian, Mughlai, Chinese", "hours": "11:25am\u201311:30pm(Mon),12midnight\u20134am,4pm...", "Cost for two": "\u20b9300"}, {"Name": "Late Night Cravings", "Rating": "3.2", "votes": "11", "location": " C-276-A, Near Police Chowki, Raghubir Nagar, Rajouri Garden, New Delhi", "Cuisines: ": "North Indian, Fast Food", "hours": "8am\u201311pm(Mon-Sun)", "Cost for two": "\u20b9200"}, {"Name": "Meals At 99", "Rating": "-", "votes": "11", "location": " B 261, Division 2, First Floor, Gautam Buddha Nagar, Sigma 1, Greater Noida", "Cuisines: ": "North Indian, Chinese, Continental", "hours": "24Hours(Mon-Sun)", "Cost for two": "\u20b9200"}, {"Name": "Romi Da Dhaba", "Rating": "3.4", "votes": "206", "location": " Ground Floor 177, Sushant Vyapar Kendra, Sushant Lok 1, Sushant Lok, Gurgaon", "Cuisines: ": "North Indian, Chinese, Mughlai", "hours": "12noon\u20135pm,6pm\u201310:30pm(Mon-Sun)", "Cost for two": "\u20b9550"}, {"Name": "La Cuisine", "Rating": "3.2", "votes": "40", "location": " Shop 35, Sky Plaza, Sky Garden Society, Sector 6B, Near Gaur City 1, Greater Noida", "Cuisines: ": "Mughlai, Chinese, North Indian, South Indian", "hours": "11am\u201311pm(Mon-Sun)", "Cost for two": "\u20b9500"}, {"Name": "Red Mango", "Rating": "4.1", "votes": "337", "location": " Level 2, Ambience Mall, Vasant Kunj, New Delhi", "Cuisines: ": "Cafe", "hours": "9am\u201312midnight(Mon-Sun)", "Cost for two": "\u20b9600"}, {"Name": "Bites By Wai Wai", "Rating": "3.5", "votes": "16", "location": " 29, Hauz Khas Village, New Delhi", "Cuisines: ": "Asian, Thai", "hours": "12:30pm\u20131am(Mon-Sun)", "Cost for two": "\u20b9300"}, {"Name": "Cafe Twist", "Rating": "3.5", "votes": "91", "location": " 1092/1, Ground Floor, Main Bus Terminal, Mehrauli, New Delhi", "Cuisines: ": "Pizza, Chinese, Fast Food", "hours": "11am\u201311pm(Mon-Sun)", "Cost for two": "\u20b9350"}]