[{"Name": "Urban Dhaba", "Rating": "3.8", "votes": "342", "location": " 15, District Shopping Center, Sector 56, Gurgaon", "Cuisines: ": "North Indian", "hours": "12noon\u201311pm(Mon-Sun)", "Cost for two": "\u20b9600"}, {"Name": "Shri Shyam Food Point", "Rating": "NEW", "votes": "342", "location": " E 6, Jawahar Park, Laxmi Nagar, New Delhi", "Cuisines: ": "Fast Food, Chinese, North Indian", "hours": "8am\u201311pm(Mon-Sun)", "Cost for two": "\u20b9250"}, {"Name": "Paatra - Jaypee Vasant Continental", "Rating": "3.8", "votes": "105", "location": " Jaypee Vasant Continental, Vasant Vihar, New Delhi", "Cuisines: ": "North Indian, Mughlai", "hours": "12noon\u20133pm,7:30pm\u201312midnight(Mon-Sun)", "Cost for two": "\u20b92,500"}, {"Name": "Bajrangi Rasoi", "Rating": "3.4", "votes": "12", "location": " 2755, Gali Ram Roop Sabzi Mandi, Malka Ganj, Near Kamla Nagar, New Delhi", "Cuisines: ": "Fast Food, North Indian", "hours": "7am\u201312noon,8pm\u20132am(Mon-Sun)", "Cost for two": "\u20b9200"}, {"Name": "Deepak Bakery", "Rating": "-", "votes": "12", "location": " Shop 2, Block C-16, Sanwal Nagar, Siri Fort Road, New Delhi", "Cuisines: ": "Bakery, Fast Food", "hours": "10am\u201310pm(Mon-Sun)", "Cost for two": "\u20b9200"}, {"Name": "Cafe Down Town", "Rating": "3.7", "votes": "58", "location": " Champa Street, Khassra 258, Street 3, Western Marg, Saidulajab, Saket, New Delhi", "Cuisines: ": "Cafe, Fast Food, Sandwich, Chinese", "hours": "7:30am\u20132am(Mon-Sun)", "Cost for two": "\u20b9500"}, {"Name": "Kaka's Food Point", "Rating": "-", "votes": "58", "location": " House 260, Block E2, Ashok Vihar Phase 1, New Delhi", "Cuisines: ": "Rolls", "hours": "4pm\u201311pm(Mon-Sun)", "Cost for two": "\u20b9200"}, {"Name": "Lala Ji Ke Samose", "Rating": "3.3", "votes": "23", "location": " H 1/9, Sector 16, Rohini, New Delhi", "Cuisines: ": "Street Food", "hours": "8am\u20139pm(Mon-Fri),7:30am\u20139pm(Sat-Sun)", "Cost for two": "\u20b9100"}, {"Name": "Breakfast 7-11", "Rating": "3.9", "votes": "288", "location": " 161, Sapphire Mall, Sector 49, Gurgaon", "Cuisines: ": "North Indian, Continental, South Indian", "hours": "7am\u201311pm(Mon-Sun)", "Cost for two": "\u20b9400"}, {"Name": "OFF the Leash' - A Dog Park & Cafe", "Rating": "3.4", "votes": "14", "location": " Behrampur, Sector 59, Near Sohna Road, Gurgaon", "Cuisines: ": "Cafe", "hours": "7:30am\u201311am,5pm\u20137:30pm(Mon-Sun)", "Cost for two": "\u20b9400"}, {"Name": "Burger Ji", "Rating": "3.9", "votes": "240", "location": " Holi Ground, Near Vegetable Market, Sadar Bazar, Gurgoan", "Cuisines: ": "Burger, Fast Food", "hours": "10am\u201310pm(Mon-Sun)", "Cost for two": "\u20b9400"}, {"Name": "Burger House", "Rating": "NEW", "votes": "240", "location": " B5/148, Ground Floor, Sector-7, Rohini, New Delhi", "Cuisines: ": "Italian, Fast Food, Beverages", "hours": "4pm\u20134am(Mon-Sun)", "Cost for two": "\u20b9300"}, {"Name": "The Pakwaan Tales", "Rating": "3.5", "votes": "26", "location": " A-804, Parsavnath Green Ville, Sector 48, Near Omaxe Gurgaon Mall, Sohna Road, Gurgaon", "Cuisines: ": "Healthy Food, North Indian", "hours": "12noon\u20133:30pm,7pm\u20138:30pm(Mon-Sun)", "Cost for two": "\u20b9500"}, {"Name": "Rice In A Bowl", "Rating": "4.3", "votes": "26", "location": " Shop 27/11, Basement, Nathupur, DLF Phase 3, Gurgaon", "Cuisines: ": "North Indian", "hours": "11am\u201311pm(Mon-Sun)", "Cost for two": "\u20b9250"}, {"Name": "Iroha", "Rating": "3.9", "votes": "73", "location": " 144-146, Ground Floor, Vyapar Kendra, Phase 1, Sushant Lok, Gurgaon", "Cuisines: ": "Bakery, Fast Food", "hours": "11am\u20138pm(Mon-Sun)", "Cost for two": "\u20b9400"}]