[{"Name": "Kit n Bite", "Rating": "3.4", "votes": "26", "location": " Shop 6, 1st Floor, Sharma Market, Sector 53, Noida", "Cuisines: ": "North Indian", "hours": "11am\u20134pm,7pm\u201311pm(Mon-Sun)", "Cost for two": "\u20b9400"}, {"Name": "Big Bee The Cake Shop", "Rating": "NEW", "votes": "26", "location": " F 2/214, Sector 16, Near ESI Hospital, Rohini, New Delhi", "Cuisines: ": "Bakery, Desserts, Fast Food", "hours": "11am\u201310pm(Mon-Sun)", "Cost for two": "\u20b9250"}, {"Name": "The Pizza Pan Brothers", "Rating": "3.3", "votes": "11", "location": " 28/80, Kasturba Nagar, New Gurudwara, Shahdara, Delhi", "Cuisines: ": "Fast Food, Beverages, Chinese", "hours": "11am\u20134am(Mon-Sun)", "Cost for two": "\u20b9200"}, {"Name": "Raja Dhaba", "Rating": "2.7", "votes": "348", "location": " Jagat Farm, Gamma 1, Gautam Budh Nagar, Greater Noida, Noida", "Cuisines: ": "North Indian", "hours": "11am\u201311pm(Mon-Sun)", "Cost for two": "\u20b9500"}, {"Name": "Arpit Bakery", "Rating": "3.7", "votes": "48", "location": " C 8/254, Yamuna Vihar, Shahdara, New Delhi", "Cuisines: ": "Bakery", "hours": "10:30am\u201310:30pm(Mon-Sun)", "Cost for two": "\u20b9300"}, {"Name": "Sethi's Restaurant & Barbeque", "Rating": "4.0", "votes": "893", "location": " 4-8-9, J Block, DDA Market, Community Centre, Rajouri Garden, New Delhi", "Cuisines: ": "North Indian, Chinese, BBQ, Mughlai", "hours": "11am\u201311:30pm(Mon-Sun)", "Cost for two": "\u20b9700"}, {"Name": "Gauri Khana Khazana", "Rating": "3.7", "votes": "78", "location": " Shop 5, DDA Market, Mansarover Park, Near Community Center, Shahdara, New Delhi", "Cuisines: ": "North Indian, South Indian, Chinese", "hours": "10am\u201311pm(Mon-Sun)", "Cost for two": "\u20b9450"}, {"Name": "What A Bite", "Rating": "3.1", "votes": "5", "location": " Shop 57, Ground Floor, KB Complex, Alpha 2, Greater Noida", "Cuisines: ": "Fast Food", "hours": "11am\u201311pm(Mon-Sun)", "Cost for two": "\u20b9250"}, {"Name": "Spicy Patola", "Rating": "4.0", "votes": "883", "location": " SCO 33, 1st Floor, Huda Market, Sector 31, Gurgaon", "Cuisines: ": "North Indian, Chinese", "hours": "12noon\u201311:30pm(Mon-Sun)", "Cost for two": "\u20b9700"}, {"Name": "Chilis Treat", "Rating": "3.4", "votes": "247", "location": " 1624/1, Thana Road, Opposite Oriental Bank Of Commerce, Najafgarh, New Delhi", "Cuisines: ": "North Indian, Chinese", "hours": "11am\u201310:30pm(Mon-Sun)", "Cost for two": "\u20b9500"}, {"Name": "Burger Station", "Rating": "3.3", "votes": "16", "location": " Shop 3, B5/148, Sector 7, Rohini, New Delhi", "Cuisines: ": "Fast Food, Italian, Beverages", "hours": "4pm\u20134am(Mon-Sun)", "Cost for two": "\u20b9200"}, {"Name": "Manjeet Chicken Centre", "Rating": "3.7", "votes": "112", "location": " A-12/13, Ground Floor, Ansal Building, Commercial Complex, Near Batra Cinema, Mukherjee Nagar, New Delhi", "Cuisines: ": "North Indian", "hours": "6pm\u201311pm(Mon,Wed,Thu,Fri,Sat,Sun),Closed...", "Cost for two": "\u20b9650"}, {"Name": "Desi Chulha", "Rating": "3.6", "votes": "165", "location": " 193 Main Road, Shashi Garden, Mayur Vihar Phase 1, New Delhi", "Cuisines: ": "North Indian, Chinese", "hours": "12noon\u201311pm(Mon-Sun)", "Cost for two": "\u20b9400"}, {"Name": "Rupa Tikki Wala", "Rating": "3.7", "votes": "48", "location": " Sohna Chowk, Bara Bazaar, Old Railway Road, Gurgaon", "Cuisines: ": "Street Food", "hours": "1pm\u201310pm(Mon-Sun)", "Cost for two": "\u20b9100"}, {"Name": "The Grilled Sandwich", "Rating": "3.4", "votes": "31", "location": " Shop 2, Plot 7, Shivpuri, Geeta Colony, New Delhi", "Cuisines: ": "Fast Food", "hours": "2pm\u201311:30pm(Mon,Wed,Thu,Fri,Sat,Sun)...", "Cost for two": "\u20b9250"}]