[{"Name": "Icylicious", "Rating": "3.3", "votes": "10", "location": " 1979, Paranthe Wali Gali, Chandni Chowk, Delhi NCR", "Cuisines: ": "Desserts, Ice Cream", "hours": "11:30am\u201310:30pm(Mon-Sun)", "Cost for two": "\u20b9150"}, {"Name": "Ayush Chole Wala", "Rating": "3.8", "votes": "24", "location": " Parathe Wali Gali, Chandni Chowk, New Delhi", "Cuisines: ": "Street Food", "hours": "12noon\u20134:30pm(Mon-Sun)", "Cost for two": "\u20b9100"}, {"Name": "Shri Sai Bhawan", "Rating": "-", "votes": "24", "location": " 5/3, WEA, Karol Bagh, New Delhi", "Cuisines: ": "South Indian, North Indian, Chinese", "hours": "7am\u201311pm(Mon-Sun)", "Cost for two": "\u20b9550"}, {"Name": "Biryani Imperial", "Rating": "-", "votes": "24", "location": " 7842, 2nd Floor, Model Basti, Bara Hindurao, Near Filmistan Cinema Hall, Chandni Chowk, New Delhi", "Cuisines: ": "Biryani", "hours": "11am\u201311pm(Mon-Sun)", "Cost for two": "\u20b9300"}, {"Name": "Singh Chicken", "Rating": "3.4", "votes": "16", "location": " Shop 1169, Bahadurgarh Road, Sadar Bazar, Chandni Chowk, New Delhi", "Cuisines: ": "North Indian, Chinese, Fast Food", "hours": "11am\u201311pm(Mon-Sun)", "Cost for two": "\u20b9400"}, {"Name": "OCD - Online Cake Delivery", "Rating": "3.7", "votes": "64", "location": " Delivery Only", "Cuisines: ": "Bakery", "hours": "10am\u201310pm(Mon-Fri),10am\u20139:30pm(Sat-Sun)", "Cost for two": "\u20b9300"}, {"Name": "Chef's Kitchen", "Rating": "3.5", "votes": "38", "location": " 6A/2 WEA, Opposite Hanuman Mandir, Near Karol Bagh, New Delhi", "Cuisines: ": "Fast Food, North Indian", "hours": "11am\u20134am(Mon-Sun)", "Cost for two": "\u20b9350"}, {"Name": "Perfect Foods", "Rating": "-", "votes": "38", "location": " 1740-B, 3rd Floor, Gali 55-56, Near Karol Bagh Gurudawara, Karol Bagh, New Delhi", "Cuisines: ": "North Indian", "hours": "8am\u201311am,12noon\u20134pm,7pm\u201311pm(Mon-Sun)", "Cost for two": "\u20b9300"}, {"Name": "Umdaah", "Rating": "-", "votes": "38", "location": " 17/2868, First Floor, Beadonpura, Karol Bagh, New Delhi", "Cuisines: ": "Biryani, North Indian", "hours": "11am\u20134am(Mon-Sun)", "Cost for two": "\u20b9600"}, {"Name": "Comboz", "Rating": "-", "votes": "38", "location": " 5/39, Saraswati Marg Wea, Karol Bagh, New Delhi", "Cuisines: ": "Chinese", "hours": "12noon\u201310:30pm(Mon-Sun)", "Cost for two": "\u20b9500"}, {"Name": "Shri Savariya Ji Golgappe Wale", "Rating": "3.2", "votes": "8", "location": " 2558, Chuna Mandi, Pandara Road Market, New Delhi", "Cuisines: ": "Street Food", "hours": "11am\u201311pm(Mon-Sun)", "Cost for two": "\u20b9100"}, {"Name": "Amritsari Tandoori Junction", "Rating": "-", "votes": "8", "location": " Shop 3081, Chuna Mandi, Karol Bagh, New Delhi", "Cuisines: ": "North Indian", "hours": "11am\u201311pm(Mon-Sun)", "Cost for two": "\u20b9300"}, {"Name": "Muglai Invitation Caterers", "Rating": "-", "votes": "8", "location": " 3917, Ground Floor, Near Kasturba Hospital, Jama Masjid, New Delhi", "Cuisines: ": "Mughlai, North Indian", "hours": "11am\u201311pm(Mon-Sun)", "Cost for two": "\u20b9550"}, {"Name": "Samaira's Kitchen", "Rating": "3.3", "votes": "9", "location": " Shop 1946, HC Sen Marg, Chhippy Wada, Chandni Chowk, New Delhi", "Cuisines: ": "North Indian", "hours": "7am\u20136pm(Mon-Sun)", "Cost for two": "\u20b9100"}, {"Name": "Tasty Club", "Rating": "-", "votes": "9", "location": " 3081, Kucha Pandit Laal Kuan, Chandni Chowk, New Delhi", "Cuisines: ": "North Indian", "hours": "10am\u20133pm,7pm\u201310pm(Mon-Sun)", "Cost for two": "\u20b9300"}]