[{"Name": "Divine Shakes", "Rating": "3.3", "votes": "10", "location": " Shop 9 B 5 Block, DDA Market, Shahdara, Delhi", "Cuisines: ": "Beverages", "hours": "12noon\u201310pm(Mon-Sun)", "Cost for two": "\u20b9250"}, {"Name": "Fry Guys", "Rating": "3.4", "votes": "30", "location": " Plot 8, Central Mart, Golf City, Gardenia Gateway, Sector 75, Near Sector 72, Noida", "Cuisines: ": "Pizza, Chinese, Fast Food", "hours": "11am\u201312midnight(Mon-Sun)", "Cost for two": "\u20b9500"}, {"Name": "House of Lebanese", "Rating": "3.5", "votes": "48", "location": " Plot 2, D Block, Opposite Makrand Kirana Store, Hoshiyarpur, Sector 51 Noida", "Cuisines: ": "Lebanese", "hours": "11am\u20132am(Mon-Sun)", "Cost for two": "\u20b9500"}, {"Name": "Thali Delight", "Rating": "-", "votes": "48", "location": " D/12, 1st Floor, Dharam Veer Market, Near Paramount Vali Gali, Badarpur Border, Faridabad", "Cuisines: ": "North Indian", "hours": "11am\u201311pm(Mon-Sun)", "Cost for two": "\u20b9300"}, {"Name": "Samossay", "Rating": "4.0", "votes": "47", "location": " Unit 6A-6B, Welldone Tech Park, Sector 48, Sohna Road, Gurgaon", "Cuisines: ": "Street Food, Fast Food, Beverages", "hours": "11am\u201310:30pm(Mon-Sun)", "Cost for two": "\u20b9350"}, {"Name": "Zaika Tandoori Dil Se", "Rating": "2.8", "votes": "4", "location": " Delivery Only", "Cuisines: ": "North Indian, Fast Food", "hours": "11am\u201310pm(Mon-Sun)", "Cost for two": "\u20b9300"}, {"Name": "Bhukkad.Me", "Rating": "3.6", "votes": "37", "location": " Chhatarpur, New Delhi", "Cuisines: ": "North Indian, Chinese", "hours": "11am\u201311pm(Mon-Sun)", "Cost for two": "\u20b9500"}, {"Name": "The World Kitchen", "Rating": "3.1", "votes": "6", "location": " U 59/20, U Block, DLF Phase 3, Gurgaon", "Cuisines: ": "Chinese", "hours": "11am\u201311pm(Mon-Sun)", "Cost for two": "\u20b9300"}, {"Name": "Manorama Tiffin Service", "Rating": "3.1", "votes": "6", "location": " WZ-C5, 2nd Floor, Anand Vihar, Between Holy Convent School And Khera Park, Uttam Nagar, New Delhi", "Cuisines: ": "North Indian", "hours": "11am\u201311pm(Mon-Sun)", "Cost for two": "\u20b9300"}, {"Name": "Asia Alive - DoubleTree by Hilton", "Rating": "3.8", "votes": "228", "location": " DoubleTree by Hilton, Sector 56, Gurgaon", "Cuisines: ": "Malaysian, Thai, Indonesian, Chinese, North Indian", "hours": "6:30am\u201310:30am,12:30pm\u20133pm,7pm\u201311:30pm...", "Cost for two": "\u20b93,000"}, {"Name": "Deli Belly", "Rating": "3.6", "votes": "148", "location": " Shop 31, Ground Floor, DLF Tower B, Jasola, New Delhi", "Cuisines: ": "North Indian, Italian, Continental", "hours": "11:30am\u201312midnight(Mon-Sun)", "Cost for two": "\u20b91,000"}, {"Name": "Urban Hub", "Rating": "3.7", "votes": "451", "location": " 1st Floor, 4/2, Opposite Raymond Showroom, Roop Nagar, Near Kamla Nagar, New Delhi", "Cuisines: ": "Chinese, North Indian, Italian, Fast Food", "hours": "11am\u20131am(Mon-Sun)", "Cost for two": "\u20b91,900"}, {"Name": "Veggie Junction", "Rating": "-", "votes": "451", "location": " Shop 6, Block M, Sector 12, Pratap Vihar, Ghaziabad", "Cuisines: ": "Fast Food, Chinese", "hours": "10am\u201311:30pm(Mon-Sun)", "Cost for two": "\u20b9500"}, {"Name": "Minnie's Kitchen", "Rating": "3.5", "votes": "39", "location": " B 210, Ground Floor, JMD Market, Greenfields, Sector 41, Faridabad", "Cuisines: ": "North Indian, Chinese, Continental, Rolls, Beverages", "hours": "12noon\u201311pm(Mon-Sun)", "Cost for two": "\u20b9250"}, {"Name": "Detox", "Rating": "-", "votes": "39", "location": " House 62, Masood Pur Dairy, Vasant Kunj, New Delhi", "Cuisines: ": "Healthy Food, Beverages", "hours": "8am\u20139:30pm(Mon-Sun)", "Cost for two": "\u20b9450"}]