[{"Name": "Kitchen Ladder", "Rating": "3.2", "votes": "6", "location": " Shop G2, Plot 8, Pankaj Galaxy 1, LSC, Sector 12, Dwarka, New Delhi", "Cuisines: ": "North Indian", "hours": "4pm\u201311pm(Mon-Sun)", "Cost for two": "\u20b9400"}, {"Name": "Baro Masi", "Rating": "3.7", "votes": "57", "location": " Shop 404, Near Moulsari Avenue Metro Station, DLF Phase 3, Gurgaon", "Cuisines: ": "Chinese, Mughlai, North Indian", "hours": "12midnight\u20133:30am,12:30pm\u201312midnight...", "Cost for two": "\u20b91,200"}, {"Name": "Cake Gems Bakery", "Rating": "3.1", "votes": "15", "location": " Shop 4, U9/25, Near Rapid Metro Station, DLF Phase 3, Gurgaon", "Cuisines: ": "Bakery", "hours": "11am\u201310pm(Mon-Sun)", "Cost for two": "\u20b9200"}, {"Name": "Just Punjabi", "Rating": "3.7", "votes": "634", "location": " Shop 27, Windsor Street, Indirapurum Ghaziabad", "Cuisines: ": "North Indian, Chinese", "hours": "12midnight\u20131am,11am\u201312midnight(Mon,Sun)...", "Cost for two": "\u20b9450"}, {"Name": "Unique Tasty Bites", "Rating": "3.6", "votes": "68", "location": " 58-R, New Colony, Sector 7, Gurgaon", "Cuisines: ": "Chinese", "hours": "5pm\u201311pm(Mon-Sun)", "Cost for two": "\u20b9300"}, {"Name": "I' M Vada Pav", "Rating": "3.0", "votes": "5", "location": " Innovative Legend Heights, Rampura Chowk, Naurangpur Road, Sector 80, Near Sector 83, Gurgaon", "Cuisines: ": "Street Food, Beverages", "hours": "9:30am\u20139pm(Mon-Sun)", "Cost for two": "\u20b9350"}, {"Name": "Advance Bakery", "Rating": "3.8", "votes": "85", "location": " A-8, Shivpuri, Krishna Nagar, New Delhi", "Cuisines: ": "Bakery, Fast Food, Street Food", "hours": "11am\u20139pm(Mon-Sun)", "Cost for two": "\u20b9250"}, {"Name": "Biryani Hive", "Rating": "3.6", "votes": "151", "location": " Shop 1, 1st Floor, Gopalji Mart, Near Jaypee Hospital, Sector 128, Near Sector 132, Noida", "Cuisines: ": "Biryani, North Indian", "hours": "11am\u201311pm(Mon,Wed,Thu,Fri,Sat,Sun),Closed...", "Cost for two": "\u20b9500"}, {"Name": "The MAGIK Kitchen", "Rating": "3.5", "votes": "51", "location": " H-1A/ 29, Lower Ground Floor, Sector 63, Noida", "Cuisines: ": "North Indian, Mughlai, Chinese", "hours": "11am\u201311pm(Mon-Sun)", "Cost for two": "\u20b9700"}, {"Name": "Paratha Craving", "Rating": "3.9", "votes": "32", "location": " C 1/95, Sector 16, Near Sardar Colony, Rohini, New Delhi", "Cuisines: ": "North Indian", "hours": "24Hours(Mon-Sun)", "Cost for two": "\u20b9100"}, {"Name": "Peppy Pizza Market", "Rating": "3.7", "votes": "205", "location": " C-31, Milap Nagar, Opposite Bank Of Baroda, Uttam Nagar, New Delhi", "Cuisines: ": "Fast Food, Pizza", "hours": "11am\u201311pm(Mon-Sun)", "Cost for two": "\u20b9300"}, {"Name": "Punjab Da Puttar", "Rating": "3.6", "votes": "39", "location": " Shop 21, Amrapali Princely Estate Market, Sector 76, Near Sector 72, Noida", "Cuisines: ": "North Indian, Fast Food, Chinese", "hours": "6pm\u201312midnight(Mon-Sun)", "Cost for two": "\u20b9400"}, {"Name": "Chawla's Kitchen", "Rating": "3.0", "votes": "7", "location": " GT 27, Near B Block, Sector 70, Near Sector 71, Noida", "Cuisines: ": "North Indian", "hours": "6pm\u20134am(Mon-Sun)", "Cost for two": "\u20b9600"}, {"Name": "Sugar Whisk", "Rating": "NEW", "votes": "7", "location": " L-28/7, Near Heritage City, DLF Phase 2, Gurgaon", "Cuisines: ": "Bakery", "hours": "10am\u20138pm(Mon-Sun)", "Cost for two": "\u20b9200"}, {"Name": "Santushti Vegetarian Restaurant", "Rating": "3.8", "votes": "224", "location": " 21, L Block Market, Behind Metro Hospital, Sector 11, Noida", "Cuisines: ": "South Indian, North Indian, Chinese", "hours": "11am\u201310:45pm(Mon-Sun)", "Cost for two": "\u20b9400"}]