[{"Name": "Da Flirty Pizza", "Rating": "4.4", "votes": "176", "location": " C-99B, Top Floor, Panchsheel Vihar, Malviya Nagar, New Delhi", "Cuisines: ": "Pizza, Fast Food", "hours": "24Hours(Mon-Sun)", "Cost for two": "\u20b9450"}, {"Name": "Darjeeling Fast Food", "Rating": "3.8", "votes": "86", "location": " FCA 1450, Block-C 33, Foot Road, Patel Chowk, S.G.M Nagar, NIT, Faridabad", "Cuisines: ": "Chinese", "hours": "24Hours(Mon-Sun)", "Cost for two": "\u20b9150"}, {"Name": "Quality Food Point", "Rating": "3.7", "votes": "64", "location": " Shop 11, DLF Towers, Shivaji Marg, Moti Nagar, New Delhi", "Cuisines: ": "Chinese, Fast Food", "hours": "10am\u201310pm(Mon-Sun)", "Cost for two": "\u20b9500"}, {"Name": "Pizza 99", "Rating": "NEW", "votes": "64", "location": " Chhijarsi, Noida City Zone-1, Sector 63, Noida", "Cuisines: ": "Pizza, Fast Food", "hours": "11am\u201310pm(Mon-Sun)", "Cost for two": "\u20b9400"}, {"Name": "Cake 24*7 Free Home Delivery", "Rating": "3.7", "votes": "111", "location": " B-25, Rama Park Road, Uttam Nagar, New Delhi", "Cuisines: ": "Desserts", "hours": "24Hours(Mon-Sun)", "Cost for two": "\u20b9300"}, {"Name": "Popkultcha", "Rating": "4.2", "votes": "208", "location": " Under Ground Floor 03, Ground Floor, Sushant Plaza, A Block, Sushant Lok 1, Sushant Lok, Gurgaon", "Cuisines: ": "North Indian, Chinese", "hours": "12noon\u201311pm(Mon-Sun)", "Cost for two": "\u20b9600"}, {"Name": "Saffron Biryani", "Rating": "4.1", "votes": "252", "location": " Shop 02, Opposite Rapid Metro Pillar 174, Sector 54, Gurgaon", "Cuisines: ": "Biryani, Kebab", "hours": "11am\u201311pm(Mon,Tue,Wed,Thu,Sun),11am\u2013...", "Cost for two": "\u20b9300"}, {"Name": "The Egg Company", "Rating": "4.2", "votes": "170", "location": " Shop 30, Ground Floor, Flavour Town, Bestech Chambers, Block B1, Sushant Lok, Gurgaon", "Cuisines: ": "American, Continental, Fast Food, Beverages", "hours": "8am\u201310:30pm(Mon-Sun)", "Cost for two": "\u20b9700"}, {"Name": "Bhookh", "Rating": "3.7", "votes": "119", "location": " Shop 44, K.B Complex, Alpha 2, Greater Noida", "Cuisines: ": "North Indian, Chinese, Rolls, Fast Food", "hours": "11am\u201311pm(Mon-Sun)", "Cost for two": "\u20b9300"}, {"Name": "Hunger's Pizza", "Rating": "3.9", "votes": "170", "location": " Plot 587, Near Max Hospital, Sector 1, Vaishali, Ghaziabad", "Cuisines: ": "Pizza, Fast Food", "hours": "11am\u201310:30pm(Mon-Sun)", "Cost for two": "\u20b9500"}, {"Name": "Kukkad Nukkad", "Rating": "3.8", "votes": "70", "location": " Shop 106, 1st Floor, Near New Fruit and Vegetable Market, Sector 16, Faridabad", "Cuisines: ": "North Indian, Chinese", "hours": "12noon\u201312midnight(Mon-Sun)", "Cost for two": "\u20b9600"}, {"Name": "NutrioBox", "Rating": "4.3", "votes": "82", "location": " B 30, B Block, Community Centre, Janakpuri, New Delhi", "Cuisines: ": "Continental, Healthy Food, Sandwich", "hours": "8:30am\u201311:30pm(Mon-Sun)", "Cost for two": "\u20b9500"}, {"Name": "Your's Pizza", "Rating": "4.0", "votes": "1045", "location": " RK/C6, Pintu Tyagi Marg, Raj Nagar, Ghaziabad", "Cuisines: ": "Pizza, Fast Food", "hours": "11:30am\u201311pm(Mon-Sun)", "Cost for two": "\u20b9500"}, {"Name": "Bbq 16", "Rating": "4.4", "votes": "90", "location": " A-13, G.T Road, Near Adarsh Nagar Metro Station, Gate 1, Azadpur, New Delhi", "Cuisines: ": "North Indian", "hours": "11am\u201311pm(Mon-Sun)", "Cost for two": "\u20b9500"}, {"Name": "The Hinterland", "Rating": "4.0", "votes": "362", "location": " Shop-18, 3rd Floor, Satya Niketan, Satyaniketan, New Delhi", "Cuisines: ": "Cafe, Chinese, Continental", "hours": "11am\u201311pm(Mon-Sun)", "Cost for two": "\u20b9700"}]