[{"Name": "Rai Ji Caterers", "Rating": "3.2", "votes": "31", "location": " F-681, Subhash Market Mother Dairy, Kotla Mubarakpur, South Extension 1, New Delhi", "Cuisines: ": "North Indian", "hours": "9am\u201312midnight(Mon-Sun)", "Cost for two": "\u20b9400"}, {"Name": "Gangey Cake Shop", "Rating": "3.6", "votes": "51", "location": " Village Shahdra, Sector 141 Noida, Near Sector 132, Noida", "Cuisines: ": "Bakery", "hours": "10am\u20131am(Mon-Sun)", "Cost for two": "\u20b9400"}, {"Name": "Gupta's Restaurant", "Rating": "3.7", "votes": "153", "location": " E-27, Main Market New, South Extension 2, New Delhi", "Cuisines: ": "North Indian", "hours": "11am\u201311pm(Mon-Sun)", "Cost for two": "\u20b9600"}, {"Name": "Hung's Chinese Fast Food", "Rating": "3.7", "votes": "33", "location": " 3/4, K-1, Kalkaji, New Delhi", "Cuisines: ": "Chinese, North Indian", "hours": "11am\u201310pm(Mon-Sun)", "Cost for two": "\u20b9450"}, {"Name": "Shri Balaji Restaurant", "Rating": "3.8", "votes": "115", "location": " 1873, Main Road, Shanti Nagar, Tri Nagar, Lawrence Road, New Delhi", "Cuisines: ": "North Indian", "hours": "9am\u201310pm(Mon-Sun)", "Cost for two": "\u20b9400"}, {"Name": "Rolls N Burgers Villa", "Rating": "3.2", "votes": "8", "location": " Plot C-2318, C Block, Sector 43, Near Gold Souk Mall, Phase 1, Sushant Lok, Gurgaon", "Cuisines: ": "Rolls, Burger, Beverages", "hours": "9am\u20134am(Mon-Sun)", "Cost for two": "\u20b9250"}, {"Name": "Ego", "Rating": "3.9", "votes": "69", "location": " Shop 14, Ground Floor, Omaxe Square, Jasola, New Delhi", "Cuisines: ": "Continental, Italian, Desserts", "hours": "10am\u20138pm(Mon-Sat),Closed(Sun)", "Cost for two": "\u20b9800"}, {"Name": "Ambersari Dhaba", "Rating": "3.8", "votes": "140", "location": " C-125, Near Flyover Market, Lajpat Nagar 1, New Delhi", "Cuisines: ": "North Indian", "hours": "9am\u20134pm,8pm\u201310pm(Mon,Wed,Thu,Fri,Sat...", "Cost for two": "\u20b9450"}, {"Name": "South Indian Delicacy", "Rating": "3.5", "votes": "29", "location": " Shop 403, 4th Floor, Aarza Square 1, Near Gaur City 1, Greater Noida", "Cuisines: ": "South Indian", "hours": "8am\u20132pm,6pm\u201310:30pm(Mon,Tue,Thu,Fri...", "Cost for two": "\u20b9200"}, {"Name": "Orange Chopsticks", "Rating": "3.8", "votes": "333", "location": " Unitech Infospace, Sector 21, Gurgaon", "Cuisines: ": "Chinese, Thai, Asian, Momos", "hours": "12noon\u201311pm(Mon-Fri),12noon\u20135pm...", "Cost for two": "\u20b91,300"}, {"Name": "Mom's Magic", "Rating": "3.7", "votes": "38", "location": " Delivery Only", "Cuisines: ": "North Indian", "hours": "10am\u201311pm(Mon-Sun)", "Cost for two": "\u20b9300"}, {"Name": "Maa Bhagwati Tiffins", "Rating": "4.0", "votes": "139", "location": " Subhash Nagar, Sector 12, Gurgaon                ", "Cuisines: ": "North Indian", "hours": "7am\u201310pm(Mon-Sun)", "Cost for two": "\u20b9200"}, {"Name": "Singh\u2019s Street", "Rating": "3.1", "votes": "4", "location": " G 30, Western Mall, Janakpuri, New Delhi", "Cuisines: ": "North Indian", "hours": "11am\u201311pm(Mon-Sun)", "Cost for two": "\u20b9300"}, {"Name": "Beanbucks Cafe", "Rating": "3.4", "votes": "13", "location": " Shop Unit 211, 2nd Floor Tower B, Sas Tower, Sector 33, Gurgaon", "Cuisines: ": "Cafe, North Indian, Fast Food, Chinese", "hours": "11am\u20139pm(Mon-Sat),Closed(Sun)", "Cost for two": "\u20b9400"}, {"Name": "The Last Box", "Rating": "3.6", "votes": "92", "location": " Sector 54 Chowk, Golf Course Road, Gurgaon", "Cuisines: ": "Continental, North Indian, Chinese", "hours": "12noon\u201312midnight(Mon-Sun)", "Cost for two": "\u20b91,000", "Featured in: ": "BYOB Restaurants"}]