[{"Name": "Riyaz Chicken Corner", "Rating": "2.9", "votes": "4", "location": " Shop A-1, Pocket A-3, Mayur Vihar Phase 3, New Delhi", "Cuisines: ": "North Indian, Biryani", "hours": "11am\u201311pm(Mon-Sun)", "Cost for two": "\u20b9350"}, {"Name": "Alishaan Chicken Restaurant", "Rating": "3.0", "votes": "4", "location": " B6, Ghaziabad Road, Roop Nagar, Near Chanrkhamba, Loni, Ghaziabad", "Cuisines: ": "North Indian", "hours": "1pm\u201311pm(Mon-Sun)", "Cost for two": "\u20b9300"}, {"Name": "Qamar Mughlai Restaurant", "Rating": "3.4", "votes": "13", "location": " Shop SFK 1, Galaxy Plaza, Gaur City 1, Greater Noida", "Cuisines: ": "Biryani", "hours": "12noon\u201311pm(Mon-Sun)", "Cost for two": "\u20b9300"}, {"Name": "Ice Cream Plaza", "Rating": "3.3", "votes": "19", "location": " 945, YMCA Road, Sector 10, Faridabad", "Cuisines: ": "Ice Cream", "hours": "10am\u201311pm(Mon-Sun)", "Cost for two": "\u20b9150"}, {"Name": "Quick Chef", "Rating": "3.3", "votes": "9", "location": " Shop G-1, Plot 1, Vardhman Plaza, Sector 10, Dwarka, New Delhi", "Cuisines: ": "Fast Food, Beverages, Desserts", "hours": "7am\u20134am(Mon-Sun)", "Cost for two": "\u20b9400"}, {"Name": "Chai Garam", "Rating": "3.2", "votes": "6", "location": " Tower B, Paras Twin Tower, Metro Chawk, Sector 54, Gurgaon", "Cuisines: ": "Tea, Beverages, Fast Food", "hours": "8am\u20139pm(Mon-Sun)", "Cost for two": "\u20b9250"}, {"Name": "Khurana Fruit Icecream", "Rating": "3.9", "votes": "279", "location": " 1/811B, Gopi Colony, Opposite Sarvodya Hospital, Sector 19, Faridabad", "Cuisines: ": "Desserts, Fast Food", "hours": "10am\u201311pm(Mon-Sun)", "Cost for two": "\u20b9200"}, {"Name": "A-One Dhaba", "Rating": "-", "votes": "279", "location": " C-57, Sector 10, Noida", "Cuisines: ": "North Indian", "hours": "10:30am\u201310:30pm(Mon-Sun)", "Cost for two": "\u20b9150"}, {"Name": "Skyline Cafe & Lounge", "Rating": "2.8", "votes": "13", "location": " 296, 1st Floor, Satyaniketan, New Delhi", "Cuisines: ": "Cafe", "hours": "11am\u201312midnight(Mon-Sun)", "Cost for two": "\u20b9800"}, {"Name": "A-One Biryani Corner", "Rating": "3.5", "votes": "106", "location": " LG3, Supertech Mart, Eco Citi, Sector 135, Noida", "Cuisines: ": "Biryani, North Indian", "hours": "11am\u201311pm(Mon-Sun)", "Cost for two": "\u20b9400"}, {"Name": "Shanghai Moon", "Rating": "3.5", "votes": "145", "location": " 2nd Floor, Pacific Mall, Tagore Garden, New Delhi", "Cuisines: ": "Chinese, Salad", "hours": "11am\u201311pm(Mon-Sun)", "Cost for two": "\u20b9800"}, {"Name": "Kerala Dosa House", "Rating": "3.6", "votes": "247", "location": " Shop 2350, Sector 7A, Sector 7, Faridabad", "Cuisines: ": "South Indian", "hours": "9am\u201310pm(Mon-Sun)", "Cost for two": "\u20b9400"}, {"Name": "Wimpy", "Rating": "2.6", "votes": "299", "location": " 31, Aurobindo Place Market, Hauz Khas, New Delhi", "Cuisines: ": "Fast Food, Burger", "hours": "10am\u201310pm(Mon-Sun)", "Cost for two": "\u20b9350"}, {"Name": "Rakesh Yadav Lunch Centre", "Rating": "NEW", "votes": "299", "location": " D Building, 5 Market, Near PNB Bank, Vasant Vihar, New Delhi", "Cuisines: ": "North Indian", "hours": "11am\u201311pm(Mon-Sun)", "Cost for two": "\u20b9150"}, {"Name": "Twin Bakers And Cafe", "Rating": "3.2", "votes": "10", "location": " R-3/6, GDA Market, Sector 3, Raj Nagar, Ghaziabad", "Cuisines: ": "Chinese, Continental, Italian", "hours": "12noon\u201310pm(Mon-Sun)", "Cost for two": "\u20b9300"}]