[{"Name": "Delhi Diner - Clark's Inn", "Rating": "3.6", "votes": "218", "location": " Clarks Inn, Pacific Mall, Sahibabad, Ghaziabad", "Cuisines: ": "North Indian, Chinese, Fast Food", "hours": "7am\u201311am,12:30pm\u20133pm,7pm\u201311pm(Mon-Sun)", "Cost for two": "\u20b91,100"}, {"Name": "Big Brown Burger", "Rating": "3.6", "votes": "34", "location": " Shop 21, Scottish Mall, Sector 48, Sohna Road, Gurgaon", "Cuisines: ": "Burger, Fast Food, Beverages", "hours": "7am\u20134am(Mon-Sun)", "Cost for two": "\u20b9250"}, {"Name": "Pizza King", "Rating": "3.7", "votes": "78", "location": " Shop 5, Kernal Market, Jaitpur 2, Badarpur Border, Faridabad", "Cuisines: ": "Pizza, Fast Food", "hours": "11am\u201311pm(Mon-Sun)", "Cost for two": "\u20b9600"}, {"Name": "Mittal's Bakery", "Rating": "3.5", "votes": "86", "location": " Shop B-60, Arjun Nagar, Safdarjung, New Delhi", "Cuisines: ": "Bakery", "hours": "8am\u20139pm(Mon-Sun)", "Cost for two": "\u20b9350"}, {"Name": "Sialkoti Vaishno Dhaba", "Rating": "3.7", "votes": "71", "location": " HPO Chowk, Sadar Bazar, Gurgaon", "Cuisines: ": "North Indian", "hours": "8am\u201310:30am(Mon-Sun)", "Cost for two": "\u20b9300"}, {"Name": "Mumbai Vada Pav", "Rating": "3.8", "votes": "80", "location": " AG-41, Ground Floor, Near Kotak Mahindra Bank, Aditya City Centre, Vaibhav khand, Indirapuram, Ghaziabad", "Cuisines: ": "Street Food, Maharashtrian", "hours": "9am\u201310:30pm(Mon-Sun)", "Cost for two": "\u20b9250"}, {"Name": "Kovilakam", "Rating": "3.7", "votes": "109", "location": " F-1, Lower Ground 2, Mrignaini Chowk, Dilshad Colony, Dilshad Garden, New Delhi", "Cuisines: ": "South Indian", "hours": "12noon\u201310pm(Mon-Sun)", "Cost for two": "\u20b9350"}, {"Name": "The Chinese Hub", "Rating": "NEW", "votes": "109", "location": " Shop 91, Huda Market, Sector 15, Gurgaon", "Cuisines: ": "Chinese", "hours": "11am\u201311pm(Mon-Sun)", "Cost for two": "\u20b9300"}, {"Name": "The Champaran's Kitchen", "Rating": "3.4", "votes": "24", "location": " D1, Opposite Kalyan Jewellers, Sector 18, Noida", "Cuisines: ": "North Indian", "hours": "12:30pm\u20138:30pm(Mon-Sun)", "Cost for two": "\u20b9500"}, {"Name": "Street Spice Cafe & Grill", "Rating": "3.4", "votes": "16", "location": " A-151, Hari Nagar Clock Tower, Near Ghandhi Park, Mayapuri Phase 2, New Delhi", "Cuisines: ": "Fast Food, North Indian", "hours": "11am\u201311pm(Mon-Sun)", "Cost for two": "\u20b9600"}, {"Name": "Kangra Sweets", "Rating": "3.5", "votes": "36", "location": " Krishna Market, Lajpat Rai Marg, Lajpat Nagar 1, New Delhi", "Cuisines: ": "Mithai, Chinese, Street Food", "hours": "8:30am\u201310:30pm(Mon-Sun)", "Cost for two": "\u20b9200"}, {"Name": "Winkies", "Rating": "4.0", "votes": "266", "location": " 4, C Block Market, Kavi Nagar, Ghaziabad", "Cuisines: ": "Fast Food, Beverages", "hours": "12noon\u201310:30pm(Mon-Sun)", "Cost for two": "\u20b9300"}, {"Name": "Uncle's Biryani", "Rating": "3.5", "votes": "35", "location": " Shop 69, DDU, Market, Opposite Metro Pillar 423, Rajouri Garden, New Delhi", "Cuisines: ": "Biryani", "hours": "11am\u201311pm(Mon-Sun)", "Cost for two": "\u20b9200"}, {"Name": "Dadu's Cafe", "Rating": "3.3", "votes": "12", "location": " Shop 109, A-6, DDA Market, Paschim Vihar, New Delhi", "Cuisines: ": "North Indian, Biryani, Fast Food", "hours": "11am\u201311pm(Mon-Sun)", "Cost for two": "\u20b9300"}, {"Name": "Bang Bang Cafe", "Rating": "3.1", "votes": "6", "location": " LCB 4, Janak Place, District Center, Janakpuri, New Delhi", "Cuisines: ": "Fast Food, Beverages", "hours": "9am\u20139pm(Mon-Sun)", "Cost for two": "\u20b9200"}]