[{"Name": "Mamma Mia", "Rating": "NEW", "location": " Shop 5, Nagar Nigam Market, C Block, Kavi Nagar, Ghaziabad", "Cuisines: ": "Pizza, Fast Food, Chinese", "hours": "11am\u201311pm(Mon-Sun)", "Cost for two": "\u20b9250"}, {"Name": "Burger Site", "Rating": "NEW", "location": " Shop 12A, Ground Floor, Signature Street Mall, Near Reliance Smart, G Block, Govind Puram, Ghaziabad", "Cuisines: ": "Burger, Fast Food", "hours": "11am\u201311pm(Mon-Sun)", "Cost for two": "\u20b9400"}, {"Name": "Fresco Star Tea & Coffee Cafe", "Rating": "NEW", "location": " Shop 7 & 8, Lower Ground Floor, Panchsheel Hynish, Sector 1, Amrapali Leisure Valley, Greater Noida", "Cuisines: ": "Tea, Coffee, Beverages, Fast Food, Chinese", "hours": "9:30am\u201311pm(Mon-Sun)", "Cost for two": "\u20b9300"}, {"Name": "Kulcha singh", "Rating": "NEW", "location": " 2N-76, B P, NIT, Faridabad", "Cuisines: ": "North Indian", "hours": "9am\u20134pm(Mon-Sun)", "Cost for two": "\u20b9200"}, {"Name": "Zaika Of Purani Dilli", "Rating": "4.0", "location": " B-16, Amarpali Princely Estate, Sector 76, Near Sector 72, Noida", "Cuisines: ": "North Indian, Chinese", "hours": "11am\u20133am(Mon-Sun)", "Cost for two": "\u20b9500", "votes": "199"}, {"Name": "Uncle Chicken Shawarma", "Rating": "3.3", "location": " Shop 46, Huda Market, Sector 46, Near Sector 45, Gurgaon", "Cuisines: ": "Lebanese", "hours": "5:30pm\u201310:30pm(Mon-Sun)", "Cost for two": "\u20b9150", "votes": "10"}, {"Name": "Madras Cafe", "Rating": "3.7", "location": " V 23, Main Hanuman Road, Naveen Shahdara, Shahdara, New Delhi", "Cuisines: ": "South Indian, Chinese", "hours": "10am\u201310pm(Mon-Sun)", "Cost for two": "\u20b9250", "votes": "353"}, {"Name": "Puffs 'N' Cakes", "Rating": "3.8", "location": " G-5, Plot 9, Pankaj Plaza, Central Market, Sector 6, Dwarka, New Delhi", "Cuisines: ": "Bakery, Fast Food", "hours": "10am\u20139pm(Mon-Sun)", "Cost for two": "\u20b9300", "votes": "158"}, {"Name": "Apna Zaikaa", "Rating": "3.2", "location": " A 19/1, 3rd Floor, Panchsheel Vihar, Malviya Nagar, New Delhi", "Cuisines: ": "North Indian, Chinese", "hours": "1pm\u20133am(Mon-Sun)", "Cost for two": "\u20b9450", "votes": "8"}, {"Name": "Bellyful", "Rating": "3.4", "location": " Shop G-01, Ground Floor, Panchseel Square, Crossing Republik, Ghaziabad", "Cuisines: ": "Chinese, Rolls, North Indian", "hours": "2pm\u201311pm(Mon-Sun)", "Cost for two": "\u20b9250", "votes": "15"}, {"Name": "Bagla's", "Rating": "3.6", "location": " Shop 7, Ground Floor, Amrapali Vaishali, Sector 3, Vaishali, Ghaziabad", "Cuisines: ": "North Indian, Chinese", "hours": "8:30am\u201310:30pm(Mon-Sun)", "Cost for two": "\u20b9250", "votes": "26"}, {"Name": "Paratha & Litti Hub", "Rating": "3.4", "location": " H-29, Plot 7, Ground Floor & Basement, Vijay Chowk, Preet Vihar, Laxmi Nagar, New Delhi", "Cuisines: ": "North Indian, Bihari", "hours": "9am\u201310pm(Mon-Sun)", "Cost for two": "\u20b9200", "votes": "16"}, {"Name": "The Living Room - The Westin Sohna Resort & Spa", "Rating": "4.0", "location": " The Westin Sohna Resort & Spa, Vatika Complex, P O Daula, Karanki Road, Sohna Road, Gurgaon", "Cuisines: ": "Continental", "hours": "7am\u201312midnight(Mon-Sun)", "Cost for two": "\u20b93,000", "votes": "105"}, {"Name": "Khan's Biryani", "Rating": "3.9", "location": " 2nd Floor, Galaxy Plaza, Sector 4, Gaur City 1, Greater Noida", "Cuisines: ": "North Indian, Biryani", "hours": "12noon\u20134am(Mon-Sun)", "Cost for two": "\u20b9450", "votes": "51"}, {"Name": "Kit n Bite", "Rating": "3.4", "location": " Shop 6, 1st Floor, Sharma Market, Sector 53, Noida", "Cuisines: ": "North Indian", "hours": "11am\u20134pm,7pm\u201311pm(Mon-Sun)", "Cost for two": "\u20b9400", "votes": "26"}]