[{"Name": "Moets Curry Pot", "Rating": "3.8", "votes": "42", "location": " The Vilas, DLF Phase 2, Gurgaon", "Cuisines: ": "North Indian, Chinese, Italian", "hours": "11:30am\u201311:30pm(Mon-Sun)", "Cost for two": "\u20b91,200"}, {"Name": "Idli Vidli", "Rating": "-", "votes": "42", "location": " Kiosk 6, Plot 8, Golf City Circle Mart, Opposite North Eye, Sector 75, Near Sector 72, Noida", "Cuisines: ": "South Indian", "hours": "8am\u20131pm,7pm\u201311pm(Mon-Sun)", "Cost for two": "\u20b9400"}, {"Name": "Asli Zaika Chicken Biryani", "Rating": "3.0", "votes": "12", "location": " Shop 1, Plot 3, Khasra 264, Near Saket Metro Station, Saidulajab, Saket, New Delhi", "Cuisines: ": "North Indian, Biryani", "hours": "10am\u201310pm(Mon-Sun)", "Cost for two": "\u20b9300"}, {"Name": "Tadka North", "Rating": "-", "votes": "12", "location": " 307, 3rd Floor, F Block Market, South City 2, Gurgaon", "Cuisines: ": "North Indian", "hours": "11am\u201310pm(Mon-Sun)", "Cost for two": "\u20b91,500"}, {"Name": "Forked", "Rating": "3.4", "votes": "128", "location": " 15A/13, Ground Floor, East Patel Nagar, New Delhi", "Cuisines: ": "Chinese, Momos", "hours": "11am\u20133am(Mon-Sun)", "Cost for two": "\u20b9550"}, {"Name": "Momos World", "Rating": "3.4", "votes": "75", "location": " Shop 161, Central Arcade, DLF Phase 2, Gurgaon", "Cuisines: ": "Fast Food, Chinese", "hours": "12noon\u201311pm(Mon-Sun)", "Cost for two": "\u20b9400"}, {"Name": "Al- Kama  Chicken Corner", "Rating": "2.9", "votes": "10", "location": " Hero Honda Basai Road, Near Bikaner Chowk, Sector 37, Gurgaon", "Cuisines: ": "Biryani, North Indian", "hours": "10am\u201311pm(Mon-Sun)", "Cost for two": "\u20b9300"}, {"Name": "Rumali's", "Rating": "2.9", "votes": "26", "location": " SL 5, Friends Enclave, Sector 49, Noida", "Cuisines: ": "North Indian, Chinese, South Indian", "hours": "24Hours(Mon-Sun)", "Cost for two": "\u20b9600"}, {"Name": "The Nawabi Zaika", "Rating": "NEW", "votes": "26", "location": " S-59 PVC Market, Jwalapuri, Paschim Vihar, New Delhi", "Cuisines: ": "North Indian, Chinese", "hours": "11am\u201311pm(Mon-Sun)", "Cost for two": "\u20b9400"}, {"Name": "Chaap Kitchen", "Rating": "2.7", "votes": "294", "location": " E-124, Amar Colony, New Delhi", "Cuisines: ": "North Indian, Chinese, Rolls", "hours": "12noon\u20134am(Mon-Sun)", "Cost for two": "\u20b9500"}, {"Name": "F.O.D", "Rating": "3.8", "votes": "39", "location": " Shop 2, Windsor Street, Indirapuram, Ghaziabad", "Cuisines: ": "North Indian, Fast Food, Biryani", "hours": "11am\u20134am(Mon-Sun)", "Cost for two": "\u20b9300"}, {"Name": "Tandoori Chicken", "Rating": "-", "votes": "39", "location": " B4/389 Ground Floor Opposite HDFC Bank Century Plaza, Near Petrol Pump, Sector 8, Rohini, New Delhi", "Cuisines: ": "North Indian, Mughlai, Chinese", "hours": "11:45am\u20134am(Mon-Sun)", "Cost for two": "\u20b9500"}, {"Name": "Way2Burger", "Rating": "3.8", "votes": "112", "location": " A-124, Nirvana Courtyard, Nirvana Country, Sector 50, Gurgaon", "Cuisines: ": "Burger, Fast Food", "hours": "11am\u20136am(Mon-Sun)", "Cost for two": "\u20b9600"}, {"Name": "Lovely Food Point", "Rating": "-", "votes": "112", "location": " Gali 12, Road 4, Mahipalpur, New Delhi", "Cuisines: ": "North Indian, Chinese", "hours": "8am\u201311pm(Mon-Sun)", "Cost for two": "\u20b9300"}, {"Name": "Pizza King", "Rating": "2.9", "votes": "38", "location": " F 81, Near Kudi Chowk, Lado Sarai, New Delhi", "Cuisines: ": "Pizza, Fast Food", "hours": "8am\u20134am(Mon-Sun)", "Cost for two": "\u20b9300"}]