[{"Name": "Mr. Veg", "Rating": "3.4", "votes": "24", "location": " J 5/101 G, Nehru Market, Rajouri Garden, New Delhi", "Cuisines: ": "North Indian", "hours": "11am\u201311pm(Mon-Sun)", "Cost for two": "\u20b9250"}, {"Name": "Healtheos", "Rating": "3.8", "votes": "121", "location": " B-12 A, Sector 10, Raj Nagar, Ghaziabad", "Cuisines: ": "Healthy Food, Fast Food, North Indian", "hours": "9am\u201311pm(Mon-Sun)", "Cost for two": "\u20b9700"}, {"Name": "Vedika Restaurant", "Rating": "3.3", "votes": "47", "location": " Shop 1, Tomar Market, Near J S Hospital, Sector 132, Noida", "Cuisines: ": "North Indian, Chinese", "hours": "11am\u20135am(Mon-Sun)", "Cost for two": "\u20b9600"}, {"Name": "VIP Pizza", "Rating": "-", "votes": "47", "location": " Sector 5, Naveen Park, Rajendar Nagar, Ghaziabad", "Cuisines: ": "Pizza, Fast Food, Beverages", "hours": "11am\u201311pm(Mon-Sun)", "Cost for two": "\u20b9300"}, {"Name": "OH China", "Rating": "-", "votes": "47", "location": " U 73/29, Behind Building 5, South City 1, Gurgaon", "Cuisines: ": "Chinese", "hours": "11am\u20134am(Mon-Sun)", "Cost for two": "\u20b9450"}, {"Name": "Chanakya Food Street", "Rating": "3.0", "votes": "220", "location": " LG 10, Shatabdi Enclave Complex, Sector 49, Noida", "Cuisines: ": "North Indian, Chinese, Rolls", "hours": "11am\u201310:30pm(Mon-Sun)", "Cost for two": "\u20b9400"}, {"Name": "Five Star Dhaba", "Rating": "3.7", "votes": "71", "location": " EA 5, Maya Enclave, Hari Nagar, Mayapuri Phase 2, New Delhi", "Cuisines: ": "North Indian", "hours": "12noon\u20135pm(Mon,Wed,Thu,Fri,Sat,Sun)...", "Cost for two": "\u20b9350"}, {"Name": "HOG - Just Fork It", "Rating": "4.1", "votes": "959", "location": " Delivery Only", "Cuisines: ": "Italian, Continental, Fast Food", "hours": "12noon\u20134am(Mon-Sun)", "Cost for two": "\u20b9750"}, {"Name": "Lala Da Shudh Vaishno Dhaba", "Rating": "3.7", "votes": "228", "location": " Main Najafgarh Road, Opposite Metro Pillar 676, Uttam Nagar, New Delhi", "Cuisines: ": "North Indian", "hours": "8am\u201311pm(Mon-Sun)", "Cost for two": "\u20b9300"}, {"Name": "Chakhna Makhna", "Rating": "3.9", "votes": "76", "location": " UG-03, Shopping Arcade, Malibu Town, Sector 50, Gurgaon", "Cuisines: ": "North Indian, Chinese", "hours": "11:30am\u20133pm,6:30pm\u201312midnight(Mon-Sun)", "Cost for two": "\u20b9400"}, {"Name": "Mohan Mashoor Kharode wala", "Rating": "3.2", "votes": "14", "location": " Shop 41, Outram Lines, Kingsway Complex, Delhi University-GTB Nagar, New Delhi", "Cuisines: ": "Mughlai", "hours": "5pm\u201311pm(Mon-Sun)", "Cost for two": "\u20b9250"}, {"Name": "Tip Top Tikka Corner", "Rating": "3.3", "votes": "7", "location": " Shop 8, Opposite Gate 3, Freedom Fiter Enclave, Shokeen Market, Sainik Farms, New Delhi", "Cuisines: ": "North Indian, Rolls", "hours": "6pm\u201312midnight(Mon,Wed,Thu,Fri,Sat,Sun)...", "Cost for two": "\u20b9300"}, {"Name": "Pizza Hub", "Rating": "3.7", "votes": "67", "location": " Shop 14, Block C-5, Yamuna Vihar, Near Santan Rath Wala Mandir, Shahdara, New Delhi", "Cuisines: ": "Fast Food, Pizza", "hours": "11am\u201311pm(Mon,Tue,Wed,Thu,Sat,Sun),3pm...", "Cost for two": "\u20b9400"}, {"Name": "New Maharani Rasoi", "Rating": "3.3", "votes": "13", "location": " C 24 B, Single Story, Near Old Gupta, Vijay Nagar, New Delhi", "Cuisines: ": "North Indian", "hours": "11am\u20133am(Mon-Sun)", "Cost for two": "\u20b9450"}, {"Name": "Big Bite Food Corner", "Rating": "3.8", "votes": "486", "location": " Shop 4-5, 252, Nazar Singh Palace, Sant Nagar, East Of Kailash, New Delhi", "Cuisines: ": "Fast Food, Chinese", "hours": "11am\u201311pm(Mon-Sun)", "Cost for two": "\u20b9400"}]