[{"Name": "Breakfast Point", "Rating": "4.0", "votes": "291", "location": " A-76, Lancer Convent School Road, Prashant Vihar, New Delhi", "Cuisines: ": "North Indian", "hours": "9am\u20135pm(Mon-Sun)", "Cost for two": "\u20b9200"}, {"Name": "Fry 'n' Bake", "Rating": "3.5", "votes": "28", "location": " Booth 2, G-21, Near Vatika India Next Township & Matri Kiran School, Sector 83, Gurgaon", "Cuisines: ": "Rolls, Street Food, Chinese, North Indian", "hours": "11:30am\u201311pm(Mon-Sun)", "Cost for two": "\u20b9400"}, {"Name": "Golden Crown Pizza Hub", "Rating": "3.2", "votes": "10", "location": " C-7, Chanakya Place, Janakpuri, New Delhi", "Cuisines: ": "Pizza", "hours": "10am\u20132am(Mon-Sun)", "Cost for two": "\u20b9300"}, {"Name": "Khan Biryani Center", "Rating": "3.3", "votes": "11", "location": " SRD, Lower Ground Floor, Shipra Rivera Tower, Gyan Khand 3, Indirapuram, Ghaziabad", "Cuisines: ": "Biryani", "hours": "10:30am\u201310:30pm(Mon-Sun)", "Cost for two": "\u20b9300"}, {"Name": "Food Basket", "Rating": "3.6", "votes": "49", "location": " U-30, Main Market, Shakarpur, New Delhi", "Cuisines: ": "Fast Food, Chinese", "hours": "12noon\u201311pm(Mon-Sun)", "Cost for two": "\u20b9250"}, {"Name": "G's Kitchen", "Rating": "3.3", "votes": "14", "location": " D-3/14, Ground Floor, Krishna Nagar, New Delhi", "Cuisines: ": "Fast Food, Chinese, Momos, Beverages", "hours": "11am\u201311pm(Mon-Sun)", "Cost for two": "\u20b9400"}, {"Name": "Prasadam", "Rating": "3.8", "votes": "732", "location": " G-57, Vikas Marg, Near Walia Nursing Home, Laxmi Nagar, New Delhi", "Cuisines: ": "South Indian, North Indian, Chinese, Fast Food", "hours": "8am\u201311:30pm(Mon,Tue,Wed,Fri,Sat,Sun),10am...", "Cost for two": "\u20b9500"}, {"Name": "The Grand Kitchen", "Rating": "3.7", "votes": "37", "location": " Shop 118, Plot 2, Shakti Khand 2, Eros Market, Indirapuram, Ghaziabad", "Cuisines: ": "North Indian, Mughlai, Chinese", "hours": "11:30am\u201311:30pm(Mon-Sun)", "Cost for two": "\u20b91,200"}, {"Name": "Sagar Chole Bhature", "Rating": "3.7", "votes": "99", "location": " K-1, Dharam Palace, Sector 18, Noida", "Cuisines: ": "Street Food", "hours": "7:30am\u20138pm(Mon-Sun)", "Cost for two": "\u20b9150"}, {"Name": "Protein Bites", "Rating": "3.5", "votes": "43", "location": " 104, Major Sushil Aima Marg, Sector 22A, Sector 22, Gurgaon", "Cuisines: ": "Healthy Food", "hours": "10am\u201311pm(Mon-Sun)", "Cost for two": "\u20b9500"}, {"Name": "Dezertfox", "Rating": "4.0", "votes": "307", "location": " D-18, Amar Colony, New Delhi", "Cuisines: ": "Bakery, Desserts, Beverages", "hours": "10am\u20131am(Mon-Sun)", "Cost for two": "\u20b9550"}, {"Name": "Shades of Tandoor", "Rating": "3.6", "votes": "42", "location": " PCO Booth, Near Sarvodaya Vidyalaya, Mukherjee Nagar, New Delhi", "Cuisines: ": "Chinese, North Indian", "hours": "4:30pm\u201311:30pm(Mon-Sun)", "Cost for two": "\u20b9300"}, {"Name": "Waffle Fever", "Rating": "4.3", "votes": "222", "location": " Shop 3, Rapid Metro Station, Sector 43, Gurgaon", "Cuisines: ": "Desserts", "hours": "12:30pm\u20133am(Mon-Sun)", "Cost for two": "\u20b9300"}, {"Name": "D Pearl Pizza", "Rating": "NEW", "votes": "222", "location": " Shop 56, Kalu Sarai, Adchini, New Delhi", "Cuisines: ": "Fast Food", "hours": "10am\u20134am(Mon-Sun)", "Cost for two": "\u20b9150"}, {"Name": "Paradise Of Biryanis", "Rating": "NEW", "votes": "222", "location": " 127, 1st Floor, City Plaza, Sector 4, Gaur City 1, Greater Noida", "Cuisines: ": "Biryani, Andhra", "hours": "12noon\u201311pm(Mon,Wed,Thu,Fri,Sat,Sun)...", "Cost for two": "\u20b9550"}]