[{"Name": "Chilli Indiana", "Rating": "4.2", "votes": "232", "location": " U8/18, Basement, Near DLF Phase 3 Metro Station, DLF Phase 3, Gurgaon", "Cuisines: ": "Pizza, Italian, Fast Food", "hours": "24Hours(Mon-Sun)", "Cost for two": "\u20b9500"}, {"Name": "Bhagat Ji Sweet House", "Rating": "3.2", "votes": "5", "location": " Near Baburam School, Bholanath Nagar, Shahdara, New Delhi", "Cuisines: ": "Mithai", "hours": "8am\u201311pm(Mon-Sun)", "Cost for two": "\u20b9300"}, {"Name": "Roll n Roast", "Rating": "3.6", "votes": "67", "location": " 7, Market 1, Chittaranjan Park, New Delhi", "Cuisines: ": "North Indian, Chinese, Rolls", "hours": "12noon\u201311pm(Mon-Sun)", "Cost for two": "\u20b9250"}, {"Name": "Shagun Restaurant", "Rating": "3.3", "votes": "21", "location": " F1/13-14, DDA Market, Sultanpuri, Near Rohini, New Delhi", "Cuisines: ": "North Indian, Fast Food, Chinese, South Indian", "hours": "11am\u201311:30pm(Mon-Sun)", "Cost for two": "\u20b9500"}, {"Name": "Quick Bites Cafe", "Rating": "3.7", "votes": "18", "location": " 6030, 1 UB Jawarhar Nagar, Kamla Nagar, New Delhi", "Cuisines: ": "Continental, Italian", "hours": "1pm\u20134am(Mon-Sun)", "Cost for two": "\u20b9250"}, {"Name": "The Crunch Box", "Rating": "3.4", "votes": "13", "location": " Shop 8, 1st Floor, Logix City Centre, Sector 32, Sector 31, Noida", "Cuisines: ": "Fast Food", "hours": "11am\u201310pm(Mon-Sun)", "Cost for two": "\u20b9300"}, {"Name": "Chaap Uncle", "Rating": "3.4", "votes": "61", "location": " B4/389, Ground Floor, Century Plaza, Sector 8, Opposite HDFC Bank, Rohini, New Delhi", "Cuisines: ": "North Indian", "hours": "11:30am\u20134am(Mon,Wed,Thu,Fri,Sat,Sun)...", "Cost for two": "\u20b9200"}, {"Name": "Mr. Cheesy", "Rating": "3.6", "votes": "20", "location": " D 4, Near Bal Bharati Public School, Main Road, Brij Vihar, Sahibabad, Ghaziabad", "Cuisines: ": "Pizza, Fast Food, Beverages", "hours": "5pm\u201310pm(Mon-Sun)", "Cost for two": "\u20b9500"}, {"Name": "Classic Indian", "Rating": "3.8", "votes": "41", "location": " B-12, Badarpur Border, Faridabad", "Cuisines: ": "North Indian, Fast Food", "hours": "9am\u201310pm(Mon-Sun)", "Cost for two": "\u20b9200"}, {"Name": "Veggie's Corner", "Rating": "3.7", "votes": "50", "location": " Shop 1, Guru Nanak Market, Lajpat Nagar 4, New Delhi", "Cuisines: ": "Fast Food, Street Food", "hours": "9am\u20138pm(Mon-Sun)", "Cost for two": "\u20b9150"}, {"Name": "Raina Di Hatti", "Rating": "3.6", "votes": "349", "location": " 12/2, Shop 23, 24 & 25, Opposite Metro Pillar 75, Sector 37, Faridabad", "Cuisines: ": "Chinese, North Indian", "hours": "11am\u20132am(Mon-Sun)", "Cost for two": "\u20b9350"}, {"Name": "Juices By Yogi's", "Rating": "3.5", "votes": "14", "location": " 5442, 1st Floor, 3rd Apartment, Pragati Vihar, DLF Phase 4, Gurgaon", "Cuisines: ": "Juices", "hours": "8am\u201310pm(Mon-Sun)", "Cost for two": "\u20b9150"}, {"Name": "Batra Bakers", "Rating": "3.7", "votes": "91", "location": " 24, Main Market, Malviya Nagar, New Delhi", "Cuisines: ": "Bakery, Fast Food", "hours": "10am\u201310pm(Mon-Sun)", "Cost for two": "\u20b9250"}, {"Name": "Shree Durga Dosa", "Rating": "3.7", "votes": "110", "location": " Shop 11, B 4, DDA Market, Paschim Vihar, New Delhi", "Cuisines: ": "South Indian, Chinese", "hours": "9am\u201311pm(Mon-Sun)", "Cost for two": "\u20b9400"}, {"Name": "Madras Cafe", "Rating": "3.7", "votes": "153", "location": " 1, H Block, DDA Market, Vikaspuri, New Delhi", "Cuisines: ": "South Indian, Chinese, Fast Food", "hours": "9am\u201310:30pm(Mon-Sun)", "Cost for two": "\u20b9300"}]