[{"Name": "Andaz-E-Lucknow", "Rating": "3.0", "votes": "6", "location": " Shop 2449, Ground Floor, City Centre Mall, Sector 12, Dwarka, New Delhi", "Cuisines: ": "Mughlai", "hours": "11:30am\u201311pm(Mon-Sun)", "Cost for two": "\u20b9500"}, {"Name": "Pizza Pan", "Rating": "3.6", "votes": "65", "location": " B-1, Rajan Babu Road, Adarsh Nagar, Azadpur, New Delhi", "Cuisines: ": "Pizza, Chinese, Fast Food", "hours": "11am\u201311pm(Mon-Sun)", "Cost for two": "\u20b9400"}, {"Name": "Badri Prasad Ramesh Kumar Caterers", "Rating": "3.8", "votes": "295", "location": " 66-67/E, Near Chota Gali Chakkar, Kamla Nagar, New Delhi", "Cuisines: ": "North Indian, Street Food, Chinese", "hours": "10am\u201310:30pm(Mon-Sun)", "Cost for two": "\u20b9300"}, {"Name": "The Mad Teapot/The Wishing Chair", "Rating": "4.1", "votes": "161", "location": " Lower Ground Floor, DLF South Point Mall, Golf Course Road, Gurgaon", "Cuisines: ": "Cafe, Italian, Bakery", "hours": "11am\u20138pm(Mon-Sun)", "Cost for two": "\u20b91,200"}, {"Name": "SMS Food Villa", "Rating": "3.7", "votes": "158", "location": " D-74, Sector 10, Vasundhara, Ghaziabad", "Cuisines: ": "Chinese, North Indian", "hours": "12noon\u201311pm(Mon-Sun)", "Cost for two": "\u20b9450"}, {"Name": "Foodies-53 Cafe", "Rating": "3.5", "votes": "135", "location": " Shop 12, B5 Market, Yamuna Vihar, Shahdara, New Delhi", "Cuisines: ": "Chinese, Fast Food, North Indian", "hours": "9am\u201311pm(Mon-Sun)", "Cost for two": "\u20b9400"}, {"Name": "Shama Chicken Corner", "Rating": "3.7", "votes": "656", "location": " Shop 1, Near Omaxe City, Fazilpur Chowk, Sohna Road, Gurgaon", "Cuisines: ": "Mughlai", "hours": "11am\u201311pm(Mon-Sun)", "Cost for two": "\u20b9500"}, {"Name": "Birds On A Wire", "Rating": "4.1", "votes": "226", "location": " A-53, Opposite Lancer Convent School, Prashant Vihar, New Delhi", "Cuisines: ": "Fast Food, Beverages", "hours": "11am\u201310pm(Mon-Sun)", "Cost for two": "\u20b9300"}, {"Name": "Above & Beyond", "Rating": "3.8", "votes": "282", "location": " A 22-23, 1st Floor, Tagore Market, Kirti Nagar, New Delhi", "Cuisines: ": "North Indian, Chinese, Mughlai, Continental", "hours": "11am\u201312midnight(Mon-Sun)", "Cost for two": "\u20b91,200"}, {"Name": "The Grub Cafe", "Rating": "4.0", "votes": "132", "location": " Opposite Housing Board Colony, Sector 31, Gurgaon", "Cuisines: ": "Cafe, Chinese", "hours": "12noon\u201312midnight(Mon-Sun)", "Cost for two": "\u20b9800"}, {"Name": "Little Attock", "Rating": "3.5", "votes": "17", "location": " F 95, Okhla Phase 3, New Delhi", "Cuisines: ": "Modern Indian", "hours": "12noon\u20139pm(Mon,Tue,Wed,Thu,Fri,Sun)...", "Cost for two": "\u20b9700"}, {"Name": "Jeevan Cake Wala", "Rating": "3.6", "votes": "32", "location": " Shop 136, Pratap Vihar Part 1, Gali 4, Near PSM School, Nangloi, New Delhi", "Cuisines: ": "Bakery", "hours": "10am\u201310pm(Mon-Sun)", "Cost for two": "\u20b9400"}, {"Name": "The Cake Bake", "Rating": "3.6", "votes": "62", "location": " 101 L, Circular Road, New Colony, Near Gaba Ki Kothi, Near Sector 7, Gurgaon", "Cuisines: ": "Bakery, Desserts", "hours": "9:30am\u201310:30pm(Mon),10am\u201310:30pm(Tue-Sun)", "Cost for two": "\u20b9200"}, {"Name": "Freaky Cafe", "Rating": "3.2", "votes": "25", "location": " H-14, Main Road, Block H, Main Market, Shakarpur, New Delhi", "Cuisines: ": "Fast Food, Healthy Food, Salad, Beverages", "hours": "10am\u20132am(Mon-Sun)", "Cost for two": "\u20b9500"}, {"Name": "The Cake Factory", "Rating": "NEW", "votes": "25", "location": " Shop 1, C Block, Barat Ghar, Village Chaura, Raghunathpur, Sector 22, Noida", "Cuisines: ": "Bakery, Desserts", "hours": "11am\u201311pm(Mon-Sun)", "Cost for two": "\u20b9500"}]