[{"Name": "Pizza Club", "Rating": "-", "location": " D Block, 60 Futa Road, Near MCD Park, Chhatarpur, New Delhi", "Cuisines: ": "Fast Food", "hours": "11am\u201310pm(Mon-Sun)", "Cost for two": "\u20b9300"}, {"Name": "The Chilly Chinesse", "Rating": "3.1", "location": " 16/419, Jalebi Chowk, Kalyan Puri, Mayur Vihar Phase 2, New Delhi", "Cuisines: ": "Chinese", "hours": "11am\u201310pm(Mon-Sun)", "Cost for two": "\u20b9150", "votes": "13"}, {"Name": "Dabba 99", "Rating": "NEW", "location": " CG-99, Arcadia, Sector 50, Gurgaon", "Cuisines: ": "North Indian", "hours": "12noon\u201311pm(Mon-Sun)", "Cost for two": "\u20b9200", "votes": "13"}, {"Name": "Andhra Bhavan", "Rating": "3.4", "location": " 117/3, Sudharshan Road, Gautham Nagar, Hauz Khas, New Delhi", "Cuisines: ": "South Indian", "hours": "9am\u201311pm(Mon-Sun)", "Cost for two": "\u20b9250", "votes": "20"}, {"Name": "Chawla Chikan.in", "Rating": "2.6", "location": " CS-6, Hall 2, Gyaan Khand 2, Indirapuram, Ghaziabad", "Cuisines: ": "North Indian, Mughlai", "hours": "24Hours(Mon-Sun)", "Cost for two": "\u20b9300", "votes": "57"}, {"Name": "Dumpling Station", "Rating": "NEW", "location": " Shop 109, HBC, Sector 9-10, Diving Road, Sector 10, Faridabad", "Cuisines: ": "Momos, Fast Food, Beverages", "hours": "8:30am\u201312:30am(Mon-Sun)", "Cost for two": "\u20b9300", "votes": "57"}, {"Name": "Prime Pizza", "Rating": "NEW", "location": " Galaxy Plaza, Gaur City 1, Sector 4, Crossing Republik, Ghaziabad", "Cuisines: ": "Fast Food, Pizza, Burger, Beverages", "hours": "10am\u201312midnight(Mon-Sun)", "Cost for two": "\u20b9500", "votes": "57"}, {"Name": "The Cuizine Empire", "Rating": "3.3", "location": " Shop 2, Casawood Market, Gaur City 2, Greater Noida", "Cuisines: ": "North Indian, South Indian, Chinese, Fast Food, Beverages", "hours": "11am\u201311:30pm(Mon-Sun)", "Cost for two": "\u20b9400", "votes": "18"}, {"Name": "New Shama Chicken Corner", "Rating": "3.2", "location": " Shop 3, Kanhai Village, Sector 44, Gurgaon", "Cuisines: ": "Biryani, North Indian", "hours": "11am\u201311pm(Mon-Sun)", "Cost for two": "\u20b9200", "votes": "21"}, {"Name": "Apni Rasoi", "Rating": "3.7", "location": " 715, Sarswati Vihar, Chakarpur, MG Road, Gurgaon", "Cuisines: ": "North Indian", "hours": "8am\u201311pm(Mon-Sun)", "Cost for two": "\u20b9150", "votes": "34"}, {"Name": "Rubaab Restaurant", "Rating": "3.7", "location": " S-2, 1st Floor, Gamma Shopping Complex, Jagat Farm Main Market, Above Canara Bank, Gamma 1, Greater Noida", "Cuisines: ": "North Indian, Chinese", "hours": "11am\u201310:30pm(Mon-Sun)", "Cost for two": "\u20b9700", "votes": "534"}, {"Name": "Yummy Fit Food", "Rating": "NEW", "location": " Opposite Jain Fashion, Kolkata Road, Najafgarh, New Delhi", "Cuisines: ": "Momos, Fast Food, Chinese", "hours": "11am\u201311pm(Mon-Sun)", "Cost for two": "\u20b9300", "votes": "534"}, {"Name": "New Chinese Hut", "Rating": "-", "location": " Opposite Bandhan Bank, Central Market, Punjabi Bagh, New Delhi", "Cuisines: ": "Chinese", "hours": "11am\u201311:30pm(Mon-Sun)", "Cost for two": "\u20b9150", "votes": "534"}, {"Name": "Club Storm", "Rating": "2.7", "location": " 210, 2nd Floor, DLF Mega Mall, DLF Phase 1, Gurgaon", "Cuisines: ": "Chinese, Thai, North Indian", "hours": "12:30pm\u20131am(Mon-Sun)", "Cost for two": "\u20b91,500", "votes": "17"}, {"Name": "Fish And Chicken", "Rating": "-", "location": " R 9/3K, Near Police Chowki, Sector 9, Raj Nagar, Ghaziabad", "Cuisines: ": "North Indian", "hours": "5pm\u201311:30pm(Mon-Sun)", "Cost for two": "\u20b9400", "votes": "17"}]