[{"Name": "Sach Bhonjanalaya", "Rating": "3.3", "votes": "25", "location": " Opposite Sector 17C Gate, Sukhrali, Sector 17, Gurgaon", "Cuisines: ": "North Indian", "hours": "12noon\u20134pm,7pm\u201311:30pm(Mon-Sun)", "Cost for two": "\u20b9250"}, {"Name": "Midnight Drivve", "Rating": "4.1", "votes": "852", "location": " Delivery Only", "Cuisines: ": "North Indian, Pizza, Burger, Rolls, Chinese, Beverages", "hours": "12noon\u20134am(Mon-Sun)", "Cost for two": "\u20b9750"}, {"Name": "Cafe Hangout", "Rating": "3.7", "votes": "103", "location": " 59-60, HUDA Market, Sector 9, Faridabad", "Cuisines: ": "Cafe", "hours": "11am\u20139pm(Mon-Sun)", "Cost for two": "\u20b9700"}, {"Name": "Paratha Express", "Rating": "NEW", "votes": "103", "location": " 234, 2nd Floor, South City 1, Gurgaon", "Cuisines: ": "North Indian, Chinese", "hours": "7am\u20134am(Mon-Sun)", "Cost for two": "\u20b9400"}, {"Name": "The Daily Fruit", "Rating": "3.5", "votes": "17", "location": " U16/29-30, Sector 24, DLF Phase 3, Gurgaon", "Cuisines: ": "Healthy Food", "hours": "6am\u20131am(Mon-Sun)", "Cost for two": "\u20b9200"}, {"Name": "Caff\u00e9 La Poya", "Rating": "3.9", "votes": "253", "location": " 10, Kirtimaan Plaza, Behind Mother Diary, Sector 30, Noida", "Cuisines: ": "Fast Food, North Indian", "hours": "11am\u201310pm(Mon-Sun)", "Cost for two": "\u20b9400"}, {"Name": "Rasogolla Sweets Corner", "Rating": "3.3", "votes": "253", "location": " Shop: 145, Huda Market, Sector 16, Faridabad", "Cuisines: ": "Mithai", "hours": "11am\u201310pm(Mon-Sun)", "Cost for two": "\u20b9200"}, {"Name": "Maestro", "Rating": "4.0", "votes": "390", "location": " B-14, Deep Cinema Complex, Ashok Vihar Phase 1, New Delhi", "Cuisines: ": "Cafe, Italian, North Indian, Chinese", "hours": "11am\u201311pm(Mon),10:30am\u201311pm(Tue-Sun)", "Cost for two": "\u20b9900"}, {"Name": "Indo Chinese Bowl", "Rating": "3.2", "votes": "9", "location": " Shop 1, B-22, Mahavir Enclave, Palam, New Delhi", "Cuisines: ": "Chinese, North Indian", "hours": "11am\u201311pm(Mon-Sun)", "Cost for two": "\u20b9300"}, {"Name": "Wrap N Roll", "Rating": "-", "votes": "9", "location": " Shop 93, Bani Square, Food Hub, D Block, Sector 50, Gurgaon", "Cuisines: ": "Wraps, Fast Food", "hours": "1pm\u20132am(Mon-Sun)", "Cost for two": "\u20b9300"}, {"Name": "Deez Biryani", "Rating": "-", "votes": "9", "location": " 40 & 42, Near Chattarpur Temple, Chhatarpur, New Delhi", "Cuisines: ": "Biryani, Mughlai, Kebab, Rolls", "hours": "12noon\u201311pm(Mon-Sun)", "Cost for two": "\u20b9500"}, {"Name": "KFC 24X7", "Rating": "2.9", "votes": "5", "location": " Plot 19, Sector 110A, New Palam Vihar, Gurgaon", "Cuisines: ": "North Indian", "hours": "24Hours(Mon-Sun)", "Cost for two": "\u20b9300"}, {"Name": "Online Cake", "Rating": "3.4", "votes": "11", "location": " Delivery Only", "Cuisines: ": "Bakery", "hours": "11am\u20133am(Mon-Sun)", "Cost for two": "\u20b9200"}, {"Name": "Wah! Amritsar", "Rating": "4.0", "votes": "416", "location": " E-21, Supermart 2, DLF Phase 4, Gurgaon", "Cuisines: ": "North Indian, Mughlai", "hours": "11:30am\u20133:30pm,6:30pm\u201311:30pm(Mon-Sun)", "Cost for two": "\u20b9500"}, {"Name": "Keralicious", "Rating": "3.7", "votes": "89", "location": " B 211, Supermart 1, DLF Phase 4, Gurgaon", "Cuisines: ": "South Indian, Kerala", "hours": "10am\u20139pm(Mon,Wed,Thu,Fri,Sat,Sun),Closed...", "Cost for two": "\u20b9300"}]