[{"Name": "Bhukkad", "Rating": "3.6", "votes": "62", "location": " RZ 822, Gali 23, Tugalkabad Extension, Tughlakabad Institutional Area, New Delhi", "Cuisines: ": "North Indian, Mughlai", "hours": "8pm\u20135am(Mon-Sun)", "Cost for two": "\u20b9500"}, {"Name": "SM Gopal Ice Cream & Cakes", "Rating": "3.6", "votes": "54", "location": " 8, Ground Floor, Living Style Mall, Main Kalindi Kunj Road, Jasola, New Delhi", "Cuisines: ": "Ice Cream, Desserts", "hours": "10am\u201311pm(Mon-Sun)", "Cost for two": "\u20b9350"}, {"Name": "Fresh & Fast", "Rating": "3.0", "votes": "14", "location": " Shop 29, Ground Floor, Living Style Mall, Pocket 6, Jasola, New Delhi", "Cuisines: ": "Sandwich, Pizza, Burger, Beverages", "hours": "10:30am\u201311pm(Mon-Sun)", "Cost for two": "\u20b9500"}, {"Name": "Tikhi Gali", "Rating": "3.6", "votes": "107", "location": " 1, Mother Dairy Market, B Block Market, Sector 34, Noida", "Cuisines: ": "Fast Food", "hours": "5:30pm\u201310:30pm(Mon-Sun)", "Cost for two": "\u20b9200"}, {"Name": "Daily Dose", "Rating": "3.7", "votes": "28", "location": " B4/57A, Ashok Vihar Phase 2, New Delhi", "Cuisines: ": "Cafe, North Indian", "hours": "12noon\u201311:30pm(Mon-Thu),12noon\u20132am(Fri-Sun)", "Cost for two": "\u20b9750"}, {"Name": "Nawaab - Taste Of Lucknow", "Rating": "3.0", "votes": "172", "location": " G-5, MSX Tower-1, Alpha 1, Greater Noida", "Cuisines: ": "North Indian", "hours": "11am\u201311pm(Mon-Sun)", "Cost for two": "\u20b9400"}, {"Name": "Fresh Salad Co.", "Rating": "3.7", "votes": "30", "location": " Delivery Only", "Cuisines: ": "Healthy Food, Salad, Sandwich, Juices", "hours": "8am\u20132am(Mon-Sun)", "Cost for two": "\u20b9500"}, {"Name": "Aggrawal Fast Food", "Rating": "3.4", "votes": "16", "location": " Bartan Chowk, Madanpur Khadar, Sarita Vihar, New Delhi", "Cuisines: ": "North Indian, Chinese, Fast Food", "hours": "11am\u201311pm(Mon-Sun)", "Cost for two": "\u20b9350"}, {"Name": "Parantha.Com", "Rating": "3.3", "votes": "16", "location": " 2062/26, 1st Floor, Tuglakabad Extantion, Tughlakabad Institutional Area, New Delhi", "Cuisines: ": "North Indian", "hours": "9am\u20134am(Mon-Sun)", "Cost for two": "\u20b9250"}, {"Name": "ZFC Halal", "Rating": "3.5", "votes": "30", "location": " K 108, Ground Floor, Abul Fazal Enclave Part 1, Jamia Nagar, Jasola, New Delhi", "Cuisines: ": "Fast Food, Beverages, Desserts", "hours": "11am\u201311pm(Mon-Sun)", "Cost for two": "\u20b9400"}, {"Name": "Qabil-E-Tarif", "Rating": "3.4", "votes": "18", "location": " F 26, Batla House, Nafees Road, Jamia Nagar, Near Zakir Nagar, New Delhi", "Cuisines: ": "Hyderabadi", "hours": "12:30pm\u201311:30pm(Mon-Sun)", "Cost for two": "\u20b9550"}, {"Name": "BK Fast Food", "Rating": "3.4", "votes": "21", "location": " Shop 173, Main Market, Badarpur Border, Faridabad", "Cuisines: ": "Chinese, South Indian, Mithai", "hours": "9am\u20139pm(Mon-Sun)", "Cost for two": "\u20b9250"}, {"Name": "Chulha Chowka", "Rating": "3.4", "votes": "62", "location": " 198/6, Ramesh Market Kalkaji, New Delhi", "Cuisines: ": "North Indian, Mughlai, Chinese, Rolls", "hours": "24Hours(Mon-Sun)", "Cost for two": "\u20b9500"}, {"Name": "Mughlai Tadka", "Rating": "3.1", "votes": "5", "location": " B 10, Near Shiya Masjid, Main Road, Okhla Vihar, Jamia Nagar, Jasola, New Delhi", "Cuisines: ": "North Indian", "hours": "11am\u201311:45pm(Mon-Sun)", "Cost for two": "\u20b9600"}, {"Name": "The Kebab Guys", "Rating": "4.2", "votes": "692", "location": " Shop 22, Savitri Complex, Greater Kailash 2 (GK 2), New Delhi", "Cuisines: ": "North Indian, Kebab, Mughlai", "hours": "12noon\u20134pm,5:30pm\u201312midnight(Mon-Sun)", "Cost for two": "\u20b9750"}]