[{"Name": "Delhi Dhaba", "Rating": "2.6", "votes": "35", "location": " K-7/41A, DLF Phase 2, Gurgaon", "Cuisines: ": "North Indian", "hours": "11am\u20134pm,6pm\u201311pm(Mon-Sun)", "Cost for two": "\u20b9200"}, {"Name": "Soo Yung by The Backyard", "Rating": "3.7", "votes": "142", "location": " 49, Ground Floor, NWA Club Road, West Punjabi Bagh, Punjabi Bagh, New Delhi", "Cuisines: ": "Asian, Sushi", "hours": "12noon\u20131am(Mon-Sun)", "Cost for two": "\u20b91,200"}, {"Name": "Turban Man Cafe LLP", "Rating": "3.4", "votes": "17", "location": " Plot 13 A, Mulla Ali Road, Gautam Buddha Nagar, Part 3, Knowledge Park, Greater Noida", "Cuisines: ": "North Indian, Chinese, Fast Food, Beverages", "hours": "10am\u201311pm(Mon-Sun)", "Cost for two": "\u20b9250"}, {"Name": "The Kitchen King", "Rating": "3.1", "votes": "6", "location": " Shop 2, Paryavaran Complex, Saidulajab, Sainik Farms, New Delhi", "Cuisines: ": "Chinese, Momos, North Indian, South Indian", "hours": "8am\u201312midnight(Mon-Sun)", "Cost for two": "\u20b9200"}, {"Name": "Devil Chicken", "Rating": "3.4", "votes": "21", "location": " Shop 11, CSC 3, Sector 11, Rohini, New Delhi", "Cuisines: ": "North Indian", "hours": "2pm\u20132am(Mon-Sun)", "Cost for two": "\u20b9300"}, {"Name": "The House of Tandoor", "Rating": "3.8", "votes": "208", "location": " A 27, Ground Floor, Near Gurudwara, Lajpat Nagar 4, Amar Colony, New Delhi", "Cuisines: ": "North Indian, Chinese", "hours": "12noon\u201312midnight(Mon,Wed,Thu,Fri,Sat...", "Cost for two": "\u20b9300"}, {"Name": "My Choice Milkshake", "Rating": "NEW", "votes": "208", "location": " G 40, Baani, Golf Course Road, Sector 56, Gurgaon", "Cuisines: ": "Fast Food, Beverages", "hours": "10am\u201310pm(Mon-Sun)", "Cost for two": "\u20b9400"}, {"Name": "Homely Food", "Rating": "3.6", "votes": "39", "location": " N 282, N Block, Sector 25, Noida", "Cuisines: ": "Fast Food", "hours": "11am\u20139pm(Mon-Sun)", "Cost for two": "\u20b9200"}, {"Name": "Family Pizza Corner", "Rating": "3.7", "votes": "22", "location": " K-824, Indra Enclave, Near Johri Enclave Metro Station, Loni, Ghaziabad", "Cuisines: ": "Pizza, Fast Food, Beverages", "hours": "11am\u201311pm(Mon-Sun)", "Cost for two": "\u20b9500"}, {"Name": "Foody Night", "Rating": "3.6", "votes": "123", "location": " 16, Ground Floor, Main Road, Opposite Church Dhakka, Mukherjee Nagar, New Delhi", "Cuisines: ": "North Indian, Fast Food", "hours": "12:30pm\u20135am(Mon-Sun)", "Cost for two": "\u20b9800"}, {"Name": "Glocal Kitchen", "Rating": "4.2", "votes": "195", "location": " Shop 81, High Street, Sector 81, Faridabad", "Cuisines: ": "North Indian, Asian, Italian", "hours": "2pm\u20132am(Mon),2pm\u201312midnight(Tue-Sun)", "Cost for two": "\u20b9500"}, {"Name": "Pradhan Ji Multi Cuisine Restaurant", "Rating": "3.6", "votes": "410", "location": " 32-UB, Lower Ground Floor, Jawahar Nagar, Kamla Nagar, New Delhi", "Cuisines: ": "North Indian, Chinese", "hours": "11am\u201311pm(Mon-Sun)", "Cost for two": "\u20b9800"}, {"Name": "Dum-E-Biryani", "Rating": "3.6", "votes": "83", "location": " 29 & 30, Chhoti Market, Sector 10, Dwarka, New Delhi", "Cuisines: ": "Hyderabadi, Biryani", "hours": "11:30am\u20134am(Mon-Sun)", "Cost for two": "\u20b91,200"}, {"Name": "Apna Desi Thaat", "Rating": "3.5", "votes": "252", "location": " Near Omaxe Mall, P.D. Arcade, Sector 49, Near Sohna Road, Gurgaon", "Cuisines: ": "North Indian, Chinese", "hours": "11am\u201311pm(Mon-Sun)", "Cost for two": "\u20b9400"}, {"Name": "Chinese Hut", "Rating": "3.7", "votes": "173", "location": " C-222, Lajpat Nagar 1, New Delhi", "Cuisines: ": "Chinese", "hours": "11:30am\u201311pm(Mon-Sun)", "Cost for two": "\u20b9300"}]