[{"Name": "Radha Ki Rasoi", "Rating": "3.6", "votes": "459", "location": " G-1, Plot 22, Krishna Plaza, Sector 10, Dwarka, New Delhi", "Cuisines: ": "North Indian", "hours": "11am\u201311pm(Mon-Sun)", "Cost for two": "\u20b9350"}, {"Name": "Hungama Cafe Lounge", "Rating": "3.5", "votes": "53", "location": " 2509, 2nd Floor, Hudson Lane, Delhi University-GTB Nagar, New Delhi", "Cuisines: ": "North Indian, Continental", "hours": "11am\u201311pm(Mon-Sun)", "Cost for two": "\u20b9500"}, {"Name": "Paratha And Food Gellery", "Rating": "3.2", "votes": "14", "location": " 2, Neb Sarai, IGNOU Road, Saket, New Delhi", "Cuisines: ": "North Indian, Chinese", "hours": "7am\u20134am(Mon-Sun)", "Cost for two": "\u20b9300"}, {"Name": "Cabana's Kabab & Curry", "Rating": "3.8", "votes": "259", "location": " I-1, Kirti Nagar, New Delhi", "Cuisines: ": "North Indian, Mughlai, Chinese", "hours": "11am\u20134pm,6pm\u201311pm(Mon-Sun)", "Cost for two": "\u20b9450"}, {"Name": "O2   Multicuisine Restaurant", "Rating": "3.8", "votes": "316", "location": " 23-A, NN Tower, Block B, Road 44, Pitampura, New Delhi", "Cuisines: ": "North Indian, Chinese", "hours": "11am\u201311pm(Mon-Sun)", "Cost for two": "\u20b91,400"}, {"Name": "Dream Houze", "Rating": "3.6", "votes": "39", "location": " Plot 1, 1st Floor, North West Avenue, Punjabi Bagh, New Delhi", "Cuisines: ": "North Indian, Chinese, Continental", "hours": "11am\u201312midnight(Mon-Sun)", "Cost for two": "\u20b91,000"}, {"Name": "Hongchi", "Rating": "3.9", "votes": "180", "location": " 183, A/4, Gautam Nagar, Hauz Khas, New Delhi", "Cuisines: ": "Chinese, Momos", "hours": "11:30am\u201311pm(Mon-Sun)", "Cost for two": "\u20b9300"}, {"Name": "Eat To Fit", "Rating": "NEW", "votes": "180", "location": " Shop 14, MKM Market, Sector 57, Gurgaon", "Cuisines: ": "Healthy Food", "hours": "10am\u201311pm(Mon-Sun)", "Cost for two": "\u20b9250"}, {"Name": "Aggarwal Sweet India", "Rating": "3.4", "votes": "30", "location": " 38-39/4B, Arya Samaj Road, Near Metro Pillar 671-672, Uttam Nagar, New Delhi", "Cuisines: ": "Mithai, Street Food", "hours": "8am\u201310:30pm(Mon-Sun)", "Cost for two": "\u20b9200"}, {"Name": "Paratha Street", "Rating": "3.1", "votes": "7", "location": " B 47, Pancheel Vihar Khirki Extention, Malviya Nagar, New Delhi", "Cuisines: ": "North Indian", "hours": "7am\u20134am(Mon-Sun)", "Cost for two": "\u20b9300"}, {"Name": "The Food Court", "Rating": "3.2", "votes": "9", "location": " Omega PG, C Block Market, Sector 44, Noida", "Cuisines: ": "North Indian, Chinese", "hours": "9:30am\u201311:30pm(Mon-Sun)", "Cost for two": "\u20b9400"}, {"Name": "Live Chinese Food", "Rating": "3.5", "votes": "75", "location": " Shop 21, Apra Plaza Commercial Belt, Alpha 1, Greater Noida", "Cuisines: ": "Chinese", "hours": "12noon\u201310:30pm(Mon-Sun)", "Cost for two": "\u20b9400"}, {"Name": "The People Lounge", "Rating": "3.5", "votes": "88", "location": " WZ/T1, Kailash Park, Opposite Metro Pillar 328, Moti Nagar, New Delhi", "Cuisines: ": "North Indian, Continental, Chinese, Italian", "hours": "12noon\u201312midnight(Mon-Sun)", "Cost for two": "\u20b91,400"}, {"Name": "Baraamda", "Rating": "3.8", "votes": "207", "location": " PK-A9, Sector 122, Near Sector 72, Noida", "Cuisines: ": "Chinese, North Indian", "hours": "12noon\u201311pm(Mon-Sun)", "Cost for two": "\u20b9700"}, {"Name": "Cafe G - Crowne Plaza", "Rating": "4.0", "votes": "274", "location": " Crowne Plaza, National Highway 8, Sector 29, Gurgaon", "Cuisines: ": "North Indian, Continental, Chinese", "hours": "12noon\u20133pm,7pm\u201311pm(Mon-Sun)", "Cost for two": "\u20b93,500", "Featured in: ": "Sunday Brunches"}]