[{"Name": "Combos Junction", "Rating": "3.0", "votes": "4", "location": " 1/120 A, Old Rajinder Nagar, Shankar Road, Rajinder Nagar, New Delhi", "Cuisines: ": "North Indian, Mughlai, Chinese", "hours": "12noon\u201312midnight(Mon-Sun)", "Cost for two": "\u20b9300"}, {"Name": "Babu Ram Chat", "Rating": "-", "votes": "4", "location": " Shop 19A, Dayanand Road, Daryaganj, New Delhi", "Cuisines: ": "Street Food", "hours": "9am\u201310pm(Mon-Sun)", "Cost for two": "\u20b9100"}, {"Name": "The Grill Room - The Taj Mahal Hotel", "Rating": "2.8", "votes": "13", "location": " The Taj Mahal Hotel, 1, Mansingh Road, New Delhi", "Cuisines: ": "Mediterranean, European", "hours": "7pm\u201311pm(Mon-Sun)", "Cost for two": "\u20b95,000"}, {"Name": "Shahi Kheer House", "Rating": "2.9", "votes": "6", "location": " 1561, 3rd Floor, Gali Aziz Ganj, Azad Market, New Delhi", "Cuisines: ": "Desserts", "hours": "11am\u201310pm(Mon-Sun)", "Cost for two": "\u20b9200"}, {"Name": "Om Chinese Food Juice And Shake Parlour", "Rating": "NEW", "votes": "6", "location": " 4D/13, Old Rajinder Nagar, Near Prakash Dairy, Rajinder Nagar, New Delhi", "Cuisines: ": "Chinese, Fast Food, Beverages", "hours": "11am\u201311pm(Mon-Sun)", "Cost for two": "\u20b9250"}, {"Name": "Chai Chakhna", "Rating": "NEW", "votes": "6", "location": " 2483/9, Ground Floor, Beadon Pura, Karol Bagh, New Delhi", "Cuisines: ": "Tea, Street Food", "hours": "11am\u201311pm(Mon-Sun)", "Cost for two": "\u20b9200"}, {"Name": "Santusti Bhojnalaya", "Rating": "-", "votes": "6", "location": " 4361/4, Ansari Road, Daryaganj, New Delhi", "Cuisines: ": "North Indian", "hours": "9am\u20136pm(Mon-Sun)", "Cost for two": "\u20b9100"}, {"Name": "R K Food", "Rating": "-", "votes": "6", "location": " 2907, Kucha Chelan, Opposite Mother Dairy, Daryaganj, New Delhi", "Cuisines: ": "Desserts", "hours": "10am\u201310pm(Mon-Sun)", "Cost for two": "\u20b9100"}, {"Name": "Mother's Masala", "Rating": "-", "votes": "6", "location": " 2/38, Ansari Road, Daryaganj, New Delhi", "Cuisines: ": "Fast Food, North Indian", "hours": "7am\u201311pm(Mon-Sun)", "Cost for two": "\u20b9350"}, {"Name": "Parantha Point", "Rating": "-", "votes": "6", "location": " Shop 7, Fruit Market, Daya Nand Road, Daryaganj, New Delhi", "Cuisines: ": "North Indian", "hours": "11am\u20134pm(Mon-Sun)", "Cost for two": "\u20b9100"}, {"Name": "Chawla Juice Bar", "Rating": "-", "votes": "6", "location": " Shop 7, Fruit Market, Daryaganj, New Delhi", "Cuisines: ": "Beverages", "hours": "8am\u201310pm(Mon-Sun)", "Cost for two": "\u20b9150"}, {"Name": "SIA Foods", "Rating": "3.3", "votes": "14", "location": " 2/25,Ansari Road,Daryaganj,New delhi", "Cuisines: ": "North Indian", "hours": "11am\u201311pm(Mon-Sun)", "Cost for two": "\u20b9300"}, {"Name": "Standard Chicken Point", "Rating": "-", "votes": "14", "location": " Shop 1768/69, Rajdhani D.D.A. Market, Near Badi Masjid, Turkman Gate, Daryaganj, New Delhi", "Cuisines: ": "North Indian, Fast Food", "hours": "11am\u201312midnight(Mon-Sun)", "Cost for two": "\u20b9300"}, {"Name": "Delicioso Caterer", "Rating": "-", "votes": "14", "location": " 3490, Netaji Subhash Marg, Kucha Lal Man, Daryaganj, New Delhi", "Cuisines: ": "North Indian", "hours": "8am\u201311pm(Mon-Sun)", "Cost for two": "\u20b9150"}, {"Name": "Viceroy - The Coffee Shop", "Rating": "-", "votes": "14", "location": " 19, MGM Club, Ansari Road, Daryaganj, New Delhi", "Cuisines: ": "North Indian, Chinese", "hours": "12noon\u201312midnight(Mon-Sun)", "Cost for two": "\u20b9800"}]