[{"Name": "Champaran's Meat House", "Rating": "3.4", "votes": "75", "location": " I-319, 12th Street, Block I, Beta 2, Greater Noida", "Cuisines: ": "North Indian", "hours": "8am\u20134am(Mon-Sun)", "Cost for two": "\u20b9500"}, {"Name": "Gagan Bakery And Cakes Shop", "Rating": "NEW", "votes": "75", "location": " Shop 15, Street 6, Sainik vihar, Phase 1, Gandhi Chowk, Mohan Garden, Uttam Nagar, New Delhi", "Cuisines: ": "Bakery", "hours": "10am\u20139pm(Mon-Sun)", "Cost for two": "\u20b9350"}, {"Name": "Yo! Samosaa", "Rating": "3.4", "votes": "38", "location": " F-1032, Ground Floor, Near Mahagun Metro Mall, Sector 3, Vaishali, Ghaziabad", "Cuisines: ": "Street Food", "hours": "9am\u201311pm(Mon-Sun)", "Cost for two": "\u20b9150"}, {"Name": "Dauji Sweets & Restaurant", "Rating": "3.6", "votes": "129", "location": " Shop 19 & 20, Roshan Lal Plaza, Patwari, Amrapali Leisure Valley, Noida", "Cuisines: ": "Mithai, Street Food, North Indian, South Indian, Chinese, Ice Cream, Beverages", "hours": "11am\u201310:30pm(Mon-Sun)", "Cost for two": "\u20b9500"}, {"Name": "Baozi Momos", "Rating": "3.3", "votes": "30", "location": " Dwarka Mor Metro Station, Uttam Nagar, New Delhi", "Cuisines: ": "Momos", "hours": "5pm\u201311pm(Mon-Sun)", "Cost for two": "\u20b9200"}, {"Name": "Dosa Junction", "Rating": "2.9", "votes": "115", "location": " SE-20, Singal Pur, Shalimar Bagh, New Delhi", "Cuisines: ": "South Indian", "hours": "10am\u201310pm(Mon-Sun)", "Cost for two": "\u20b9300"}, {"Name": "Jai's Kitchen", "Rating": "3.5", "votes": "52", "location": " B-66, Sector 110, Phase 1, New Palam Vihar, Gurgaon", "Cuisines: ": "South Indian, Chinese, North Indian", "hours": "9am\u20135am(Mon-Sat),5pm\u20135am(Sun)", "Cost for two": "\u20b9200"}, {"Name": "Amrit Hotpot Chinese Food Kitchen", "Rating": "-", "votes": "52", "location": " Darbaripur Road, Sector 69, Near Sohna Road, Gurgaon", "Cuisines: ": "Chinese", "hours": "12noon\u201310pm(Mon-Sun)", "Cost for two": "\u20b9400"}, {"Name": "Pizza Town 21", "Rating": "3.5", "votes": "37", "location": " 28/17, C1, Kasturba Nagar, Shahdara, New Delhi", "Cuisines: ": "Fast Food", "hours": "11am\u20134am(Mon-Sun)", "Cost for two": "\u20b9400"}, {"Name": "Punjabi Chaap Corner", "Rating": "3.6", "votes": "104", "location": " Shop 1 C, 10/28, Sector 15, Rohini, New Delhi", "Cuisines: ": "North Indian, Rolls, Chinese", "hours": "4pm\u201311pm(Mon-Sun)", "Cost for two": "\u20b9350"}, {"Name": "Paranthapur", "Rating": "-", "votes": "104", "location": " SilverKey Executive Stays 39733, 164, Fifth Floor, Rajeev Vihar Khora, Sector 62, Noida", "Cuisines: ": "North Indian, Beverages", "hours": "8am\u20133:30pm,7pm\u201311pm(Mon-Sun)", "Cost for two": "\u20b9200"}, {"Name": "Suman's Rasoi", "Rating": "NEW", "votes": "104", "location": " Flat 002, Wellington Homes, Welcome City, Opposite Modern Public School, Shahberi, Sector 4, Noida", "Cuisines: ": "North Indian", "hours": "8am\u201310pm(Mon-Sun)", "Cost for two": "\u20b9250"}, {"Name": "Chef Cart", "Rating": "3.4", "votes": "16", "location": " Near M2K Mall, Sector 3, Rohini, New Delhi", "Cuisines: ": "Chinese", "hours": "10:30am\u201310:30pm(Mon-Sun)", "Cost for two": "\u20b9350"}, {"Name": "Halki Aanch", "Rating": "3.8", "votes": "155", "location": " D-141, Shopping Mall, Arjun Marg, DLF Phase 1, Gurgaon", "Cuisines: ": "North Indian, Chinese", "hours": "11am\u20133:30pm,6:30pm\u201311pm(Mon-Sun)", "Cost for two": "\u20b9700"}, {"Name": "Planet Yum", "Rating": "-", "votes": "155", "location": " DSM 50, DLF Tower, Shivaji Marg, Moti Nagar, New Delhi", "Cuisines: ": "North Indian, Chinese, Fast Food", "hours": "9am\u20139pm(Mon-Sun)", "Cost for two": "\u20b9200"}]