[{"Name": "Curry 'N' Phulka", "Rating": "2.7", "votes": "210", "location": " 1, Ground Floor, Block C, Vyapar Kendra, Sushant Lok, Gurgaon", "Cuisines: ": "North Indian, Chinese, Rolls", "hours": "11am\u20134pm,6pm\u201311pm(Mon-Sun)", "Cost for two": "\u20b9400"}, {"Name": "Burger Home's", "Rating": "3.8", "votes": "48", "location": " Shop 33, Jangpura Market, Near Eros Cinema, Jangpura, New Delhi", "Cuisines: ": "Burger, Fast Food", "hours": "10am\u201311pm(Mon-Sun)", "Cost for two": "\u20b9400"}, {"Name": "Yadav Ji Ke Mashoor Paranthe", "Rating": "3.0", "votes": "10", "location": " Jagat Farm, Opposite OBC Bank, Gamma 1, Greater Noida", "Cuisines: ": "North Indian", "hours": "10am\u201310pm(Mon-Sun)", "Cost for two": "\u20b9100"}, {"Name": "Mughal-E-Azam", "Rating": "-", "votes": "10", "location": " Opposite H- 168, Sector 41, Noida", "Cuisines: ": "Mughlai, North Indian", "hours": "11am\u201311pm(Mon-Sun)", "Cost for two": "\u20b9900"}, {"Name": "Shri Krishna Sweets", "Rating": "-", "votes": "10", "location": " Shop 1/3, Block J, Near Green Valley Chowk, Sector 41, Noida", "Cuisines: ": "Mithai, North Indian, Chinese", "hours": "10am\u201310pm(Mon-Sun)", "Cost for two": "\u20b9300"}, {"Name": "Kebab Junction", "Rating": "3.5", "votes": "31", "location": " Shop A-75, Ground Floor, Vishal Market, Opposite BSES Office, Tagore Garden Extension, New Delhi", "Cuisines: ": "Fast Food, Kebab, North Indian", "hours": "6pm\u20134am(Mon-Sun)", "Cost for two": "\u20b9300"}, {"Name": "Chilli Thailand Chinese", "Rating": "3.3", "votes": "12", "location": " Stall 03A, 4th Floor, City Square Mall, Rajouri Garden, New Delhi", "Cuisines: ": "Chinese", "hours": "11am\u201310:30pm(Mon-Sun)", "Cost for two": "\u20b9400"}, {"Name": "Palette Nation", "Rating": "3.2", "votes": "7", "location": " Booth 66, Part 2 Market, Sector 15, Gurgaon", "Cuisines: ": "North Indian, Mughlai, Chinese", "hours": "11am\u201311pm(Mon-Sun)", "Cost for two": "\u20b9700"}, {"Name": "Chawla Cake Shop", "Rating": "3.2", "votes": "5", "location": " Shop 14, B 5, DDA Market, Block B, Yamuna Vihar, Shahdara, New Delhi", "Cuisines: ": "Bakery", "hours": "7:30am\u201311pm(Mon-Sun)", "Cost for two": "\u20b9400"}, {"Name": "Aslam Bhai Chicken Corner", "Rating": "3.3", "votes": "16", "location": " R 225, Gali 10, Ramesh Park, Laxmi Nagar, New Delhi", "Cuisines: ": "North Indian", "hours": "6pm\u201311pm(Mon-Sun)", "Cost for two": "\u20b9300"}, {"Name": "Foodie Singh", "Rating": "3.1", "votes": "7", "location": " Shop 45, Ground Floor, Pankaj Central Market, IP Extension, Patparganj, New Delhi", "Cuisines: ": "North Indian, Chinese", "hours": "11am\u201311pm(Mon-Sun)", "Cost for two": "\u20b9300"}, {"Name": "@Calcutta", "Rating": "3.4", "votes": "114", "location": " Shop 1, Shipra Riviera Bazar, Near Gate 8, Gyan Khand III, Indirapuram, Ghaziabad", "Cuisines: ": "Bengali", "hours": "12noon\u201310:30pm(Mon,Wed,Thu,Fri,Sat),Closed...", "Cost for two": "\u20b9650"}, {"Name": "Cafe Mittro", "Rating": "2.2", "votes": "26", "location": " 2, Opposite Sri Venkateshwara College, Satyaniketan, New Delhi", "Cuisines: ": "Chinese, Fast Food, North Indian", "hours": "10am\u201311pm(Mon-Sun)", "Cost for two": "\u20b9250"}, {"Name": "Burger Hills", "Rating": "3.7", "votes": "174", "location": " 10 A, GS 7, Galleria Market 2, Crossing Republik, Ghaziabad", "Cuisines: ": "Fast Food, Chinese", "hours": "12:30pm\u201310:30pm(Mon-Sun)", "Cost for two": "\u20b9300"}, {"Name": "Truly Yours", "Rating": "3.8", "votes": "116", "location": " Khasra 368, Sultanpur, MG Road, New Delhi", "Cuisines: ": "North Indian", "hours": "8:30am\u20134pm(Mon-Sun)", "Cost for two": "\u20b9150"}]