[{"Name": "Ketofy", "Rating": "-", "location": " Shop 1/3, Ground Floor, Plot 1, Block 80, Panchkuian Road, Opposite Metro Pillar 17, RK Ashram, Paharganj, New Delhi", "Cuisines: ": "Healthy Food", "hours": "8am\u20138pm(Mon-Sat),Closed(Sun)", "Cost for two": "\u20b9300"}, {"Name": "Gupta's Food Point", "Rating": "3.1", "location": " Shop 1 & 2, Near Indian Medical Association, ITO Lane, Feroze Shah Road, New Delhi", "Cuisines: ": "North Indian", "hours": "7am\u20135pm(Mon-Sun)", "Cost for two": "\u20b9100", "votes": "6"}, {"Name": "24Seven", "Rating": "-", "location": " 1/7, D.B. Gupta Road, Paharganj, New Delhi", "Cuisines: ": "Fast Food, North Indian", "hours": "24Hours(Mon-Sun)", "Cost for two": "\u20b9250", "votes": "6"}, {"Name": "Copper Restaurant", "Rating": "2.8", "location": " 8494, Arakshan Road, Paharganj, New Delhi", "Cuisines: ": "North Indian, Chinese, Fast Food", "hours": "9am\u201312midnight(Mon-Sun)", "Cost for two": "\u20b9900", "votes": "8"}, {"Name": "Mourya Sweets Chat Bhandar", "Rating": "3.4", "location": " 9922 23/5, Multani Dhanda, Paharganj, New Delhi", "Cuisines: ": "North Indian, Street Food, Mithai", "hours": "8am\u201311pm(Mon-Sun)", "Cost for two": "\u20b9250", "votes": "15"}, {"Name": "Vibha Restaurant", "Rating": "-", "location": " 9835, Multani Danda, Paharganj, New Delhi", "Cuisines: ": "North Indian", "hours": "10am\u201311:30pm(Mon-Sun)", "Cost for two": "\u20b9200", "votes": "15"}, {"Name": "Chinese Fast Food", "Rating": "2.8", "location": " 8302, Gali 4, Multani Danda, Paharganj, New Delhi", "Cuisines: ": "Chinese, Fast Food", "hours": "10am\u201311pm(Mon-Sun)", "Cost for two": "\u20b9300", "votes": "10"}, {"Name": "Kukrukoo", "Rating": "-", "location": " Opposite Rajasthani Murti Kala, Gali 2, Ram Nagar Market, Paharganj, New Delhi", "Cuisines: ": "North Indian", "hours": "9am\u201310pm(Mon-Sun)", "Cost for two": "\u20b9250", "votes": "10"}, {"Name": "Raj Restaurant", "Rating": "3.5", "location": " 8188, Street 6, Multani Danda, Paharganj, New Delhi", "Cuisines: ": "North Indian", "hours": "9:30am\u201310pm(Mon-Sun)", "Cost for two": "\u20b9200", "votes": "20"}, {"Name": "Hello Vegetarian", "Rating": "3.0", "location": " 7971, Arakashan Road, Near Sheela Cinema, Paharganj, New Delhi", "Cuisines: ": "North Indian", "hours": "10am\u201310:30pm(Mon-Sun)", "Cost for two": "\u20b9200", "votes": "7"}, {"Name": "Yadav Vaishno Dhaba", "Rating": "-", "location": " Arakashan Road, Paharganj, New Delhi", "Cuisines: ": "North Indian", "hours": "10am\u201311pm(Mon-Sun)", "Cost for two": "\u20b9200", "votes": "7"}, {"Name": "Aggarwal Sweets", "Rating": "-", "location": " 8563, Arakashan Road, Paharganj, New Delhi", "Cuisines: ": "Mithai, Street Food", "hours": "8:30am\u201310pm(Mon-Sun)", "Cost for two": "\u20b9200", "votes": "7"}, {"Name": "Aggarwal Restaurant", "Rating": "3.3", "location": " 8577, Arakashan Road, Paharganj, New Delhi", "Cuisines: ": "North Indian", "hours": "10am\u201311:30pm(Mon-Sun)", "Cost for two": "\u20b9200", "votes": "19"}, {"Name": "Suvidha Restaurant", "Rating": "-", "location": " 7361 Ram Nagar Babu Ram Solanki Marg, Near New Delhi Railway Station, Paharganj, New Delhi", "Cuisines: ": "North Indian", "hours": "7:30am\u201310:30pm(Mon-Sun)", "Cost for two": "\u20b9650", "votes": "19"}, {"Name": "Irshad Hussain Dhaba", "Rating": "3.3", "location": " BB 94, Ground Floor, Main Market Amar Piri Nabi Karim, Paharganj, New Delhi", "Cuisines: ": "Biryani", "hours": "9am\u201310:30pm(Mon-Sun)", "Cost for two": "\u20b9200", "votes": "15"}]