[{"Name": "The Royal Pizza", "Rating": "3.6", "votes": "35", "location": " Shop 7, Yadav Market, Near BH-92 & Om Public School, Near Sector 70, Sector 71, Noida", "Cuisines: ": "Pizza, Fast Food", "hours": "11am\u201311pm(Mon-Sun)", "Cost for two": "\u20b9500"}, {"Name": "Nutrition Theka", "Rating": "3.6", "votes": "38", "location": " Shop 27, Ground Floor, Crossroad Complex, Nathupur, DLF Phase 3, Gurgaon", "Cuisines: ": "Wraps, Healthy Food", "hours": "7am\u201311pm(Mon-Sun)", "Cost for two": "\u20b9400"}, {"Name": "Deluxe Butter Omlette", "Rating": "4.0", "votes": "136", "location": " G1, Ground Floor, RG Complex 2, Sector 14, Prashant Vihar, Rohini, New Delhi", "Cuisines: ": "Fast Food", "hours": "11am\u201311pm(Mon,Wed,Thu,Fri,Sat,Sun),Closed...", "Cost for two": "\u20b9300"}, {"Name": "Khanasutra", "Rating": "3.6", "votes": "123", "location": " 1st Floor, Ardee Mart, Ardee City, Gurgaon", "Cuisines: ": "North Indian", "hours": "11am\u201311pm(Mon-Sun)", "Cost for two": "\u20b9500"}, {"Name": "The Hangout Rolls", "Rating": "3.8", "votes": "57", "location": " Shop 712, Mangal Bazaar Road, Laxmi Nagar, New Delhi", "Cuisines: ": "Rolls", "hours": "3pm\u20132am(Mon-Sun)", "Cost for two": "\u20b9200"}, {"Name": "Kitchen Swaad", "Rating": "NEW", "votes": "57", "location": " 2nd Floor, Behind Chimes Tower, DLF Phase 4, Gurgaon", "Cuisines: ": "Chinese, North Indian", "hours": "8am\u20134pm(Mon-Sun)", "Cost for two": "\u20b9300"}, {"Name": "Pagdiwala's Sweets And Restaurant", "Rating": "3.8", "votes": "73", "location": " 69-A, Pocket B, Dilshad Garden, New Delhi", "Cuisines: ": "Mithai, North Indian, Chinese, South Indian", "hours": "10am\u201310:30pm(Mon-Sun)", "Cost for two": "\u20b9500"}, {"Name": "Indian Institute Of Taste - IIT", "Rating": "3.2", "votes": "6", "location": " Shop 10 C, Krishna Market, Lajpat Nagar 1, New Delhi", "Cuisines: ": "North Indian", "hours": "11am\u201311pm(Mon,Wed,Thu,Fri,Sat,Sun),Closed...", "Cost for two": "\u20b9500"}, {"Name": "The Tandoor", "Rating": "3.8", "votes": "233", "location": " G 15, D 1, Aashirwaad Complex, Green Park, New Delhi", "Cuisines: ": "North Indian, Mughlai", "hours": "1pm\u20134pm,7pm\u201311pm(Mon-Sun)", "Cost for two": "\u20b9700"}, {"Name": "Aggarwal Sweet Palace", "Rating": "3.6", "votes": "63", "location": " 13, BF Market, Shalimar Bagh, New Delhi", "Cuisines: ": "South Indian, Chinese", "hours": "9am\u20139:45pm(Mon-Sun)", "Cost for two": "\u20b9300"}, {"Name": "Namaste Foodcy...", "Rating": "3.9", "votes": "640", "location": " P- 40/A, Pandav Nagar, Mayur Vihar Phase 1, New Delhi", "Cuisines: ": "Momos, Chinese, North Indian", "hours": "2:30pm\u201310:30pm(Mon-Sun)", "Cost for two": "\u20b9300"}, {"Name": "Kurkure Junction", "Rating": "3.5", "votes": "19", "location": " F-740, Ganesh Nagar, Shakarpur, New Delhi", "Cuisines: ": "Street Food, Beverages", "hours": "11am\u201312midnight(Mon-Sun)", "Cost for two": "\u20b9400"}, {"Name": "Dakshin Bhawan", "Rating": "3.8", "votes": "47", "location": " Shop 99-100, Assotech Business Cresterra, Sector 135, Noida", "Cuisines: ": "South Indian", "hours": "8am\u201311pm(Mon-Sun)", "Cost for two": "\u20b9250"}, {"Name": "Flavourz Factoree", "Rating": "3.9", "votes": "492", "location": " Plot 1, Block A, Gulab Bagh, Near Nawada Metro Station, Opposite Metro Pillar 733, Uttam Nagar, New Delhi", "Cuisines: ": "Fast Food, Chinese, Bakery, Momos", "hours": "12noon\u20139pm(Mon-Sun)", "Cost for two": "\u20b9300"}, {"Name": "Chatkaarevala", "Rating": "3.6", "votes": "19", "location": " 15A, Samman Bazar, Bhogal, Jangpura, New Delhi", "Cuisines: ": "North Indian", "hours": "8:30am\u20139:30pm(Mon-Fri),8am\u20139:30pm(Sat-Sun)", "Cost for two": "\u20b9150"}]