[{"Name": "Veer Ji Naan Wale", "Rating": "3.9", "votes": "411", "location": " Shop-18, A-2, Paschim Vihar, New Delhi", "Cuisines: ": "North Indian", "hours": "11:30am\u20136:30pm,7:30pm\u201311pm(Mon-Sun)", "Cost for two": "\u20b9200"}, {"Name": "Mr Singh's Burger Club", "Rating": "3.3", "votes": "14", "location": " Shop 5/D/98, NIT, Faridabad", "Cuisines: ": "Burger, Wraps", "hours": "2pm\u20135am(Mon-Sun)", "Cost for two": "\u20b9300"}, {"Name": "Waves", "Rating": "3.9", "votes": "222", "location": " A-4, Sarvodaya Enclave, Adchini, New Delhi", "Cuisines: ": "North Indian, Mughlai, Chinese", "hours": "12noon\u201311pm(Mon-Sun)", "Cost for two": "\u20b91,600"}, {"Name": "The Rolls Darbaar", "Rating": "3.5", "votes": "51", "location": " Shop 19, Lower Ground, Alpha Plaza, Alpha 1, Greater Noida", "Cuisines: ": "Rolls, Fast Food", "hours": "12noon\u20134am(Mon-Sun)", "Cost for two": "\u20b9150"}, {"Name": "Food Adda", "Rating": "4.0", "votes": "117", "location": " W1, Navin Shahdara, Shahdara, New Delhi", "Cuisines: ": "Chinese, North Indian", "hours": "10:30am\u201311pm(Mon-Sun)", "Cost for two": "\u20b9300"}, {"Name": "Desi Pizza", "Rating": "3.3", "votes": "15", "location": " H3/169, Sector 16, Rohini, New Delhi", "Cuisines: ": "Pizza, Fast Food", "hours": "5pm\u201311pm(Mon-Sun)", "Cost for two": "\u20b9250"}, {"Name": "Lunch Box", "Rating": "3.1", "votes": "40", "location": " Shop 178, Garg Complex, Jwalaheri Market, Paschim Vihar, New Delhi", "Cuisines: ": "North Indian, Fast Food, South Indian, Chinese", "hours": "7am\u20136am(Mon-Sun)", "Cost for two": "\u20b9400"}, {"Name": "Food Fantasy", "Rating": "3.8", "votes": "474", "location": " P-35-36, Opposite Fine Home Apartments, Mayur Vihar Phase 1, New Delhi", "Cuisines: ": "North Indian, Chinese, Biryani", "hours": "11am\u20134pm,6pm\u201311pm(Mon-Sun)", "Cost for two": "\u20b9550"}, {"Name": "Pritam Dhaba", "Rating": "3.7", "votes": "110", "location": " 2H, Shashtri Colony, NIT-2, NIT, Faridabad", "Cuisines: ": "North Indian", "hours": "11am\u20134pm,6:30pm\u201311pm(Mon-Sun)", "Cost for two": "\u20b9300"}, {"Name": "Cafe 99", "Rating": "4.2", "votes": "317", "location": " Shop 24, GC Grand Street, Opposite Aditya Mega City, Gate 2, Indirapuram, Ghaziabad", "Cuisines: ": "Cafe, Fast Food, Chinese, Desserts, Beverages", "hours": "11am\u201311pm(Mon-Sun)", "Cost for two": "\u20b9900"}, {"Name": "Nukkadwala", "Rating": "3.6", "votes": "191", "location": " Building 5, Tower B, Ground Floor, DLF Cyber City, Gurgaon", "Cuisines: ": "Fast Food, Street Food", "hours": "8am\u201310pm(Mon-Sat),Closed(Sun)", "Cost for two": "\u20b9400"}, {"Name": "Shehnai", "Rating": "3.5", "votes": "139", "location": " B-70, 71, Nehru Ground, Near Head Post, Near Frontier Colony, NIT, Faridabad", "Cuisines: ": "North Indian", "hours": "12noon\u20134pm,7pm\u201311pm(Mon-Sun)", "Cost for two": "\u20b9450"}, {"Name": "Underpass", "Rating": "3.8", "votes": "231", "location": " Plot 1, Flyover Market, Defence Colony, New Delhi", "Cuisines: ": "North Indian, Italian, Chinese", "hours": "11am\u20131am(Mon-Sun)", "Cost for two": "\u20b91,200", "Featured in: ": "Pocket Friendly Bars"}, {"Name": "Kerala Hotel", "Rating": "3.9", "votes": "271", "location": " 211-A, Mohan Singh Market, INA Market, INA, New Delhi", "Cuisines: ": "Kerala, Biryani", "hours": "8:30am\u201310pm(Mon-Sun)", "Cost for two": "\u20b9400", "Featured in: ": "Pocket Friendly Bars"}, {"Name": "Khansama Express", "Rating": "4.3", "votes": "250", "location": " CG-55, Unitech Arcadia, South City 2, Gurgaon", "Cuisines: ": "North Indian, Chinese, Mughlai", "hours": "11am\u201311pm(Mon-Sun)", "Cost for two": "\u20b9550", "Featured in: ": "Pocket Friendly Bars"}]