[{"Name": "Steam Spring", "Rating": "-", "location": " Room 2, 50/32, 33, U Block, DLF Phase 3, Gurgaon", "Cuisines: ": "Fast Food, Chinese", "hours": "5:30pm\u201310:30pm(Mon-Sun)", "Cost for two": "\u20b9400"}, {"Name": "Bhole Baba Restaurant & Tiffin Service", "Rating": "3.1", "location": " Shop 3, S Block, DLF Phase 3, Gurgaon", "Cuisines: ": "North Indian, Chinese", "hours": "8am\u201311pm(Mon-Sun)", "Cost for two": "\u20b9400", "votes": "4"}, {"Name": "Apna Bar", "Rating": "3.0", "location": " C-9, 1st Floor, Om Vihar, Opposite Pillar 702, Uttam Nagar, New Delhi", "Cuisines: ": "Bar Food", "hours": "11am\u201312midnight(Mon-Sun)", "Cost for two": "\u20b91,100", "votes": "5"}, {"Name": "N.R. Soya Chaap Point", "Rating": "NEW", "location": " Main Market, Sector 15, Faridabad", "Cuisines: ": "North Indian, Fast Food", "hours": "10am\u201310pm(Mon-Sun)", "Cost for two": "\u20b9250", "votes": "5"}, {"Name": "Ahmad Muradabad Chicken Corner", "Rating": "3.7", "location": " Opposite Bachpan Play School, Green Field Colony, Sector 43, Faridabad", "Cuisines: ": "Biryani, North Indian", "hours": "11am\u201311pm(Mon-Sun)", "Cost for two": "\u20b9300", "votes": "100"}, {"Name": "Gujrat Pav Bhaji", "Rating": "3.5", "location": " 2D-11, Tikona Park NIT, Faridabad", "Cuisines: ": "Street Food", "hours": "6pm\u201311pm(Mon-Sun)", "Cost for two": "\u20b9200", "votes": "51"}, {"Name": "Lookacteast Kitchen", "Rating": "3.6", "location": " 22, Dilli Haat, Opposite INA Market, INA, New Delhi", "Cuisines: ": "Chinese, North Eastern", "hours": "10:15am\u20139pm(Mon-Sun)", "Cost for two": "\u20b91,300", "votes": "86"}, {"Name": "Tail Club", "Rating": "3.4", "location": " Raisina Road, Sector 59, Near Sector 56, Gurgaon", "Cuisines: ": "Healthy Food, Salad", "hours": "Closed(Mon),7am\u201311am,5pm\u20139pm(Tue-Sun)", "Cost for two": "\u20b9500", "votes": "11"}, {"Name": "Lovely Ki Rasoi", "Rating": "NEW", "location": " A-20/21, Adarsh Nagar, Sector 2, Dwarka, New Delhi", "Cuisines: ": "North Indian", "hours": "7am\u20134am(Mon-Sun)", "Cost for two": "\u20b9350", "votes": "11"}, {"Name": "Chicken Changeji Wale", "Rating": "-", "location": " A-6, Krishna Garden, NDRF Road, Govind Puram, Ghaziabad", "Cuisines: ": "North Indian, Chinese, Hyderabadi", "hours": "10am\u201311pm(Mon-Sun)", "Cost for two": "\u20b9400", "votes": "11"}, {"Name": "Aggarwal Sweet Shop", "Rating": "2.4", "location": " 8, Y 349C, Royal Paradise Shopping Complex, Near Sabzi Mandi, Sector 12, Noida", "Cuisines: ": "Mithai, Street Food", "hours": "9am\u20138pm(Mon-Sun)", "Cost for two": "\u20b9100", "votes": "43"}, {"Name": "Food And Dood", "Rating": "-", "location": " C-332, Shalimar Garden Extension 2, Sahibabad, Ghaziabad", "Cuisines: ": "North Indian, Chinese", "hours": "9am\u201310pm(Mon-Sun)", "Cost for two": "\u20b9300", "votes": "43"}, {"Name": "Thali Master", "Rating": "3.3", "location": " LGF-5, Ajnara Arcade, Crossing Republik, Ghaziabad", "Cuisines: ": "North Indian, Chinese, South Indian", "hours": "11am\u201311pm(Mon-Sun)", "Cost for two": "\u20b9400", "votes": "39"}, {"Name": "Mid Night Khana", "Rating": "3.5", "location": " Delivery Only", "Cuisines: ": "North Indian, Fast Food", "hours": "10pm\u20136am(Mon-Sun)", "Cost for two": "\u20b9400", "votes": "80"}, {"Name": "P:YO - The Micro Juicery", "Rating": "4.2", "location": " Shop 2, Ground Floor, Vipul Plaza, Sector 54, Gurgaon", "Cuisines: ": "Beverages, Juices, Healthy Food", "hours": "9:30am\u20138:30pm(Mon-Sun)", "Cost for two": "\u20b9400", "votes": "135", "Featured in: ": "Counting Calories? Try These Places"}]