[{"Name": "Players Family Restaurant & Cafe", "Rating": "NEW", "location": " Shop 2, Near Jivan Joti Hospital, Shiv Chowk, Rajeev Nagar, Sector 12, Gurgaon", "Cuisines: ": "North Indian, Fast Food, Chinese", "hours": "4pm\u20134am(Mon-Sun)", "Cost for two": "\u20b9400"}, {"Name": "Hot Plate", "Rating": "3.5", "location": " A-36, Bindapur, Pankha Road, Janakpuri, New Delhi", "Cuisines: ": "Chinese, North Indian, Fast Food", "hours": "7pm\u20137:30am(Mon-Sun)", "Cost for two": "\u20b9500", "votes": "24"}, {"Name": "Delhi Pizza Bite", "Rating": "3.1", "location": " Shop F-2, S.G.M Nagar, Patel Chowk, Badkal Lake, Faridabad", "Cuisines: ": "Pizza", "hours": "11am\u201311pm(Mon-Sun)", "Cost for two": "\u20b9200", "votes": "6"}, {"Name": "Red Dragon", "Rating": "3.5", "location": " Shop 18, Sector 21C, Sector 21, Faridabad", "Cuisines: ": "Momos", "hours": "5pm\u201310:30pm(Mon,Wed,Thu,Fri,Sat,Sun)...", "Cost for two": "\u20b9200", "votes": "22"}, {"Name": "Teasta - The Tea Shop", "Rating": "3.8", "location": " B-96A, B Block, Gardenia Glory, sector 45 Near Sector 45, Noida", "Cuisines: ": "Tea, Fast Food, Beverages", "hours": "11am\u201310pm(Mon-Sun)", "Cost for two": "\u20b9200", "votes": "95"}, {"Name": "La Waffle", "Rating": "3.8", "location": " Pillar 422, Z/9, Rajouri Garden, New Delhi", "Cuisines: ": "Desserts", "hours": "12noon\u20134am(Mon-Sun)", "Cost for two": "\u20b9300", "votes": "111"}, {"Name": "Shalimar Vyanjan", "Rating": "3.7", "location": " AJ 52A, Block AH, Shaheed Udham Singh Marg, Shalimar Bagh, Delhi", "Cuisines: ": "North Indian, Chinese", "hours": "12noon\u20135pm,6pm\u201311pm(Mon-Sun)", "Cost for two": "\u20b9400", "votes": "88"}, {"Name": "Kaushik Bakery", "Rating": "3.7", "location": " Shop 58, SCF Complex, Huda Market, Sector 7, Faridabad", "Cuisines: ": "Bakery", "hours": "8am\u201310:30pm(Mon-Sun)", "Cost for two": "\u20b9200", "votes": "138"}, {"Name": "Delhi Baking Company - JW Marriott New Delhi", "Rating": "4.1", "location": " JW Marriott Delhi NCR, Asset Area 4, Hospitality District, Aerocity, New Delhi", "Cuisines: ": "Bakery, Cafe", "hours": "8am\u201310pm(Mon-Sun)", "Cost for two": "\u20b92,500", "votes": "175"}, {"Name": "Chamunda Cafe", "Rating": "3.4", "location": " 22, Okhla Industrial Estate, Okhla Phase 3, New Delhi", "Cuisines: ": "North Indian", "hours": "8am\u20139:30pm(Mon-Sun)", "Cost for two": "\u20b9400", "votes": "37"}, {"Name": "Pizza Ghar", "Rating": "3.5", "location": " L17, Bandh Road, Sangam Vihar, Khanpur, New Delhi", "Cuisines: ": "Pizza", "hours": "11am\u201311pm(Mon-Sun)", "Cost for two": "\u20b9600", "votes": "40"}, {"Name": "Gulshan Dhaba", "Rating": "4.0", "location": " 49-50 Milestone, GT Road, Murthal, New Delhi", "Cuisines: ": "North Indian", "hours": "24Hours(Mon-Sun)", "Cost for two": "\u20b9500", "votes": "199"}, {"Name": "Spice of Life", "Rating": "3.5", "location": " B 192, Shop 3, Chhatarpur Enclave, Phase 2, Chhatarpur, New Delhi", "Cuisines: ": "North Indian, Chinese, Mughlai", "hours": "12noon\u20134pm,6pm\u201311pm(Mon-Sun)", "Cost for two": "\u20b9600", "votes": "150"}, {"Name": "Penta 9", "Rating": "3.2", "location": " Shop 16, Ground Floor, LSC Derawal Nagar, Gujranwala Town, New Delhi", "Cuisines: ": "Street Food", "hours": "8am\u20132pm(Mon-Sun)", "Cost for two": "\u20b9150", "votes": "6"}, {"Name": "Tikka Junction", "Rating": "3.1", "location": " Delivery Only", "Cuisines: ": "North Indian, Mughlai, Chinese, Seafood", "hours": "12noon\u201311pm(Mon-Sun)", "Cost for two": "\u20b9600", "votes": "9"}]