[{"Name": "Dr. Bubbles", "Rating": "4.0", "votes": "150", "location": " Shop 148, Main Market, Sector 31, Gurgaon", "Cuisines: ": "Beverages, Desserts", "hours": "11am\u201311pm(Mon-Sun)", "Cost for two": "\u20b9300"}, {"Name": "Delhi59", "Rating": "3.2", "votes": "52", "location": " Plot 137, Shop 6, Main Balaji Chowk, Defence Enclave, Uttam Nagar, New Delhi", "Cuisines: ": "North Indian, Chinese", "hours": "11am\u201312midnight(Mon-Sun)", "Cost for two": "\u20b9400"}, {"Name": "Tandoori's Junction", "Rating": "3.5", "votes": "25", "location": " 1J /40, Near Nathi Chowk, NIT, Faridabad", "Cuisines: ": "North Indian, Chinese, Rolls", "hours": "2pm\u201311pm(Mon-Sun)", "Cost for two": "\u20b9300"}, {"Name": "Vanshika Gupta Paratha", "Rating": "3.6", "votes": "140", "location": " D-15, Bhai Ji Market, Near Bishanpura Village, Sector 58, Noida", "Cuisines: ": "Chinese, North Indian", "hours": "11am\u20132:30am(Mon,Tue,Thu,Fri,Sat,Sun)...", "Cost for two": "\u20b9250"}, {"Name": "Bakery Wala - The Cake Shop", "Rating": "3.8", "votes": "175", "location": " B-6/151, Near Kendriya Vidyalaya, Sector 8, Rohini, New Delhi", "Cuisines: ": "Bakery, Chinese, Fast Food, Momos", "hours": "9am\u201310:30pm(Mon-Sun)", "Cost for two": "\u20b9350"}, {"Name": "Garden Hut", "Rating": "3.6", "votes": "51", "location": " Maharaja Surajmal Samadhi Park, Opposite C Block, Suraj Mal Vihar, Anand Vihar, New Delhi", "Cuisines: ": "Chinese, Fast Food", "hours": "9am\u201310pm(Mon-Sun)", "Cost for two": "\u20b9300"}, {"Name": "Grub Pub", "Rating": "3.7", "votes": "230", "location": " E-11, Hauz Khas Main Market, Hauz Khas, New Delhi", "Cuisines: ": "Chinese", "hours": "11am\u201310:30pm(Mon-Sun)", "Cost for two": "\u20b91,000"}, {"Name": "Bake Club", "Rating": "3.7", "votes": "119", "location": " 23/5-B, East Patel Nagar, New Delhi", "Cuisines: ": "Bakery", "hours": "9:30am\u20139:30pm(Mon-Sun)", "Cost for two": "\u20b9250"}, {"Name": "Baba Hotel", "Rating": "3.4", "votes": "34", "location": " Shop 1, Bansal Market, Dilshad Garden, New Delhi", "Cuisines: ": "North Indian", "hours": "9am\u20131am(Mon-Sat),9am\u20132am(Sun)", "Cost for two": "\u20b9350"}, {"Name": "Classic Kitchen", "Rating": "3.3", "votes": "13", "location": " G 110, Ground Floor, Sector 63, Noida", "Cuisines: ": "North Indian, Chinese", "hours": "11am\u201311pm(Mon-Sun)", "Cost for two": "\u20b9450"}, {"Name": "Malgudi Hut", "Rating": "3.1", "votes": "319", "location": " Shop 104, Mahagun Mart, Crossing Republik, Ghaziabad", "Cuisines: ": "North Indian, Chinese, Momos", "hours": "11am\u20131am(Mon-Sun)", "Cost for two": "\u20b9300"}, {"Name": "Paranthe Waali Gali", "Rating": "3.3", "votes": "23", "location": " House 8, Part 1, Sector 15, Gurgaon", "Cuisines: ": "North Indian, Chinese, South Indian", "hours": "10am\u20132am(Mon-Sun)", "Cost for two": "\u20b9350"}, {"Name": "Pappu Di Hatti", "Rating": "3.4", "votes": "56", "location": " C2/13-14, DDA Market, Mangolpuri, Rohini, New Delhi", "Cuisines: ": "North Indian, Chinese, Fast Food", "hours": "12noon\u201312midnight(Mon-Sun)", "Cost for two": "\u20b9300"}, {"Name": "Food Fire", "Rating": "4.0", "votes": "132", "location": " Shop 12, Opposite Paras Tierea Gate 2, Shadara, Sector 141, Noida", "Cuisines: ": "Pizza, Fast Food, Continental", "hours": "10am\u20131am(Mon-Sun)", "Cost for two": "\u20b9500"}, {"Name": "Flirty Momo's", "Rating": "3.5", "votes": "112", "location": " E-361, Main Chowk, Near Tilak Market, Ramesh Nagar, Kirti Nagar, New Delhi", "Cuisines: ": "Momos, Chinese, Rolls", "hours": "12:30pm\u201311:30pm(Mon-Sun)", "Cost for two": "\u20b9300"}]