[{"Name": "Tasty Bite", "Rating": "3.6", "votes": "80", "location": " Khasra 830, 1/1 Upkar Colony, Burari Sant Nagar, Near Azadpur, New Delhi", "Cuisines: ": "North Indian, Chinese", "hours": "11am\u201311pm(Mon-Sun)", "Cost for two": "\u20b9500"}, {"Name": "Chinese By Isabella", "Rating": "3.6", "votes": "85", "location": " Ground Floor, Food Court, Tower C, Cyber Greens, DLF Cyber City, Gurgaon", "Cuisines: ": "Chinese, Momos", "hours": "11am\u201312midnight(Mon-Sun)", "Cost for two": "\u20b9700"}, {"Name": "Punjab Corner", "Rating": "-", "votes": "85", "location": " Ground Floor U 9/27, DLF Phase 3, Gurgaon", "Cuisines: ": "Rolls, Biryani", "hours": "11am\u201312midnight(Mon-Sun)", "Cost for two": "\u20b9250"}, {"Name": "Too American", "Rating": "3.9", "votes": "65", "location": " G77 - G84 Near M2K Aggarwal City Plaza, Sector 3, Rohini, New Delhi", "Cuisines: ": "Fast Food", "hours": "12noon\u20134am(Mon-Sun)", "Cost for two": "\u20b9450"}, {"Name": "Mini's Royal Cafe", "Rating": "3.7", "votes": "74", "location": " Krishna Colony Corner, Near Taneja Hospital, New Colony, Old Railway Road, Gurgaon", "Cuisines: ": "North Indian, Chinese", "hours": "11am\u20134pm,6pm\u201311pm(Mon,Wed,Thu,Fri,Sat...", "Cost for two": "\u20b9600"}, {"Name": "Pasta Cafe", "Rating": "3.4", "votes": "27", "location": " 20, Shop 2, Sawanpark, Ashok Vihar Phase 3, New Delhi", "Cuisines: ": "Fast Food", "hours": "11am\u20134am(Mon-Sun)", "Cost for two": "\u20b9400"}, {"Name": "The UK Chefs", "Rating": "3.5", "votes": "37", "location": " House 150, Near Shiv Mandir, Sikandarpur, Gurgaon", "Cuisines: ": "North Indian, Mughlai, Chinese", "hours": "12noon\u20131am(Mon-Sun)", "Cost for two": "\u20b9500"}, {"Name": "Jain Fast Food Corner", "Rating": "3.2", "votes": "255", "location": " U8/23-24, Shop 1, Behind Rapid Metro Station, U Block Market, DLF Phase 3, Gurgaon", "Cuisines: ": "Street Food, North Indian", "hours": "7am\u201311pm(Mon-Sun)", "Cost for two": "\u20b9100"}, {"Name": "The Cone Pizza", "Rating": "2.8", "votes": "20", "location": " Shop 2, Street 8, Jyoti Park, Sector 7, Gurgaon", "Cuisines: ": "Pizza, Fast Food", "hours": "9:30am\u201310:30pm(Mon),9:30am\u201311:30pm...", "Cost for two": "\u20b9300"}, {"Name": "First Choice", "Rating": "2.9", "votes": "37", "location": " 77, Main Vasant Kunj Road, Near IDBI Bank, Mahipalpur, New Delhi", "Cuisines: ": "North Indian, Chinese, South Indian, Mughlai", "hours": "11am\u20134pm,6:30pm\u201312midnight(Mon-Sun)", "Cost for two": "\u20b9500"}, {"Name": "Pishori Chicken & Kabab", "Rating": "3.4", "votes": "40", "location": " Shop 22, Opposite Rama Krishna Apartment, Sector 23, Dwarka, New Delhi", "Cuisines: ": "Mughlai", "hours": "5:30pm\u201310:30pm(Mon,Wed,Thu,Fri,Sat,Sun)...", "Cost for two": "\u20b9250"}, {"Name": "Omnos Pizza", "Rating": "3.3", "votes": "14", "location": " Delivery Only", "Cuisines: ": "Pizza, Fast Food", "hours": "10am\u201310pm(Mon-Sun)", "Cost for two": "\u20b9300"}, {"Name": "King's Chaap", "Rating": "3.6", "votes": "27", "location": " Shop 51, KB Complex, Alpha 2, Greater Noida", "Cuisines: ": "North Indian, Rolls", "hours": "12noon\u201311pm(Mon-Sun)", "Cost for two": "\u20b9300"}, {"Name": "Tanya Bakes", "Rating": "3.8", "votes": "122", "location": " A-304, Bhagyawan Apartments, Acharya Niketan, Mayur Vihar Phase 1, New Delhi", "Cuisines: ": "Desserts, Bakery", "hours": "10am\u201310pm(Mon-Sun)", "Cost for two": "\u20b9500"}, {"Name": "Bhaturewalas", "Rating": "3.4", "votes": "24", "location": " Block C, Shopping Planet, Sector 48, Noida", "Cuisines: ": "Street Food", "hours": "9am\u20139pm(Mon-Sun)", "Cost for two": "\u20b9200"}]