[{"Name": "Khushbu Dhaba", "Rating": "NEW", "location": " C-24, Single Story, Opposite Old Gupta Colony, Vijay Nagar, New Delhi", "Cuisines: ": "North Indian", "hours": "11am\u20134am(Mon-Sun)", "Cost for two": "\u20b9200"}, {"Name": "Singh Bakers", "Rating": "3.8", "location": " 659, Rani Bagh, Pitampura, New Delhi", "Cuisines: ": "Bakery, Fast Food", "hours": "11am\u20139pm(Mon-Sun)", "Cost for two": "\u20b9200", "votes": "56"}, {"Name": "Wok Chow", "Rating": "NEW", "location": " Main Market, Malviya Nagar, New Delhi", "Cuisines: ": "Chinese", "hours": "11am\u201311pm(Mon-Sun)", "Cost for two": "\u20b9200", "votes": "56"}, {"Name": "Shree Maakhan", "Rating": "3.3", "location": " Shop 548, Site 1, Vikaspuri, New Delhi", "Cuisines: ": "North Indian, South Indian, Chinese, Street Food, Desserts, Beverages", "hours": "11am\u201311pm(Mon-Sun)", "Cost for two": "\u20b9400", "votes": "18"}, {"Name": "Yo Paaji Foods", "Rating": "NEW", "location": " E-1, Ganesh Nagar, Pandav Nagar Complex, Near Akshardham Metro Station, Pandav Nagar, New Delhi", "Cuisines: ": "North Indian", "hours": "4pm\u201311pm(Mon-Sun)", "Cost for two": "\u20b9300", "votes": "18"}, {"Name": "Thyme - The Umrao", "Rating": "3.9", "location": " The Umrao, National Highway 8, Kapashera, New Delhi", "Cuisines: ": "North Indian, Chinese, Continental", "hours": "24Hours(Mon-Sun)", "Cost for two": "\u20b92,000", "votes": "338"}, {"Name": "Chinese Bowl", "Rating": "4.0", "location": " F1/9, Shop 5, Mandir Marg, Krishna Nagar, New Delhi", "Cuisines: ": "Chinese, Fast Food", "hours": "11am\u201312midnight(Mon-Sun)", "Cost for two": "\u20b9300", "votes": "104"}, {"Name": "Dhaba At Atta", "Rating": "4.1", "location": " G-56, 1st Floor, Sector 18, Noida", "Cuisines: ": "North Indian, Chinese", "hours": "12noon\u201312midnight(Mon-Sun)", "Cost for two": "\u20b91,000", "votes": "986"}, {"Name": "The Momoz Hub", "Rating": "3.8", "location": " J-93, Main Market, Rajouri Garden, New Delhi", "Cuisines: ": "Chinese, Momos, Fast Food", "hours": "12noon\u201312midnight(Mon-Sun)", "Cost for two": "\u20b9400", "votes": "314"}, {"Name": "Wah Ji Wah", "Rating": "3.5", "location": " Shop 1, J Block, DDA Commercial Complex, Rajouri Garden, New Delhi", "Cuisines: ": "North Indian, Mughlai", "hours": "12noon\u20133am(Mon-Sun)", "Cost for two": "\u20b9500", "votes": "73"}, {"Name": "Homefood Company", "Rating": "3.8", "location": " O 11B, Lajpat Nagar 2, New Delhi", "Cuisines: ": "North Indian", "hours": "12noon\u201311pm(Mon-Sun)", "Cost for two": "\u20b9400", "votes": "430"}, {"Name": "Upgrade Kitchen & Bar", "Rating": "3.7", "location": " Shop 42, 43, 44, 1st Floor, Community Center, New Friends Colony, New Delhi", "Cuisines: ": "North Indian", "hours": "11:30am\u201312midnight(Mon-Sun)", "Cost for two": "\u20b91,600", "votes": "126"}, {"Name": "Paratha King", "Rating": "3.6", "location": " Near Gol Chakkar, Crossing Republik, Ghaziabad", "Cuisines: ": "North Indian", "hours": "10am\u201310:30pm(Mon-Sun)", "Cost for two": "\u20b9300", "votes": "157"}, {"Name": "People's Cafe", "Rating": "4.2", "location": " B131, Supermart 1, DLF Phase 4, Gurgaon", "Cuisines: ": "Healthy Food, Sandwich, North Indian, Beverages", "hours": "8:30am\u201311:30pm(Mon-Sun)", "Cost for two": "\u20b9600", "votes": "140"}, {"Name": "Yakka's Family Restaurant", "Rating": "3.6", "location": " Plot 281, Opposite Ramprastha Green Road, Sector 4, Vaishali, Ghaziabad", "Cuisines: ": "North Indian, Chinese", "hours": "11am\u201311pm(Mon-Sun)", "Cost for two": "\u20b9900", "votes": "46", "Featured in: ": "Get flat 40% OFF"}]