[{"Name": "Cake Walkers", "Rating": "3.3", "votes": "422", "location": " I -31, Kirti Nagar, New Delhi", "Cuisines: ": "Cafe, Continental, Bakery, Chinese, Desserts", "hours": "11am\u201312midnight(Mon-Sun)", "Cost for two": "\u20b9300"}, {"Name": "Shri Falam", "Rating": "3.5", "votes": "34", "location": " Shop 31, Assotech Business Cresterra, Sector 135, Noida", "Cuisines: ": "Chinese, North Indian, Bakery", "hours": "10am\u201311pm(Mon-Sun)", "Cost for two": "\u20b9550"}, {"Name": "Bangalian", "Rating": "3.6", "votes": "47", "location": " Flat 227, Netaji Subhash Apartment, Phase 1, Sector 13, Dwarka, New Delhi", "Cuisines: ": "Bengali", "hours": "8am\u20139pm(Mon-Sun)", "Cost for two": "\u20b9300"}, {"Name": "Non-Veg Dot Com", "Rating": "3.8", "votes": "72", "location": " Delivery Only", "Cuisines: ": "Kebab, North Indian", "hours": "6pm\u201311pm(Mon,Wed,Thu,Fri,Sun),Closed...", "Cost for two": "\u20b9300"}, {"Name": "Lifeline Food", "Rating": "NEW", "votes": "72", "location": " RZ 63, Sayed Village, Paschim Vihar, New Delhi", "Cuisines: ": "North Indian, Chinese", "hours": "10am\u20138pm(Mon-Sun)", "Cost for two": "\u20b9250"}, {"Name": "Hungry Zombies", "Rating": "3.5", "votes": "171", "location": " Dwarka Mor Metro Station, Gate 2, Sewak Park, Sector 2, Dwarka, New Delhi", "Cuisines: ": "North Indian, Chinese, Mughlai, Fast Food, Beverages", "hours": "5pm\u20134am(Mon-Sun)", "Cost for two": "\u20b9500"}, {"Name": "Bella's Kitchen", "Rating": "NEW", "votes": "171", "location": " Shop G-1, VXL, Eastern Gate, Sector 4, Vasundhara, Ghaziabad", "Cuisines: ": "North Indian, Chinese", "hours": "12noon\u201311pm(Mon-Sun)", "Cost for two": "\u20b9500"}, {"Name": "The Qilaa", "Rating": "3.7", "votes": "55", "location": " Shop 71, Global Foyer Mall, Palam Vihar, Gurgaon", "Cuisines: ": "Lucknowi", "hours": "2pm\u201312:30am(Mon-Sun)", "Cost for two": "\u20b9400"}, {"Name": "Chinese Delight", "Rating": "3.6", "votes": "24", "location": " Kishan Lal Complex, Sector 52, South City 2, Gurgaon", "Cuisines: ": "Chinese", "hours": "10:30am\u201311:30pm(Mon-Sun)", "Cost for two": "\u20b9450"}, {"Name": "Delhi Delights", "Rating": "4.0", "votes": "116", "location": " M-67, Near Tikona Park, Khirki Extension, Malviya Nagar, New Delhi", "Cuisines: ": "North Indian, Chinese, Mughlai", "hours": "11am\u20134am(Mon-Sun)", "Cost for two": "\u20b9600"}, {"Name": "Captain Katora", "Rating": "3.7", "votes": "87", "location": " B-3/43-A, Near Bhajanpura Petrol Pump, Yamuna Vihar, Near Shahdara, New Delhi", "Cuisines: ": "North Indian, Chinese, Continental", "hours": "11am\u201311pm(Mon-Sun)", "Cost for two": "\u20b9600"}, {"Name": "Kuldeep Paranthe Wala", "Rating": "4.0", "votes": "176", "location": " 46/16, Near Gate 1, Green Park Metro Station, Yusuf Sarai, New Delhi", "Cuisines: ": "North Indian", "hours": "4:30am\u201311:30pm(Mon-Sun)", "Cost for two": "\u20b9250"}, {"Name": "Uncle Chef", "Rating": "3.5", "votes": "221", "location": " 3, Krishna Market, Opposite Desh Bandhu College, Kalkaji, New Delhi", "Cuisines: ": "Chinese, Fast Food", "hours": "11am\u201311pm(Mon-Sun)", "Cost for two": "\u20b9200"}, {"Name": "Radha Swami Vaishno Dhaba", "Rating": "3.7", "votes": "139", "location": " C-23, Near Pali Factory, Uttam Nagar East, Uttam Nagar, New Delhi", "Cuisines: ": "North Indian", "hours": "12noon\u20134pm,7pm\u201311pm(Mon-Sun)", "Cost for two": "\u20b9200"}, {"Name": "Jolly Nizams", "Rating": "4.0", "votes": "289", "location": " Shop 1, Ground Floor, Block 2, Paras Tierea, Near Sector 132, Sector 137, Noida", "Cuisines: ": "Hyderabadi, North Indian, Biryani", "hours": "11:30am\u201311:30pm(Mon-Sun)", "Cost for two": "\u20b9500"}]