[{"Name": "Slay Coffee", "Rating": "3.6", "votes": "13", "location": " Delivery Only", "Cuisines: ": "Coffee, Beverages, Fast Food", "hours": "8:30am\u20132am(Mon-Sun)", "Cost for two": "\u20b9300"}, {"Name": "Munchin Cafe", "Rating": "4.0", "votes": "217", "location": " RN-11, Sector 62, Noida", "Cuisines: ": "Cafe, Mexican, Japanese, Italian, Chinese", "hours": "11:30am\u201310:30pm(Mon-Sun)", "Cost for two": "\u20b9900"}, {"Name": "Hashtag Restro & Bar", "Rating": "4.1", "votes": "82", "location": " M-40, Greater Kailash 2 (GK 2), New Delhi", "Cuisines: ": "North Indian, Continental, Chinese", "hours": "12noon\u201312:30am(Mon-Sun)", "Cost for two": "\u20b91,700"}, {"Name": "Tandoori Chaap Corner", "Rating": "NEW", "votes": "82", "location": " Shop 3, House 7, Opposite Happy English School, Patparganj Road, Shivpuri, Krishna Nagar, New Delhi", "Cuisines: ": "North Indian, Chinese, Rolls", "hours": "12noon\u20133am(Mon-Sun)", "Cost for two": "\u20b9350"}, {"Name": "Pooja Take Away Kitchen", "Rating": "2.9", "votes": "70", "location": " 36 A, Safdarjung Enclave, Safdarjung, New Delhi", "Cuisines: ": "North Indian, Chinese", "hours": "9:30am\u20131am(Mon-Sun)", "Cost for two": "\u20b9400"}, {"Name": "Yaari Caf\u00e9", "Rating": "3.9", "votes": "170", "location": " Plot 31, Ground Floor, Pocket 12, Sector 24, Rohini, New Delhi", "Cuisines: ": "Cafe, Italian", "hours": "10am\u201310pm(Mon,Thu,Fri,Sat,Sun),8am\u2013...", "Cost for two": "\u20b9400"}, {"Name": "Khaane Ki Dukaan", "Rating": "3.5", "votes": "390", "location": " B 116, Greenfield Colony, Mall Road, Sector 43, Faridabad", "Cuisines: ": "North Indian, Mughlai, Chinese, Biryani", "hours": "12noon\u201312midnight(Mon-Sun)", "Cost for two": "\u20b9500"}, {"Name": "Goldy Fast Food Corner", "Rating": "3.7", "votes": "108", "location": " 5D Block, Near Gurudwara Road, NIT, Faridabad", "Cuisines: ": "North Indian, Chinese", "hours": "5pm\u201310pm(Mon-Sun)", "Cost for two": "\u20b9250"}, {"Name": "Hyderabadi Bawarchi", "Rating": "3.7", "votes": "70", "location": " U28, Sector 10, Dwarka, New Delhi", "Cuisines: ": "Hyderabadi, North Indian, Biryani, Andhra", "hours": "11am\u20131am(Mon-Tue),11am\u20134am(Wed,Fri,Sat...", "Cost for two": "\u20b9600"}, {"Name": "Soody's", "Rating": "3.5", "votes": "10", "location": " Near Guru Dronacharya Metro Station, DLF Phase 3, Gurgaon", "Cuisines: ": "South Indian", "hours": "11am\u201311pm(Mon-Sun)", "Cost for two": "\u20b9300"}, {"Name": "The Chinese Hut", "Rating": "3.7", "votes": "116", "location": " Shop 9-C, Amrapali Princely Market, Sector 76, Near Sector 72, Noida", "Cuisines: ": "Chinese, Fast Food, Momos", "hours": "9am\u201311pm(Mon-Sun)", "Cost for two": "\u20b9400"}, {"Name": "Pasta Hut", "Rating": "3.9", "votes": "241", "location": " Shop 71, Garg Trade Centre, Sector 11, Rohini, New Delhi", "Cuisines: ": "Italian, Fast Food, Beverages", "hours": "11am\u201311:30pm(Mon-Sun)", "Cost for two": "\u20b9400"}, {"Name": "Madras Cafeteria", "Rating": "3.5", "votes": "196", "location": " Aditya City Centre, Indirapuram, Ghaziabad", "Cuisines: ": "South Indian, Chinese", "hours": "11:30am\u201311pm(Mon,Wed,Thu,Fri,Sat,Sun)...", "Cost for two": "\u20b9350"}, {"Name": "Al - Noor Chicken Biryani", "Rating": "3.6", "votes": "147", "location": " A-Square Mall, Pradhan Market, Opposite Pan Oasis Road, Sarfabad, Sector 73, Near Sector 72, Noida", "Cuisines: ": "Biryani, North Indian", "hours": "9am\u201311pm(Mon-Sun)", "Cost for two": "\u20b9500"}, {"Name": "Rasah Kumbha", "Rating": "NEW", "votes": "147", "location": " Shop 18, MKM Market, Sushant Lok 2, Sector 57, Gurgaon", "Cuisines: ": "North Indian, Awadhi", "hours": "6pm\u201312midnight(Mon-Sun)", "Cost for two": "\u20b9500"}]