[{"Name": "Dakshin Bhawan", "Rating": "3.8", "votes": "47", "location": " Shop 99-100, Assotech Business Cresterra, Sector 135, Noida", "Cuisines: ": "South Indian", "hours": "8am\u201311pm(Mon-Sun)", "Cost for two": "\u20b9250"}, {"Name": "Flavourz Factoree", "Rating": "3.9", "votes": "492", "location": " Plot 1, Block A, Gulab Bagh, Near Nawada Metro Station, Opposite Metro Pillar 733, Uttam Nagar, New Delhi", "Cuisines: ": "Fast Food, Chinese, Bakery, Momos", "hours": "12noon\u20139pm(Mon-Sun)", "Cost for two": "\u20b9300"}, {"Name": "Chatkaarevala", "Rating": "3.6", "votes": "19", "location": " 15A, Samman Bazar, Bhogal, Jangpura, New Delhi", "Cuisines: ": "North Indian", "hours": "8:30am\u20139:30pm(Mon-Fri),8am\u20139:30pm(Sat-Sun)", "Cost for two": "\u20b9150"}, {"Name": "Truth Restro & Bar", "Rating": "NEW", "votes": "19", "location": " M 13, 3rd Floor, Main Market, Greater Kailash 2 (GK 2), New Delhi", "Cuisines: ": "Chinese, North Indian", "hours": "12noon\u201312midnight(Mon-Sun)", "Cost for two": "\u20b9200"}, {"Name": "Dosa Plaza", "Rating": "3.6", "votes": "108", "location": " Shop-F114, F132, Sapphire-83, Vatika India, Sector 83, Gurgaon", "Cuisines: ": "South Indian", "hours": "9am\u201311pm(Mon-Sun)", "Cost for two": "\u20b9600"}, {"Name": "Singh Dhaba", "Rating": "3.6", "votes": "82", "location": " B-11/2, Okhla Industrial Area, Okhla Phase 2, New Delhi", "Cuisines: ": "North Indian", "hours": "9:30am\u201310:30pm(Mon-Sun)", "Cost for two": "\u20b9350"}, {"Name": "Kushal Bhojnalaya", "Rating": "3.7", "votes": "178", "location": " S 6/14, CSC 4, DDA Market, Sector 2, Rohini, New Delhi", "Cuisines: ": "North Indian", "hours": "12noon\u20134pm,7pm\u201311pm(Mon-Sun)", "Cost for two": "\u20b9300"}, {"Name": "Kabobi", "Rating": "4.2", "votes": "27", "location": " C 226, Sector 63, Noida", "Cuisines: ": "North Indian, Chinese", "hours": "11am\u201311pm(Mon-Sat),Closed(Sun)", "Cost for two": "\u20b9600"}, {"Name": "Alam Muradabadi Chicken Biryani Centre", "Rating": "3.6", "votes": "74", "location": " 1620, Gali 13, Govindpuri, Kalkaji, New Delhi", "Cuisines: ": "Biryani", "hours": "11am\u20134am(Mon,Tue,Thu,Fri,Sat,Sun),11am...", "Cost for two": "\u20b9250"}, {"Name": "KAP's Restro Bar & Cafe", "Rating": "NEW", "votes": "74", "location": " Shop 41, Ground Floor, Vasant Square Mall, Vasant Kunj, New Delhi", "Cuisines: ": "Cafe, Chinese, North Indian", "hours": "11am\u201311:30pm(Mon-Sun)", "Cost for two": "\u20b91,200"}, {"Name": "Infinity - Crowne Plaza", "Rating": "3.8", "votes": "259", "location": " Crowne Plaza, 13 B, District Centre, Mayur Vihar Phase 1, New Delhi", "Cuisines: ": "Italian, North Indian, Continental, Momos", "hours": "24Hours(Mon-Sun)", "Cost for two": "\u20b93,000"}, {"Name": "The Dosa King", "Rating": "3.9", "votes": "366", "location": " E3, Surya Nagar Main Road, Chander Nagar, Ghaziabad", "Cuisines: ": "South Indian, North Indian, Chinese", "hours": "11:30am\u201311pm(Mon-Sun)", "Cost for two": "\u20b9550"}, {"Name": "Bread's Alive", "Rating": "3.3", "votes": "10", "location": " B1/48, Pooja Apartments, DLF Dilshad Extension 2, Shalimar Garden, Ghaziabad", "Cuisines: ": "Bakery, Fast Food, Desserts", "hours": "9am\u201310pm(Mon,Wed,Thu,Fri,Sat,Sun),4pm\u2013...", "Cost for two": "\u20b9700"}, {"Name": "Dehaatii Kitchen", "Rating": "3.7", "votes": "24", "location": " Delivery Only", "Cuisines: ": "North Indian, Chinese, Fast Food", "hours": "24Hours(Mon-Sun)", "Cost for two": "\u20b9450"}, {"Name": "Valley Valley", "Rating": "3.2", "votes": "8", "location": " E-63, Ground Floor, Laxmi Nagar, New Delhi", "Cuisines: ": "North Indian, South Indian, Chinese", "hours": "8am\u20134am(Mon-Sun)", "Cost for two": "\u20b9350"}]