[{"Name": "Balaji Chaap", "Rating": "3.3", "votes": "10", "location": " Timarpur, Near Bus Stand, Delhi University-GTB Nagar, New Delhi", "Cuisines: ": "BBQ", "hours": "5pm\u201310pm(Mon-Sun)", "Cost for two": "\u20b9300"}, {"Name": "Mr. Veg", "Rating": "3.4", "votes": "24", "location": " J 5/101 G, Nehru Market, Rajouri Garden, New Delhi", "Cuisines: ": "North Indian", "hours": "11am\u201311pm(Mon-Sun)", "Cost for two": "\u20b9250"}, {"Name": "Healtheos", "Rating": "3.8", "votes": "121", "location": " B-12 A, Sector 10, Raj Nagar, Ghaziabad", "Cuisines: ": "Healthy Food, Fast Food, North Indian", "hours": "9am\u201311pm(Mon-Sun)", "Cost for two": "\u20b9700"}, {"Name": "VIP Pizza", "Rating": "-", "votes": "121", "location": " Sector 5, Naveen Park, Rajendar Nagar, Ghaziabad", "Cuisines: ": "Pizza, Fast Food, Beverages", "hours": "11am\u201311pm(Mon-Sun)", "Cost for two": "\u20b9300"}, {"Name": "OH China", "Rating": "-", "votes": "121", "location": " U 73/29, Behind Building 5, South City 1, Gurgaon", "Cuisines: ": "Chinese", "hours": "11am\u20134am(Mon-Sun)", "Cost for two": "\u20b9450"}, {"Name": "Gupta Ji Ka Dhaba", "Rating": "3.3", "votes": "110", "location": " 26/1, Yusuf Sarai Village, Hauz Khas, New Delhi", "Cuisines: ": "North Indian", "hours": "11:30am\u201311pm(Mon-Sun)", "Cost for two": "\u20b9300"}, {"Name": "Raj Anandam", "Rating": "NEW", "votes": "110", "location": " 441/9, Nyay Khand 3, Kala Pathar Road, Indirapuram, Ghaziabad", "Cuisines: ": "Chinese, North Indian", "hours": "8am\u201311pm(Mon-Sun)", "Cost for two": "\u20b9250"}, {"Name": "Khushbu Vaishno Dhaba", "Rating": "3.0", "votes": "4", "location": " A 295, Gurjjar Chowk, Azadpur, New Delhi", "Cuisines: ": "North Indian", "hours": "11:30am\u201311:30pm(Mon-Sun)", "Cost for two": "\u20b9200"}, {"Name": "Sera Mey Restaurant", "Rating": "3.6", "votes": "35", "location": " House 23, Tibetan New Camp, New Aruna Nagar, Majnu ka Tila, New Delhi", "Cuisines: ": "Chinese, Tibetan, Nepalese", "hours": "6:30am\u201310:30pm(Mon-Sun)", "Cost for two": "\u20b9650"}, {"Name": "Sona Mithai Wala", "Rating": "3.6", "votes": "234", "location": " 229 Bara Bazar, Shahdara, New Delhi", "Cuisines: ": "Mithai, Bakery, Desserts", "hours": "8am\u201311pm(Mon-Sun)", "Cost for two": "\u20b9250"}, {"Name": "Chick 'N' Salsa", "Rating": "3.1", "votes": "179", "location": " Shop 13, DDA Market, Anupam Apartment, IGNOU Road, Sainik Farms, New Delhi", "Cuisines: ": "North Indian, Chinese", "hours": "12noon\u201310:30pm(Mon,Wed,Thu,Fri,Sat,Sun)...", "Cost for two": "\u20b9700"}, {"Name": "Shankar Fast Food", "Rating": "3.4", "votes": "39", "location": " D-16, B Block, Near HCL Call Center, Sector 59, Noida", "Cuisines: ": "North Indian, Chinese", "hours": "24Hours(Mon-Sun)", "Cost for two": "\u20b9400"}, {"Name": "Brijwasi Sweets\u200b", "Rating": "3.3", "votes": "38", "location": " Shop 1, Golf City, Street Mart, Sector 75, Near Sector 72, Noida", "Cuisines: ": "Mithai, Street Food, North Indian", "hours": "8:30am\u20139:30pm(Mon-Sun)", "Cost for two": "\u20b9200"}, {"Name": "Aayana Foods", "Rating": "3.7", "votes": "254", "location": " 115, Nehar Bazar, Maujpur, Shahdara, New Delhi", "Cuisines: ": "North Indian, Mughlai, Fast Food", "hours": "12noon\u201311pm(Mon-Sun)", "Cost for two": "\u20b9450"}, {"Name": "Super Saiyan Cafe", "Rating": "3.6", "votes": "61", "location": " D 487, West Vinod Nagar, Pandav Nagar, New Delhi", "Cuisines: ": "Sandwich", "hours": "12noon\u20139:30pm(Mon-Sun)", "Cost for two": "\u20b9200"}]