[{"Name": "Dhaba Pind Punjabi", "Rating": "3.8", "votes": "121", "location": " K 2 Block, Near Mata Chowk, Vasant Kunj Road, Mahipalpur, New Delhi", "Cuisines: ": "North Indian, Chinese, Mughlai", "hours": "11am\u201312midnight(Mon-Sun)", "Cost for two": "\u20b9400"}, {"Name": "China On Wheels", "Rating": "3.3", "votes": "92", "location": " Bus Stand, Sector 9, R K Puram, New Delhi", "Cuisines: ": "Chinese, Fast Food", "hours": "10:30am\u201310pm(Mon-Sun)", "Cost for two": "\u20b9400"}, {"Name": "The Amritsari Junction", "Rating": "3.8", "votes": "124", "location": " Shop 4, C28/29, Logix Cyber Park, Tower - B, Sector 62, Noida", "Cuisines: ": "North Indian, Chinese", "hours": "12noon\u201310pm(Mon-Sun)", "Cost for two": "\u20b9500"}, {"Name": "Woksuey", "Rating": "-", "votes": "124", "location": " Plot 11, Upper Ground Floor, LSC, Pocket C 6 & 7, Vasant Kunj, New Delhi", "Cuisines: ": "Chinese", "hours": "12noon\u201311:55pm(Mon-Sun)", "Cost for two": "\u20b9500"}, {"Name": "Eighteen Paranthe", "Rating": "3.5", "votes": "69", "location": " Near Gate 1, Green Park Metro Station, Yusuf Sarai, New Delhi", "Cuisines: ": "North Indian", "hours": "5am\u201312midnight(Mon-Sun)", "Cost for two": "\u20b9150"}, {"Name": "The Rolling Crown", "Rating": "NEW", "votes": "69", "location": " Shop 7, Avenue 69, Sector 69, Sohna Road, Gurgaon", "Cuisines: ": "Bakery, Desserts, Fast Food", "hours": "11am\u201311pm(Mon-Sun)", "Cost for two": "\u20b9350"}, {"Name": "Shama Biryani & Chicken Corner", "Rating": "3.7", "votes": "59", "location": " G-72, Vardhman Plus City Mall, Sector 23, Dwarka, New Delhi", "Cuisines: ": "Biryani, North Indian", "hours": "11am\u201310:30pm(Mon-Sun)", "Cost for two": "\u20b9300"}, {"Name": "Fifty Fifty Chicken Corner", "Rating": "3.5", "votes": "175", "location": " Shop 3, Dewan Estate, Near Dwarka Mod Metro Station, Uttam Nagar, New Delhi", "Cuisines: ": "North Indian, Biryani", "hours": "10:30am\u201310:30pm(Mon-Sun)", "Cost for two": "\u20b9400"}, {"Name": "Narang's Bake 'N' Cake", "Rating": "3.5", "votes": "37", "location": " Shop 53, New Market, Timarpur, Civil Lines, New Delhi", "Cuisines: ": "Bakery, Desserts, Fast Food", "hours": "10am\u201310pm(Mon-Sun)", "Cost for two": "\u20b9400"}, {"Name": "Milan Dhaba", "Rating": "3.5", "votes": "51", "location": " KG 3, Opposite UK Nursing Home, Vikaspuri, New Delhi", "Cuisines: ": "North Indian", "hours": "8am\u20134pm,7pm\u201311pm(Mon-Sun)", "Cost for two": "\u20b9250"}, {"Name": "Halal Food4U", "Rating": "3.8", "votes": "81", "location": " G 51/12, Near Airtel Store, 40 Feet Road, Shaheen Bagh, Jasola, New Delhi", "Cuisines: ": "Pizza, Fast Food", "hours": "11:30am\u201312midnight(Mon,Tue,Wed,Thu,Sun)...", "Cost for two": "\u20b9400"}, {"Name": "Momo City Express", "Rating": "3.7", "votes": "15", "location": " Shop 57, First Floor, Mini Central Market, DDA, Kalkaji, New Delhi", "Cuisines: ": "Momos, Fast Food, Chinese", "hours": "12noon\u20132am(Mon-Sun)", "Cost for two": "\u20b9600"}, {"Name": "Hurry's Paratha", "Rating": "3.9", "votes": "165", "location": " Road 1-B, Lt. Vijayant Thapar Marg, Near Sector 16 Metro Station, Sector 16, Noida", "Cuisines: ": "North Indian, Pizza", "hours": "8am\u20134am(Mon-Sun)", "Cost for two": "\u20b9350"}, {"Name": "Panx Pizza", "Rating": "3.7", "votes": "118", "location": " Shop 73, Ground Floor, Opposite Hanuman Mandir, Kalkaji, New Delhi", "Cuisines: ": "Pizza, Fast Food", "hours": "12noon\u201310:30pm(Mon-Sun)", "Cost for two": "\u20b9500"}, {"Name": "The Kitchen Vault", "Rating": "4.2", "votes": "52", "location": " E-9, Near Deshbandhu College, Kalkaji", "Cuisines: ": "North Indian, Chinese", "hours": "11am\u201311:30pm(Mon-Sun)", "Cost for two": "\u20b9600"}]