[{"Name": "Twigly", "Rating": "4.2", "votes": "768", "location": " Delivery Only", "Cuisines: ": "Continental, Sandwich, Italian, Pizza, Asian", "hours": "9:30am\u201310pm(Mon-Sun)", "Cost for two": "\u20b9500"}, {"Name": "Maa Restaurant", "Rating": "3.3", "votes": "9", "location": " Shop 1, Ashirawad Bhawan, Village Garhi Chaukhandi, Near Noida International School, Sector 121, Near Sector 71, Noida", "Cuisines: ": "North Indian", "hours": "10am\u201312midnight(Mon-Sun)", "Cost for two": "\u20b9450"}, {"Name": "Chaat Chowk", "Rating": "3.8", "votes": "491", "location": " SF 44, 1st Floor, DLF Galleria Market, DLF Phase 4, Gurgaon", "Cuisines: ": "Street Food", "hours": "11am\u20139:30pm(Mon-Fri),11am\u201310pm(Sat-Sun)", "Cost for two": "\u20b9300"}, {"Name": "Cheesy Bite", "Rating": "3.8", "votes": "270", "location": " D 32, Bhajanpura, Shahdara, New Delhi", "Cuisines: ": "Pizza, Fast Food", "hours": "12midnight\u201310pm,11pm\u201312midnight...", "Cost for two": "\u20b9300"}, {"Name": "Riyaz Biryani Corner", "Rating": "3.7", "votes": "268", "location": " R-15, Man Market, Shakarpur, New Delhi", "Cuisines: ": "Biryani, Mughlai", "hours": "10:30am\u201310:30pm(Mon-Sun)", "Cost for two": "\u20b9400"}, {"Name": "Punjabi Kitchen", "Rating": "3.9", "votes": "91", "location": " U 9/28, Sector 24, DLF Phase 3, Gurgaon", "Cuisines: ": "North Indian, Chinese, BBQ", "hours": "11am\u20131am(Mon-Sun)", "Cost for two": "\u20b9400"}, {"Name": "Taste Of Nawab", "Rating": "3.9", "votes": "85", "location": " Road 6, Near TNT, Mahipalpur, New Delhi", "Cuisines: ": "North Indian, Chinese, Fast Food", "hours": "8am\u201312midnight(Mon-Sun)", "Cost for two": "\u20b9500"}, {"Name": "Malhotra's Zayeeka", "Rating": "3.9", "votes": "556", "location": " Shop 23, Sudama Market, Moti Nagar, New Delhi", "Cuisines: ": "North Indian, Mughlai, Chinese", "hours": "11am\u20134pm,5:30pm\u201311pm(Mon-Sun)", "Cost for two": "\u20b9500"}, {"Name": "China Grill", "Rating": "4.0", "votes": "558", "location": " A Block, Site 1, Opposite Samsung Showroom, Vikaspuri, New Delhi", "Cuisines: ": "Chinese, Momos", "hours": "5pm\u201310:30pm(Mon-Sun)", "Cost for two": "\u20b9200"}, {"Name": "Grandma's Khichdi", "Rating": "3.3", "votes": "6", "location": " TA-210, Guru Ravi Das Marg, Tughlakabad Institutional Area, New Delhi", "Cuisines: ": "Healthy Food, Salad", "hours": "7am\u20132am(Mon-Sun)", "Cost for two": "\u20b9300"}, {"Name": "Tiktok Kitchen", "Rating": "3.3", "votes": "12", "location": " Near Balgiri Mandir, Sector 45, Noida", "Cuisines: ": "Chinese", "hours": "11am\u20134am(Mon-Sun)", "Cost for two": "\u20b9500"}, {"Name": "Joy Luck Moon", "Rating": "3.8", "votes": "663", "location": " S-10, 2nd Floor, Select Citywalk Mall, Saket, New Delhi", "Cuisines: ": "Chinese", "hours": "12noon\u201311:30pm(Mon-Sun)", "Cost for two": "\u20b91,800"}, {"Name": "In The Punjab", "Rating": "3.7", "votes": "147", "location": " M-51, M Block Market, Greater Kailash (GK) 2, New Delhi", "Cuisines: ": "North Indian, Mughlai, Seafood", "hours": "12noon\u20133:30pm,7pm\u201312:30am(Mon-Sun)", "Cost for two": "\u20b92,100"}, {"Name": "Dandy - The Fio Bar", "Rating": "3.8", "votes": "51", "location": " Epicuria Food Mall, Nehru Place Metro Station, Nehru Place, New Delhi", "Cuisines: ": "European, Bar Food", "hours": "12noon\u201312midnight(Mon-Sun)", "Cost for two": "\u20b92,000"}, {"Name": "Jagdish Vaishno Dhaba", "Rating": "3.8", "votes": "162", "location": " Opposite Gurgaon Dreams, Old Railway Road, Gurgaon", "Cuisines: ": "North Indian", "hours": "8am\u201311pm(Mon-Sun)", "Cost for two": "\u20b9200"}]