[{"Name": "Pirates of Punjab", "Rating": "3.8", "votes": "105", "location": " 60/14, Ashok Nagar, Near Tilak Nagar Metro Station Gate 3, Tilak Nagar, New Delhi", "Cuisines: ": "North Indian, Fast Food, Momos", "hours": "7am\u20134am(Mon-Sun)", "Cost for two": "\u20b9650"}, {"Name": "CHEESY BITE", "Rating": "3.1", "votes": "5", "location": " RZ-1, Indra Park Extension, Pali Factory Road, Uttam Nagar, New Delhi", "Cuisines: ": "Fast Food", "hours": "11am\u201311pm(Mon-Sun)", "Cost for two": "\u20b9300"}, {"Name": "Milky Milk Shake", "Rating": "3.2", "votes": "9", "location": " D60, Opposite HDFC Bank, Kamla Nagar, New Delhi", "Cuisines: ": "Beverages", "hours": "10am\u201311pm(Mon-Sun)", "Cost for two": "\u20b9150"}, {"Name": "Biryani King", "Rating": "3.6", "votes": "75", "location": " Shop D- B 437, Mahavir Enclave, Part 3, Palam, New Delhi", "Cuisines: ": "Biryani, North Indian", "hours": "11am\u201312midnight(Mon,Wed,Thu,Fri,Sat,Sun)...", "Cost for two": "\u20b9300"}, {"Name": "Her Cafe", "Rating": "3.2", "votes": "7", "location": " Shiva Enclave, Bhartiya Vidhyapith, Near East Metro Station, Paschim Vihar, New Delhi", "Cuisines: ": "Healthy Food, Salad, Beverages", "hours": "8am\u20138pm(Mon-Sun)", "Cost for two": "\u20b9500"}, {"Name": "Express Kitchen", "Rating": "NEW", "votes": "7", "location": " A2092, Dabua Colony, NIT, Faridabad", "Cuisines: ": "North Indian", "hours": "11am\u201311pm(Mon-Sun)", "Cost for two": "\u20b9200"}, {"Name": "Kanha Bakery Fast Food Corner", "Rating": "-", "votes": "7", "location": " Shop 6A/1/2, Shiv Colony, Budh Vihar, Phase 2, Rohini, New Delhi", "Cuisines: ": "Bakery, Fast Food", "hours": "10am\u20139pm(Mon-Sun)", "Cost for two": "\u20b9150"}, {"Name": "Delhi Rasoi", "Rating": "NEW", "votes": "7", "location": " New Vatika Garden, Sector 17-18 Road, Sector 17, Gurgaon", "Cuisines: ": "North Indian", "hours": "10:30am\u20134pm,6:30pm\u20131am(Mon-Sun)", "Cost for two": "\u20b9250"}, {"Name": "Frontier - The Ashok", "Rating": "3.8", "votes": "132", "location": " 50-B, The Ashok, Diplomatic Enclave, Chanakyapuri, New Delhi", "Cuisines: ": "North Indian, Mughlai", "hours": "12:30pm\u20133:30pm,7:30pm\u201311:30pm(Mon-Sun)", "Cost for two": "\u20b93,600"}, {"Name": "Flamess Restaurant & Cafe Village", "Rating": "3.8", "votes": "735", "location": " G-15, 1st Floor, Near Laxmi Diary, Vijay Nagar, New Delhi", "Cuisines: ": "North Indian, Chinese, Continental, Italian", "hours": "11:30am\u20134am(Mon-Sun)", "Cost for two": "\u20b9700"}, {"Name": "R1 Take Away", "Rating": "2.8", "votes": "178", "location": " 5/55, WEA, Saraswati Marg, Karol Bagh, New Delhi", "Cuisines: ": "North Indian, Mughlai, Chinese, Momos", "hours": "11am\u20133am(Mon-Sun)", "Cost for two": "\u20b9750"}, {"Name": "Vijay Hot Dog", "Rating": "3.6", "votes": "47", "location": " Near Oriental Bank, Krishna Nagar, New Delhi", "Cuisines: ": "Hot dogs", "hours": "4:30pm\u201311:30pm(Mon-Sun)", "Cost for two": "\u20b9250"}, {"Name": "Btech Chaap Wala", "Rating": "3.7", "votes": "89", "location": " Main Chowk Sector 10A, Near Bikaner, Udyog Vihar, Industrial Area, Phase VI, Sector 37, Gurgaon", "Cuisines: ": "North Indian, Rolls", "hours": "4pm\u201311pm(Mon-Sun)", "Cost for two": "\u20b9250"}, {"Name": "Tilak Munjal-R Panchkuian Samose Wale", "Rating": "3.7", "votes": "298", "location": " JD 21, Ashiana Chowk, Pitampura, New Delhi", "Cuisines: ": "Street Food, Fast Food, Beverages", "hours": "8am\u20139pm(Mon-Sun)", "Cost for two": "\u20b9350"}, {"Name": "Oh My Grill", "Rating": "2.8", "votes": "8", "location": " Building 4, Unitech Infospace, Sector 21, Gurgaon", "Cuisines: ": "BBQ", "hours": "11am\u20134pm,7pm\u201311pm(Mon-Sun)", "Cost for two": "\u20b9500"}]