[{"Name": "Al- Hafeez Restaurant", "Rating": "-", "location": " B 9, Bhaskar Compound Abdul Fazal Enclave, Jamia Nagar, Jasola, New Delhi", "Cuisines: ": "North Indian, Mughlai", "hours": "11am\u201311pm(Mon-Sun)", "Cost for two": "\u20b9800"}, {"Name": "The Waffle Munch", "Rating": "-", "location": " 278/B, Ground Floor, Okhla Main Road, Near Jamia Nagar, Jasola, New Delhi", "Cuisines: ": "Desserts", "hours": "11am\u201311pm(Mon-Sun)", "Cost for two": "\u20b9300"}, {"Name": "Labbaik Restaurant", "Rating": "3.5", "location": " G 51/9-B, 40 Feet Road, Shaheen Bagh, Abul Fazal Enclave Part 2, Jamia Nagar, Okhla, Jasola, New Delhi", "Cuisines: ": "Mughlai, North Indian", "hours": "12noon\u201311pm(Mon,Tue,Wed,Thu,Sat,Sun)...", "Cost for two": "\u20b9600", "votes": "28"}, {"Name": "Mint Kitchen", "Rating": "NEW", "location": " R 26, Nehru Enclave, Kalkaji, New Delhi", "Cuisines: ": "Fast Food, Rolls", "hours": "7:30am\u201311pm(Mon-Sun)", "Cost for two": "\u20b9300", "votes": "28"}, {"Name": "Waffles Wala Cafe", "Rating": "3.2", "location": " 278 A, Fayyaz Manzil, Okhla Head Road, Near Union Bank, Jamia Millia Islamia, Jamia Nagar, Jasola, New Delhi", "Cuisines: ": "Fast Food, Desserts", "hours": "9am\u201311pm(Mon-Sun)", "Cost for two": "\u20b9200", "votes": "7"}, {"Name": "Desi Chinese", "Rating": "3.6", "location": " Near F-71, Swastik House, Sector 51, Noida", "Cuisines: ": "Chinese, North Indian, Momos", "hours": "11am\u201312midnight(Mon-Sun)", "Cost for two": "\u20b9400", "votes": "285"}, {"Name": "Tik Tok Food On Wheels", "Rating": "3.3", "location": " Shop 13, Lal Saian Market, Near Vinobha Puri Metro Station, Lajpat Nagar 2, New Delhi", "Cuisines: ": "Chinese", "hours": "11am\u201311pm(Mon),10am\u201311pm(Tue-Sun)", "Cost for two": "\u20b9300", "votes": "12"}, {"Name": "Sethi's Restaurant", "Rating": "3.7", "location": " C-95, Lajpat Nagar 1, New Delhi", "Cuisines: ": "North Indian, Chinese, Mughlai", "hours": "11am\u201311:30pm(Mon-Sun)", "Cost for two": "\u20b9700", "votes": "106"}, {"Name": "Le Bakerz", "Rating": "3.4", "location": " Shop 3, Nikhil Complex, Eros Garden, Charmwood Village, Faridabad", "Cuisines: ": "Bakery, Fast Food", "hours": "9am\u20139pm(Mon,Wed,Thu,Fri,Sat,Sun),Closed...", "Cost for two": "\u20b9250", "votes": "63"}, {"Name": "Appu Ghar Express", "Rating": "2.7", "location": " Building 105, Plot A-2, GIP Campus, Sector 38 A, Near Sector 38, Noida", "Cuisines: ": "Fast Food, Chinese", "hours": "11am\u20139pm(Mon-Sun)", "Cost for two": "\u20b9400", "votes": "79"}, {"Name": "Appus Hotel", "Rating": "3.8", "location": " Mohan Singh Market, INA, New Delhi", "Cuisines: ": "South Indian", "hours": "11am\u201310pm(Mon-Sun)", "Cost for two": "\u20b9300", "votes": "133"}, {"Name": "Vinny's Restro Bar", "Rating": "3.5", "location": " B-10, Sector 18, Noida", "Cuisines: ": "North Indian, Chinese", "hours": "11am\u201312midnight(Mon-Sun)", "Cost for two": "\u20b91,300", "votes": "54"}, {"Name": "The London Shakes & Cafe", "Rating": "3.3", "location": " 101A, 101 B, East Avenue Grand, Barola, Sector 49, Noida", "Cuisines: ": "Fast Food, Beverages", "hours": "11am\u201311pm(Mon-Sun)", "Cost for two": "\u20b9200", "votes": "13"}, {"Name": "Gupta Special Paratha", "Rating": "-", "location": " B 1361, Near HDFC ATM, New Ashok Nagar, Metro Road, Vasundhara Enclave, New Delhi", "Cuisines: ": "North Indian, Chinese", "hours": "12noon\u201311pm(Mon-Sun)", "Cost for two": "\u20b9250", "votes": "13"}, {"Name": "Lazeez Pav Bhaji & South Indian", "Rating": "3.3", "location": " Shop 9A, Block D, Anjali Market, Sector 27, Noida", "Cuisines: ": "Street Food, South Indian", "hours": "11am\u201311pm(Mon-Sun)", "Cost for two": "\u20b9200", "votes": "31"}]