[{"Name": "Raise The Bar Rooftop - Clarens Hotel", "Rating": "4.2", "votes": "808", "location": " Clarens Hotel, Plot 363, Sector 29, Gurgaon", "Cuisines: ": "European, Continental, Italian", "hours": "6pm\u20131am(Mon,Tue,Wed,Thu,Sun),6pm\u20134am...", "Cost for two": "\u20b92,800"}, {"Name": "Picca Dilli", "Rating": "4.1", "votes": "39", "location": " Building 489/55/2, Ground Floor, Shivalik Colony, Corner Market, Malviya Nagar, New Delhi", "Cuisines: ": "North Indian, Chinese", "hours": "12noon\u20134am(Mon-Sun)", "Cost for two": "\u20b9450"}, {"Name": "Madras Cafe", "Rating": "3.9", "votes": "217", "location": " I-1/29, Sector 16, Rohini, New Delhi", "Cuisines: ": "South Indian, Chinese", "hours": "10am\u20139pm(Mon-Sun)", "Cost for two": "\u20b9300"}, {"Name": "Healthiemenu", "Rating": "3.7", "votes": "31", "location": " F344/1, Ground Floor, Near Central Bank Of India, Lado Sarai, New Delhi", "Cuisines: ": "Healthy Food", "hours": "24Hours(Mon-Sun)", "Cost for two": "\u20b9600"}, {"Name": "All India Bawarchis", "Rating": "4.1", "votes": "130", "location": " SF 34, 1st Floor, Galeriya Market, DLF Phase 4, Gurgaon", "Cuisines: ": "Salad, Rolls, North Indian, Chinese", "hours": "11am\u20133am(Mon-Sun)", "Cost for two": "\u20b9600"}, {"Name": "Chawla Dhaba", "Rating": "3.6", "votes": "266", "location": " C 38, Industrial Area, Okhla Phase 2, New Delhi", "Cuisines: ": "North Indian", "hours": "12noon\u20134pm,7pm\u201311pm(Mon-Sun)", "Cost for two": "\u20b9300"}, {"Name": "The Spice Lab", "Rating": "4.0", "votes": "1123", "location": " G1-G1A, Baani Square, Sector 50, Gurgaon", "Cuisines: ": "Biryani, North Indian, Mughlai", "hours": "12noon\u201312:30am(Mon-Sun)", "Cost for two": "\u20b91,100"}, {"Name": "The Food O Clock", "Rating": "NEW", "votes": "1123", "location": " Shop LB 1/2, KB Complex, Alpha 2, Greater Noida", "Cuisines: ": "Chinese, North Indian", "hours": "12midnight\u20133:15am,11:01am\u201312midnight...", "Cost for two": "\u20b9300"}, {"Name": "Sethi's The Cake Shop", "Rating": "3.9", "votes": "343", "location": " 5332, New Chandrawal Road, Near Malka Ganj Chowk, Kamla Nagar, New Delhi", "Cuisines: ": "Bakery, Fast Food", "hours": "8:30am\u20139:30pm(Mon-Sun)", "Cost for two": "\u20b9200"}, {"Name": "Jack 'n' Chill - All American Creamery", "Rating": "4.0", "votes": "222", "location": " M-69, Block M, Greater Kailash 1 (GK 1), New Delhi", "Cuisines: ": "Fast Food, Beverages", "hours": "12noon\u20132am(Mon-Sun)", "Cost for two": "\u20b9600"}, {"Name": "Bamboo Boat", "Rating": "4.1", "votes": "713", "location": " Behind Supermart 2, DLF Phase 4, Gurgaon", "Cuisines: ": "Asian, Thai, Chinese", "hours": "12noon\u201311:50pm(Mon-Sun)", "Cost for two": "\u20b91,200"}, {"Name": "Indian Tawa Story", "Rating": "4.4", "votes": "127", "location": " Shop 8, Ground Floor, Ashoka Complex, Sector 51, Near Sector 50, Gurgaon", "Cuisines: ": "North Indian, Mughlai", "hours": "12noon\u201312midnight(Mon-Sun)", "Cost for two": "\u20b9600"}, {"Name": "GreeNox Lounge", "Rating": "4.1", "votes": "191", "location": " C-28, Logix Cyber Park, C Block, Sector 62, Noida", "Cuisines: ": "Healthy Food, Salad, Fast Food, Beverages", "hours": "9am\u20133am(Mon-Sun)", "Cost for two": "\u20b9300"}, {"Name": "21 Gun Salute", "Rating": "3.9", "votes": "1776", "location": " SCO 35-36, 1st Foor, Main Market, Sector 29, Gurgaon", "Cuisines: ": "North Indian, Mughlai, Asian, Continental", "hours": "11:30am\u201311:30pm(Mon-Sun)", "Cost for two": "\u20b92,000"}, {"Name": "Mughalnama Xpress", "Rating": "4.1", "votes": "50", "location": " D-6, Sector 6, Noida", "Cuisines: ": "Mughlai, North Indian, Rolls, Kebab, Biryani", "hours": "12noon\u201311pm(Mon-Sun)", "Cost for two": "\u20b9600"}]