[{"Name": "DFC", "Rating": "-", "location": " 245, Shatar Street, Devli Road, Opposite Malwa Honda Showroom, Khanpur, New Delhi", "Cuisines: ": "Fast Food", "hours": "1:30pm\u201311:30pm(Mon-Sun)", "Cost for two": "\u20b9150"}, {"Name": "Vadapav Junction & More", "Rating": "3.5", "location": " Shop 4, Opposite Main Market, Malviya Nagar, New Delhi", "Cuisines: ": "Street Food, Fast Food", "hours": "10am\u201311pm(Mon-Sun)", "Cost for two": "\u20b9250", "votes": "165"}, {"Name": "Spezia Deliveries", "Rating": "3.8", "location": " Hudson Lane, Delhi University-GTB Nagar, New Delhi", "Cuisines: ": "Chinese, Italian, Continental, Momos", "hours": "11am\u201311pm(Mon-Sun)", "Cost for two": "\u20b9550", "votes": "238"}, {"Name": "The Kitchen Restaurant - Hotel Golden Tree", "Rating": "3.6", "location": " B10, Hotel Golden Tree, Fruit Garden, NH 5, NIT, Faridabad", "Cuisines: ": "Finger Food, North Indian, Chinese, Mughlai", "hours": "11am\u201311pm(Mon-Sun)", "Cost for two": "\u20b91,400", "votes": "52"}, {"Name": "Pizza Planet", "Rating": "3.4", "location": " Shop 3, Gopalji Building, Tughlakabad Extension, Tughlakabad Institutional Area, New Delhi", "Cuisines: ": "Pizza, Fast Food", "hours": "11am\u201311pm(Mon-Sun)", "Cost for two": "\u20b9350", "votes": "18"}, {"Name": "Radhunee", "Rating": "3.6", "location": " 145, Market 1, Chittaranjan Park, New Delhi", "Cuisines: ": "Bengali", "hours": "11am\u201311pm(Mon-Sun)", "Cost for two": "\u20b9500", "votes": "96"}, {"Name": "My Spice Kitchen", "Rating": "3.8", "location": " 51, Market 1, Chittaranjan Park, New Delhi", "Cuisines: ": "North Indian, Mughlai, Biryani, Bengali", "hours": "11:30am\u201311:30pm(Mon-Sun)", "Cost for two": "\u20b9750", "votes": "982"}, {"Name": "Brijwasi Restaurant", "Rating": "2.9", "location": " 20, Community Center, New Friends Colony, New Delhi", "Cuisines: ": "North Indian, Chinese", "hours": "11am\u201311pm(Mon-Sun)", "Cost for two": "\u20b9350", "votes": "64"}, {"Name": "Kerala Cafe", "Rating": "3.5", "location": " D 29A, Acharya Niketan, Mayur Vihar Phase 1, New Delhi", "Cuisines: ": "Kerala, North Indian", "hours": "1pm\u201310pm(Mon-Sun)", "Cost for two": "\u20b9350", "votes": "137"}, {"Name": "Khana 99", "Rating": "3.2", "location": " Chhalera Bangar, Sector 44, Noida", "Cuisines: ": "Fast Food, North Indian", "hours": "11am\u201311pm(Mon-Sun)", "Cost for two": "\u20b9250", "votes": "7"}, {"Name": "Balaji Sweets & Bekary", "Rating": "3.2", "location": " A421, New Ashok Nagar, Near Axis Bank Atm, Mayur Vihar Phase 3, New Delhi", "Cuisines: ": "Mithai, Bakery", "hours": "8am\u201311pm(Mon-Sun)", "Cost for two": "\u20b9400", "votes": "8"}, {"Name": "Indilicious", "Rating": "-", "location": " Collection O 46143, 619, Near Vinayak Hospital, Village Atta, Sector 27, Noida", "Cuisines: ": "North Indian", "hours": "11am\u201311pm(Mon-Sun)", "Cost for two": "\u20b9400", "votes": "8"}, {"Name": "Roll Runner", "Rating": "3.8", "location": " Shop 2, Shanti Complex, Indira Market, Sector 27, Noida", "Cuisines: ": "Rolls, Fast Food", "hours": "24Hours(Mon-Sun)", "Cost for two": "\u20b9500", "votes": "66"}, {"Name": "Amma Bhawan", "Rating": "3.8", "location": " C 13, First Floor, Amar Colony, New Delhi", "Cuisines: ": "South Indian", "hours": "7am\u20131am(Mon-Sun)", "Cost for two": "\u20b9250", "votes": "75"}, {"Name": "Food For You", "Rating": "3.6", "location": " Shop 18, Krishna Apra Plaza, Sector 18, Noida", "Cuisines: ": "North Indian, Chinese", "hours": "8am\u20133am(Mon-Sun)", "Cost for two": "\u20b9450", "votes": "74"}]