[{"Name": "Spicy Kitchen", "Rating": "3.0", "votes": "7", "location": " A 70, Opposite BDM School, Suman Chowk, Chhatarpur, New Delhi", "Cuisines: ": "Chinese", "hours": "10am\u201310pm(Mon-Sun)", "Cost for two": "\u20b9150"}, {"Name": "Indian Zaika 2", "Rating": "-", "votes": "7", "location": " Ajnara Gol Chakkar, Crossing Republik, Ghaziabad", "Cuisines: ": "Rolls, North Indian, Momos", "hours": "1pm\u201312midnight(Mon-Sun)", "Cost for two": "\u20b9250"}, {"Name": "Gola Sizzlers", "Rating": "3.8", "votes": "153", "location": " Shop G 50, D Mall, Shakti Khand 2, Indirapuram, Ghaziabad", "Cuisines: ": "North Indian, Chinese, Continental", "hours": "11:30am\u20133:30pm,7pm\u201311:30pm(Mon-Sun)", "Cost for two": "\u20b91,700"}, {"Name": "AlBaik", "Rating": "3.9", "votes": "111", "location": " SE-127, Ahinsa Khand 1, Jaipuria Sunrise Plaza, Indirapuram, Ghaziabad", "Cuisines: ": "North Indian, Lebanese, Rolls, Biryani", "hours": "11am\u201311pm(Mon-Sun)", "Cost for two": "\u20b9450"}, {"Name": "Gabbars", "Rating": "4.3", "votes": "566", "location": " Shop 12, Vasant Enclave Market, Vasant Vihar, New Delhi", "Cuisines: ": "Mughlai, North Indian", "hours": "12:30pm\u20132am(Mon-Sun)", "Cost for two": "\u20b9700"}, {"Name": "Delhi 6 Chicken Corner", "Rating": "3.3", "votes": "9", "location": " 320, 321, Ground Floor, Block A, Rithala, Tikoni Market, Vijay Vihar, Rohini, New Delhi", "Cuisines: ": "Mughlai", "hours": "12:30pm\u201311:30pm(Mon-Sun)", "Cost for two": "\u20b9300"}, {"Name": "Delhi Darbar", "Rating": "3.5", "votes": "56", "location": " 130, Sector 16, Faridabad", "Cuisines: ": "North Indian, Chinese, Mughlai", "hours": "1pm\u20134pm,6pm\u201311pm(Mon,Wed,Thu,Fri,Sat...", "Cost for two": "\u20b9600"}, {"Name": "Pizza 35", "Rating": "3.0", "votes": "23", "location": " B1, Paryavaran Complex, Saidulajab, Saket, New Delhi", "Cuisines: ": "Pizza, Fast Food", "hours": "11am\u201311pm(Mon-Sun)", "Cost for two": "\u20b9500"}, {"Name": "Tau Special", "Rating": "3.5", "votes": "85", "location": " A 7, Main Goyla Dairy Road, Shyam Vihar, Phase 2, Najafgarh, New Delhi", "Cuisines: ": "North Indian, Chinese", "hours": "12noon\u201311pm(Mon-Sun)", "Cost for two": "\u20b9350"}, {"Name": "Fitchef", "Rating": "3.4", "votes": "26", "location": " Delivery Only", "Cuisines: ": "Healthy Food, American, Salad", "hours": "7am\u201312midnight(Mon-Sun)", "Cost for two": "\u20b9400"}, {"Name": "Eat N Joy", "Rating": "3.5", "votes": "112", "location": " Shop 5L-35, NIT, Faridabad", "Cuisines: ": "Chinese, Fast Food, South Indian", "hours": "10:30am\u201310:30pm(Mon-Sun)", "Cost for two": "\u20b9300"}, {"Name": "Sardar Ji Shawarma Point", "Rating": "3.5", "votes": "44", "location": " 11/89, Geeta Colony, Geeta Colony, New Delhi", "Cuisines: ": "Lebanese", "hours": "4:30pm\u201311pm(Mon,Wed,Thu,Fri,Sat,Sun)...", "Cost for two": "\u20b9200"}, {"Name": "South Indian Anna Madras Cafe", "Rating": "3.8", "votes": "102", "location": " 11, Pandav Nagar Complex, Ganesh Nagar, Pandav Nagar, New Delhi", "Cuisines: ": "South Indian", "hours": "9am\u201310pm(Mon-Sun)", "Cost for two": "\u20b9300"}, {"Name": "Annapurna Bhoj", "Rating": "3.8", "votes": "153", "location": " C 52A, RDC, Near ICICI Bank, Raj Nagar, Ghaziabad", "Cuisines: ": "North Indian", "hours": "9:30am\u20134pm,6pm\u201310:30pm(Mon-Sun)", "Cost for two": "\u20b9400"}, {"Name": "Rupali's Kitchen", "Rating": "3.5", "votes": "30", "location": " Shop 1, C-98, 2nd Floor, C Block Market, Sector 41, Noida", "Cuisines: ": "Chinese, North Indian, Mughlai, Fast Food", "hours": "11:30am\u201310:30pm(Mon,Wed,Thu,Fri,Sat,Sun)...", "Cost for two": "\u20b9600"}]