[{"Name": "Pind Di Rasoi", "Rating": "NEW", "location": " Shop 31, Behind Ansal Plaza Mall, Tugalpur, Knowledge Park, Greater Noida", "Cuisines: ": "North Indian, Chinese", "hours": "7am\u20134am(Mon-Sun)", "Cost for two": "\u20b9400"}, {"Name": "Kulcha King", "Rating": "3.9", "location": " Shop 144, Ring Road Market, Sarojini Nagar, New Delhi", "Cuisines: ": "Street Food", "hours": "9am\u20135pm(Mon-Sun)", "Cost for two": "\u20b9200", "votes": "363"}, {"Name": "Amchoor Pure Veg", "Rating": "NEW", "location": " Shop 5, Plot 4A, 21st Century Plaza, Near Petrol Pump, Sector 8, Rohini, New Delhi", "Cuisines: ": "Chinese, North Indian", "hours": "11am\u201311pm(Mon-Sun)", "Cost for two": "\u20b9250", "votes": "363"}, {"Name": "Burger Queen", "Rating": "4.1", "location": " D-146, 1st Floor, Rodeo Drive, Block D, South City 2, Gurgaon", "Cuisines: ": "Burger, Fast Food, Beverages", "hours": "24Hours(Mon-Sun)", "Cost for two": "\u20b9450", "votes": "251"}, {"Name": "Mad Over Donuts", "Rating": "4.1", "location": " K-96 B, Lajpat Nagar 2, New Delhi", "Cuisines: ": "Desserts, Beverages", "hours": "9am\u20131am(Mon-Sun)", "Cost for two": "\u20b9450", "votes": "261"}, {"Name": "Fresh Food Factory", "Rating": "4.0", "location": " sector-3", "Cuisines: ": "North Indian, Chinese", "hours": "9am\u20136pm(Mon-Sat),Closed(Sun)", "Cost for two": "\u20b9300", "votes": "248"}, {"Name": "Singh O Singh Restaurant", "Rating": "3.6", "location": " A/32, Extension Geeta Colony Road, Krishna Nagar, New Delhi", "Cuisines: ": "North Indian, Chinese, Rolls", "hours": "12:30pm\u201312midnight(Mon-Sun)", "Cost for two": "\u20b9300", "votes": "69"}, {"Name": "Hauz Khas Official", "Rating": "3.5", "location": " 28, 1st Floor, Hauz Khas Village, New Delhi", "Cuisines: ": "Bar Food, North Indian", "hours": "12noon\u201312midnight(Mon-Sun)", "Cost for two": "\u20b91,500", "votes": "19"}, {"Name": "Mangu Chicken Corner Dhaba", "Rating": "3.9", "location": " 24, DDA Market, Sector-17 Rohini, New Delhi", "Cuisines: ": "North Indian", "hours": "12noon\u201311pm(Mon,Wed,Thu,Fri,Sat,Sun)...", "Cost for two": "\u20b9500", "votes": "463"}, {"Name": "Metro Fast Food", "Rating": "3.0", "location": " Near Batra Cinema, Mukherjee Nagar, New Delhi", "Cuisines: ": "Chinese", "hours": "11am\u201311pm(Mon-Sun)", "Cost for two": "\u20b9400", "votes": "360"}, {"Name": "Khao Ji Foods", "Rating": "4.1", "location": " Shop 86, Singature Villae Avenue, H9 Street Road, Sector 82, Near Sector 83, Gurgaon", "Cuisines: ": "North Indian, Chinese, Street Food, Fast Food", "hours": "11am\u20134pm,7pm\u201311:30pm(Mon-Fri),11am\u2013...", "Cost for two": "\u20b9200", "votes": "947"}, {"Name": "Refections - The Juice Bar", "Rating": "4.4", "location": " Delivery Only", "Cuisines: ": "Beverages, Juices, Salad", "hours": "7am\u20134am(Mon-Sun)", "Cost for two": "\u20b9250", "votes": "238"}, {"Name": "Wah Bhai Wah", "Rating": "3.9", "location": " Shop 7-10, HUDA Market, Sector 7, Faridabad", "Cuisines: ": "North Indian", "hours": "12noon\u20133pm,6pm\u201311pm(Mon-Sun)", "Cost for two": "\u20b9400", "votes": "921"}, {"Name": "World Of Shalom/Laidback Cafe", "Rating": "3.5", "location": " 2nd Floor, Sangam Courtyard, Sector 9, R K Puram, New Delhi", "Cuisines: ": "Italian, Fast Food, Chinese, Arabian", "hours": "12noon\u201312:30am(Mon-Sun)", "Cost for two": "\u20b92,500", "votes": "30"}, {"Name": "Punjabi Chef", "Rating": "4.1", "location": " Bhagirathi Apartment, Opposite Galaxy Business Park, Sector 62, Noida", "Cuisines: ": "North Indian", "hours": "11am\u201311pm(Mon-Sat),Closed(Sun)", "Cost for two": "\u20b9450", "votes": "87"}]