[{"Name": "House Of China", "Rating": "3.7", "votes": "75", "location": " Shop 1, 2, BN Block Market, Shalimar Bagh, New Delhi", "Cuisines: ": "Chinese, Beverages", "hours": "1pm\u201311pm(Mon-Sun)", "Cost for two": "\u20b9500"}, {"Name": "Shri Nikunj", "Rating": "3.6", "votes": "35", "location": " Shop 3 & 4, Plot 118, Begum Hazart Mahal Marg, Near Chandra Laxmi Hospital, Gyan Khand 1, Indirapuram, Ghaziabad", "Cuisines: ": "Mithai, Street Food", "hours": "7:30am\u201310pm(Mon-Sun)", "Cost for two": "\u20b9150"}, {"Name": "Crispy & Tasty", "Rating": "3.5", "votes": "21", "location": " Near Oriental Bank of Commerce, Huda Market, Sector 7, Faridabad", "Cuisines: ": "Chinese, Fast Food", "hours": "4pm\u201310:30pm(Mon-Sun)", "Cost for two": "\u20b9300"}, {"Name": "Chit Chat", "Rating": "3.7", "votes": "247", "location": " 17, 58, & 59, DDA Market, Near Sachdeva School, Sector 13, Rohini, New Delhi", "Cuisines: ": "North Indian, Mughlai", "hours": "12noon\u20135pm,7pm\u201311:30pm(Mon-Sun)", "Cost for two": "\u20b9650"}, {"Name": "Chawla's Tandoori Xpress", "Rating": "2.8", "votes": "182", "location": " 2 & 3, DDA Commercial Complex, Road 44, Fountain Chowk, Rani Bagh, Pitampura, New Delhi", "Cuisines: ": "North Indian, Mughlai", "hours": "2pm\u201312midnight(Mon,Wed,Thu,Fri,Sat,Sun)...", "Cost for two": "\u20b9600"}, {"Name": "Bikaner Sweets & Bakery", "Rating": "3.2", "votes": "35", "location": " Shop 1, Opposite Chhatarpur Metro Station, Chhatarpur, New Delhi", "Cuisines: ": "Mithai, Street Food", "hours": "8am\u201311pm(Mon-Sun)", "Cost for two": "\u20b9150"}, {"Name": "Super Store", "Rating": "3.4", "votes": "29", "location": " K-56, Naveen Shahdara, Opposite Shahdara Police Station, Shahdara, New Delhi", "Cuisines: ": "Bakery, Fast Food, Beverages", "hours": "9am\u201310pm(Mon-Sun)", "Cost for two": "\u20b9250"}, {"Name": "Crust N Cakes", "Rating": "3.9", "votes": "81", "location": " Delivery Only", "Cuisines: ": "Bakery", "hours": "7am\u20132am(Mon-Sun)", "Cost for two": "\u20b9250"}, {"Name": "Andhra By Nature", "Rating": "3.3", "votes": "8", "location": " A2, DDA Market, Janakpuri, New Delhi", "Cuisines: ": "Biryani, North Indian", "hours": "11am\u201311pm(Mon-Sun)", "Cost for two": "\u20b9700"}, {"Name": "Sachdeva Juice Bar", "Rating": "3.9", "votes": "89", "location": " 1F, 94, Gurudwara Singh Sabha Road, NIT Faridabad", "Cuisines: ": "Juices, Beverages", "hours": "11am\u201312midnight(Mon-Sun)", "Cost for two": "\u20b9200"}, {"Name": "Pizza Lover", "Rating": "3.2", "votes": "6", "location": " Shop 15, B-12, Shalimar Garden, Ghaziabad", "Cuisines: ": "Pizza, Fast Food", "hours": "11am\u201311pm(Mon-Sun)", "Cost for two": "\u20b9250"}, {"Name": "Caboose X Cafe & Lounge", "Rating": "3.6", "votes": "68", "location": " 18/31, 1st Floor, Main Market, East Patel Nagar, New Delhi", "Cuisines: ": "Cafe", "hours": "11am\u201311pm(Mon-Sun)", "Cost for two": "\u20b9700"}, {"Name": "Al-Sultan Eating Point - Original Taste Of Purani Dilli", "Rating": "3.1", "votes": "10", "location": " G-9, Plot 2, Ashish Complex, New Rajdhani Enclave, Preet Vihar, New Delhi", "Cuisines: ": "North Indian, Mughlai", "hours": "9am\u20132am(Mon-Sun)", "Cost for two": "\u20b9200"}, {"Name": "Manipur Food Stall", "Rating": "3.8", "votes": "122", "location": " 12, Dilli Haat, INA, New Delhi", "Cuisines: ": "Chinese, Fast Food, Momos", "hours": "10am\u20139pm(Mon-Sun)", "Cost for two": "\u20b9450"}, {"Name": "Tandoori Snacks Adda", "Rating": "3.1", "votes": "10", "location": " Shop B-81, Sector 9A, HUDA Market, Near Hype Gym, Sector 7, Gurgaon", "Cuisines: ": "Chinese, North Indian", "hours": "11am\u201310pm(Mon-Sun)", "Cost for two": "\u20b9350"}]