[{"Name": "Bikaner Sweets & Snacks", "Rating": "3.1", "votes": "12", "location": " A-11, Shop 2, Acharya Niketan, Mayur Vihar Phase 1, New Delhi", "Cuisines: ": "Mithai, Chinese, Street Food", "hours": "9am\u201311pm(Mon-Sun)", "Cost for two": "\u20b9400"}, {"Name": "Ramji Di Hatti & Caterers", "Rating": "3.8", "votes": "234", "location": " BE 324, Gali 4, Opposite M.I.G. Flats, Hari Nagar, Mayapuri Phase 2, New Delhi", "Cuisines: ": "North Indian", "hours": "9am\u201312midnight(Mon-Sun)", "Cost for two": "\u20b9450"}, {"Name": "Sharma Jalebi Bhandar", "Rating": "NEW", "votes": "234", "location": " Shop 4, 8/33, Block 7, Tilak Nagar, New Delhi", "Cuisines: ": "Mithai", "hours": "7am\u201310pm(Mon-Sun)", "Cost for two": "\u20b9200"}, {"Name": "Gondhoraj", "Rating": "3.7", "votes": "100", "location": " Shop 18 A, Plot 10, Gardenia Gateway, Sector 75, Near Sector 72, Noida", "Cuisines: ": "Bengali", "hours": "12:30pm\u201310:30pm(Mon-Sun)", "Cost for two": "\u20b9800"}, {"Name": "Rayna's Cafe", "Rating": "NEW", "votes": "100", "location": " B-6/2, DDA Shopping Complex, Safdarjung Enclave, Deer Park, Safdarjung, New Delhi", "Cuisines: ": "Cafe, Salad, Burger, Sandwich, Italian, Pizza, Beverages", "hours": "8:30am\u201310:30pm(Mon-Sun)", "Cost for two": "\u20b9800"}, {"Name": "Karnataka", "Rating": "3.8", "votes": "536", "location": " 60/5, Yusuf Sarai Market, Yusuf Sarai, New Delhi", "Cuisines: ": "South Indian, North Indian, Chinese", "hours": "8am\u201311pm(Mon-Sun)", "Cost for two": "\u20b9500"}, {"Name": "Thela001", "Rating": "4.0", "votes": "393", "location": " A-4, Sector 4, Noida", "Cuisines: ": "Chinese, Fast Food, North Indian, Desserts, Beverages", "hours": "7am\u201311pm(Mon-Sat),7am\u20135pm(Sun)", "Cost for two": "\u20b9350"}, {"Name": "Ramji Rasoi", "Rating": "NEW", "votes": "393", "location": " C12/403, Yamuna Vihar, Shahdara, New Delhi", "Cuisines: ": "North Indian", "hours": "8:30am\u201310pm(Mon-Sun)", "Cost for two": "\u20b9250"}, {"Name": "Chicken Mahal", "Rating": "3.8", "votes": "312", "location": " 22-A, J Block Market, Ashok Vihar Phase 1, New Delhi", "Cuisines: ": "North Indian, Mughlai", "hours": "6pm\u201311pm(Mon-Sun)", "Cost for two": "\u20b9500"}, {"Name": "Lithiyum Club - The Ashok", "Rating": "3.5", "votes": "34", "location": " The Ashok, 50-B, Kautilya Marg, Diplomatic Enclave, Chanakyapuri, New Delhi", "Cuisines: ": "North Indian, Continental", "hours": "10pm\u20134am(Mon-Sun)", "Cost for two": "\u20b93,000"}, {"Name": "The Taste Of Mughals", "Rating": "4.0", "votes": "584", "location": " G-38, Ground Floor, Baani Square, Sector 50, Gurgaon", "Cuisines: ": "North Indian, Mughlai", "hours": "11:30am\u20134am(Mon-Sun)", "Cost for two": "\u20b9700"}, {"Name": "Liquor House", "Rating": "3.5", "votes": "56", "location": " Ground Floor, Angel Mega Mall, Kaushambi, Ghaziabad", "Cuisines: ": "Finger Food, Chinese", "hours": "2pm\u201311:30pm(Mon-Sun)", "Cost for two": "\u20b92,400"}, {"Name": "Ghar Reloaded", "Rating": "3.9", "votes": "1556", "location": " J-198, 2nd Floor, Rajouri Garden, New Delhi", "Cuisines: ": "Chinese, North Indian, Fast Food, Italian", "hours": "11:30am\u201312midnight(Mon-Sun)", "Cost for two": "\u20b91,300"}, {"Name": "DnD's", "Rating": "3.9", "votes": "218", "location": " Shop 15-16, 3rd Floor, Supreme Plaza, Main Market, Sector 6, Dwarka, New Delhi", "Cuisines: ": "Chinese, North Indian, Mughlai", "hours": "11am\u201312midnight(Mon-Sun)", "Cost for two": "\u20b91,900"}, {"Name": "Tunday Kababi", "Rating": "3.7", "votes": "682", "location": " B 2, Qutab Plaza, DLF Phase 1, Gurgaon", "Cuisines: ": "Lucknowi, Mughlai", "hours": "1pm\u201310:30pm(Mon,Wed,Thu,Fri,Sat,Sun),3pm...", "Cost for two": "\u20b9600"}]