[{"Name": "Jindal's Food", "Rating": "3.1", "votes": "8", "location": " Shop 21, DDA Market, Defence Enclave, Preet Vihar, New Delhi", "Cuisines: ": "North Indian, Chinese", "hours": "11am\u201311pm(Mon-Sun)", "Cost for two": "\u20b9450"}, {"Name": "Kranti Fruit Chat", "Rating": "3.5", "votes": "21", "location": " 5A-18BP, Railway Road, NIT, Faridabad", "Cuisines: ": "Street Food", "hours": "5pm\u201310pm(Mon-Sun)", "Cost for two": "\u20b9150"}, {"Name": "Thali Kingdom", "Rating": "3.5", "votes": "21", "location": " Shop 22 Ground Floor, Parsvnath Majestic Arcade, Vaibhav Khand, Indirapuram, Ghaziabad", "Cuisines: ": "North Indian, Fast Food", "hours": "11:30am\u201311pm(Mon-Sun)", "Cost for two": "\u20b9250"}, {"Name": "Tummy Junction", "Rating": "3.5", "votes": "148", "location": " Olive County, Sector 5, Vasundhara, Ghaziabad", "Cuisines: ": "Chinese, North Indian", "hours": "11am\u201311pm(Mon-Sun)", "Cost for two": "\u20b9400"}, {"Name": "Beni The Zaika Queen", "Rating": "3.3", "votes": "16", "location": " Shop 1, Apex The Florus, Sector 18, Vasundhara, Ghaziabad", "Cuisines: ": "Chinese, North Indian", "hours": "12noon\u201311pm(Mon-Sun)", "Cost for two": "\u20b9500"}, {"Name": "Sam's Kitchen N Curries", "Rating": "3.3", "votes": "11", "location": " Shop 18-19, Mahalaxmi Plaza, Sec 5, Opposite Miraj Cinemas, Rajender Nagar, Sahibababad, Ghaziabad", "Cuisines: ": "North Indian, Chinese", "hours": "11am\u201311pm(Mon-Sun)", "Cost for two": "\u20b9400"}, {"Name": "Flavvyo - Flavour's World", "Rating": "3.6", "votes": "51", "location": " 20, Engineer's Enclave, Harsh Vihar Square, Pitampura, New Delhi", "Cuisines: ": "Ice Cream, Beverages", "hours": "7am\u20134am(Mon-Sun)", "Cost for two": "\u20b9400"}, {"Name": "Crispy Fried Chicken", "Rating": "3.5", "votes": "19", "location": " Shop G 03, SDS Shopping Complex, Near Pari chowk Metro Station, Omega 2, Greater Noida", "Cuisines: ": "Pizza, Italian, Fast Food", "hours": "11am\u201311pm(Mon-Sun)", "Cost for two": "\u20b9500"}, {"Name": "Hotspot Pizzeria", "Rating": "-", "votes": "19", "location": " Shop 61, Maidan Garhi, Near Mother Dairy Bus Stand, Sainik Farms, New Delhi", "Cuisines: ": "Fast Food", "hours": "11am\u201311pm(Mon-Sun)", "Cost for two": "\u20b9250"}, {"Name": "Pankhuri Sweets & Restaurant", "Rating": "NEW", "votes": "19", "location": " Plot N189, Niti Khand 2, Near D Mall, Indirapuram, Ghaziabad", "Cuisines: ": "North Indian, Bakery", "hours": "9am\u201310pm(Mon-Sun)", "Cost for two": "\u20b9350"}, {"Name": "Moolchand Paratha Junction", "Rating": "3.6", "votes": "31", "location": " Shop I-319, 12th Street, Block I, Beta 2, Greater Noida", "Cuisines: ": "Fast Food", "hours": "8am\u20136am(Mon-Sun)", "Cost for two": "\u20b9150"}, {"Name": "Instadozza", "Rating": "3.6", "votes": "91", "location": " D 29 B, Chattarpur Enclave, Chattarpur, New Delhi", "Cuisines: ": "Fast Food, South Indian", "hours": "9am\u201311pm(Mon-Sun)", "Cost for two": "\u20b9400"}, {"Name": "Rohiniwala", "Rating": "3.6", "votes": "74", "location": " 3/221, Subhash Nagar, New Delhi", "Cuisines: ": "North Indian, Chinese", "hours": "4pm\u201312midnight(Mon-Sun)", "Cost for two": "\u20b9200"}, {"Name": "Shri Murugan South Indian Restaurant", "Rating": "NEW", "votes": "74", "location": " 1220A, Block WZ, Nangal Raya, Janakpuri, New Delhi", "Cuisines: ": "South Indian", "hours": "8am\u201311pm(Mon-Sun)", "Cost for two": "\u20b9250"}, {"Name": "Daddoo's", "Rating": "3.8", "votes": "74", "location": " Shop 34, Basement, New Vegetable Mandi, Sector 16, Faridabad", "Cuisines: ": "North Indian, Chinese, Fast Food", "hours": "7pm\u20133am(Mon-Sun)", "Cost for two": "\u20b9400"}]