[{"Name": "Naresh Omelette & Burger", "Rating": "3.6", "votes": "64", "location": " Plot 1, Khasra 432, Near Enfield Showroom, Kapashera Road, Najafgarh, New Delhi", "Cuisines: ": "Fast Food, Burger", "hours": "2:30pm\u20139pm(Mon-Sun)", "Cost for two": "\u20b9200"}, {"Name": "Fork In Hell", "Rating": "3.6", "votes": "26", "location": " Shop 1, Ground Floor, IGNOU Road, Saiyad Ul Ajaib, Sainik Farms, New Delhi", "Cuisines: ": "Chinese", "hours": "12noon\u201311pm(Mon-Sun)", "Cost for two": "\u20b9400"}, {"Name": "Rolls Treat", "Rating": "3.8", "votes": "99", "location": " O 31, Ground Floor, Main Road, West Patel Nagar, New Delhi", "Cuisines: ": "North Indian, Chinese", "hours": "11am\u201311pm(Mon,Wed,Thu,Sat,Sun),11am\u2013...", "Cost for two": "\u20b9300"}, {"Name": "Jojo Burger", "Rating": "3.2", "votes": "11", "location": " Malerna Road, Gali 5, Opposite Garg Steel, Ballabhgarh, Faridabad", "Cuisines: ": "Burger, Fast Food, Beverages", "hours": "11am\u20134am(Mon-Sun)", "Cost for two": "\u20b9250"}, {"Name": "Flavour's of India", "Rating": "3.5", "votes": "48", "location": " D 23, Sector 10, Bhardwaj Arcade, Vasundhara, Ghaziabad", "Cuisines: ": "North Indian, Mughlai, Chinese", "hours": "11am\u201311pm(Mon-Sun)", "Cost for two": "\u20b9800"}, {"Name": "Ginger Brown", "Rating": "3.9", "votes": "246", "location": " Shop 1, Community Center, PVR Anupam Complex, Saket, New Delhi", "Cuisines: ": "Bakery, Desserts, Fast Food", "hours": "10am\u201311:30pm(Mon-Sun)", "Cost for two": "\u20b9400"}, {"Name": "Ghar Ki Rasoi", "Rating": "3.7", "votes": "77", "location": " Sector 53, Noida", "Cuisines: ": "North Indian", "hours": "11am\u20131am(Mon-Sun)", "Cost for two": "\u20b9150"}, {"Name": "Daana Paani Restro", "Rating": "3.3", "votes": "11", "location": " U9/28, DLF Phase 3, Gurgaon", "Cuisines: ": "North Indian, Chinese", "hours": "11am\u20131am(Mon-Sun)", "Cost for two": "\u20b9400"}, {"Name": "Fauji Ki Rasoi", "Rating": "3.6", "votes": "36", "location": " 11/50, Ground Floor, U Block, Sector 24, DLF Phase 3, Gurgaon", "Cuisines: ": "North Indian, Chinese", "hours": "11:30am\u201312midnight(Mon,Tue,Wed,Thu,Fri...", "Cost for two": "\u20b9400"}, {"Name": "Mr. Gogo Chinese Food Point", "Rating": "NEW", "votes": "36", "location": " Shop 21, Bhagat Singh Market, Near Health Centre, Najafgarh, New Delhi", "Cuisines: ": "Chinese", "hours": "11am\u201310pm(Mon-Sun)", "Cost for two": "\u20b9350"}, {"Name": "Angan Bakery & Cafe", "Rating": "3.8", "votes": "86", "location": " Ground Floor,Yashwant Palace, Chanakyapuri, New Delhi", "Cuisines: ": "Bakery, Desserts, Fast Food, Beverages", "hours": "8:30am\u201310:30pm(Mon-Sun)", "Cost for two": "\u20b9600"}, {"Name": "Mama Meat", "Rating": "3.1", "votes": "5", "location": " 18/1, Shop 2, Prem Nagar, Jail Road, New Delhi", "Cuisines: ": "North Indian", "hours": "11am\u201311pm(Mon,Wed,Thu,Fri,Sat,Sun),Closed...", "Cost for two": "\u20b9400"}, {"Name": "Simply South", "Rating": "3.9", "votes": "34", "location": " R-1/77, RDC, Raj Nagar, Ghaziabad", "Cuisines: ": "South Indian", "hours": "11:30am\u201311pm(Mon-Sun)", "Cost for two": "\u20b9400"}, {"Name": "A1", "Rating": "3.5", "votes": "70", "location": " 4/9, Ratan Garden, New Colony Mor, Old Railway Road, Gurgaon", "Cuisines: ": "Biryani", "hours": "10am\u201312midnight(Mon,Wed,Thu,Fri,Sun)...", "Cost for two": "\u20b9300"}, {"Name": "Chintamani's", "Rating": "3.4", "votes": "116", "location": " A-10, Jhilmil Industrial Area, Dilshad Garden, New Delhi", "Cuisines: ": "Mithai, South Indian, Street Food, North Indian, Chinese", "hours": "11am\u201311pm(Mon-Sun)", "Cost for two": "\u20b9600"}]