[{"Name": "SK Restaurant", "Rating": "3.9", "votes": "124", "location": " 211, Jharsa Road, Sector 32, Near Sector 31, Gurgaon", "Cuisines: ": "North Indian, Fast Food", "hours": "11:30am\u201311:30pm(Mon-Sun)", "Cost for two": "\u20b9350"}, {"Name": "Foodi Shoodi", "Rating": "4.1", "votes": "202", "location": " C-37 LG, Shop 2, Madhu Vihar, IP Extension, New Delhi", "Cuisines: ": "Fast Food, Beverages", "hours": "11am\u201310:30pm(Mon-Sun)", "Cost for two": "\u20b9300"}, {"Name": "Foodies Fukrey", "Rating": "3.9", "votes": "59", "location": " E-1/C, Guru Nanak Pura, Jail Road, New Delhi", "Cuisines: ": "Chinese, Fast Food, Beverages", "hours": "10:30am\u201311:30pm(Mon-Sun)", "Cost for two": "\u20b9350"}, {"Name": "Bite-N-Sip", "Rating": "2.8", "votes": "78", "location": " 6, UG-58 & 59, Ansal Chamber 2, Bhikaji Cama Place, New Delhi", "Cuisines: ": "North Indian", "hours": "10am\u20134pm(Mon-Sat),Closed(Sun)", "Cost for two": "\u20b9200"}, {"Name": "Nathu Sweets & Pastry Shop", "Rating": "3.6", "votes": "308", "location": " C 67, DDA Sheds, Okhla Phase 1, New Delhi", "Cuisines: ": "North Indian, South Indian, Street Food, Chinese, Mithai, Desserts, Beverages", "hours": "9:30am\u20138pm(Mon-Sun)", "Cost for two": "\u20b9500"}, {"Name": "Lucky Bakers", "Rating": "3.8", "votes": "94", "location": " Village Shahdara, Sector 144, Near Sector 132, Noida", "Cuisines: ": "Bakery", "hours": "10am\u201312:30am(Mon-Sun)", "Cost for two": "\u20b9250"}, {"Name": "The Black Beetle", "Rating": "4.3", "votes": "61", "location": " G19, Vardhaman Star City Mall, Near Ramphal Chowk, Sector 7, Dwarka, New Delhi", "Cuisines: ": "North Indian, Fast Food, Chinese", "hours": "11:30am\u201310:30pm(Mon-Sun)", "Cost for two": "\u20b9350"}, {"Name": "Sardarji Malai Chaap Wale", "Rating": "3.8", "votes": "694", "location": " 5, 6 & 7-4/64 Subhash Nagar", "Cuisines: ": "North Indian, Rolls", "hours": "5pm\u201310pm(Mon-Sun)", "Cost for two": "\u20b9450"}, {"Name": "Shivam Vaishno Dhaba", "Rating": "3.9", "votes": "99", "location": " Shop 1618, Chandrawal Road, Near Yadav Matthi Wala, Subzi Mandi, Civil Lines, New Delhi", "Cuisines: ": "North Indian", "hours": "12noon\u20134pm,7pm\u201311pm(Mon-Sun)", "Cost for two": "\u20b9300"}, {"Name": "Mahi's Delhi Tadka", "Rating": "3.9", "votes": "118", "location": " Shop 29, Amrapali Princeley Estate, Sector 76, Near Sector 72, Noida", "Cuisines: ": "North Indian, Chinese", "hours": "11am\u20132am(Mon-Sun)", "Cost for two": "\u20b9500"}, {"Name": "Amritsari Kitchen", "Rating": "4.0", "votes": "1183", "location": " A-127, A Block, Sector 63, Noida", "Cuisines: ": "North Indian, Mughlai, Biryani, Chinese", "hours": "12noon\u201311:30pm(Mon-Sun)", "Cost for two": "\u20b9450"}, {"Name": "Drool Kitchen", "Rating": "4.0", "votes": "1622", "location": " Under Metro Station, Sector 10, Dwarka, New Delhi", "Cuisines: ": "North Indian, Chinese, Italian, Salad, Kebab", "hours": "12noon\u201311:30pm(Mon-Sun)", "Cost for two": "\u20b91,200"}, {"Name": "Momogasm", "Rating": "4.2", "votes": "81", "location": " Shop 28, Huda Market, Sector 15A, Near Sector 15, Faridabad", "Cuisines: ": "Momos", "hours": "11am\u201311pm(Mon-Sun)", "Cost for two": "\u20b9350"}, {"Name": "Thaali Walaa", "Rating": "4.0", "votes": "119", "location": " A-1, Sector 51, Noida", "Cuisines: ": "North Indian, Mughlai, Chinese", "hours": "24Hours(Mon-Sun)", "Cost for two": "\u20b9500"}, {"Name": "Cafe 18", "Rating": "3.5", "votes": "473", "location": " G-27, Savitri Market, Sector 18, Noida", "Cuisines: ": "Fast Food, Chinese, North Indian", "hours": "24Hours(Mon-Sun)", "Cost for two": "\u20b9500"}]