[{"Name": "The Chaska Cafe", "Rating": "-", "location": " Ramesh Nagar Metro Station Gate 2, Opposite Pillar 356, Kirti Nagar, New Delhi", "Cuisines: ": "Fast Food", "hours": "11am\u201311pm(Mon-Sun)", "Cost for two": "\u20b9200"}, {"Name": "Pizzacone Hub", "Rating": "3.7", "location": " RZ-41, Sukhi Ram Park, Matiala Extension, Uttam Nagar, New Delhi", "Cuisines: ": "Pizza, Fast Food", "hours": "11am\u20132am(Mon-Sun)", "Cost for two": "\u20b9400", "votes": "23"}, {"Name": "Cakes 24X7", "Rating": "3.1", "location": " Delivery Only", "Cuisines: ": "Bakery", "hours": "24Hours(Mon-Sun)", "Cost for two": "\u20b9300", "votes": "6"}, {"Name": "Desi Food Hub", "Rating": "2.8", "location": " Shop 93, Huda Market, Sector 32 , Gurgaon", "Cuisines: ": "North Indian, Chinese, Continental", "hours": "11am\u20133pm,6pm\u20132am(Mon-Sun)", "Cost for two": "\u20b9500", "votes": "21"}, {"Name": "Biryani King", "Rating": "NEW", "location": " Shop 41-42, Ground Floor, KB Complex, Alpha 2, Greater Noida", "Cuisines: ": "Biryani, North Indian, Mughlai", "hours": "11:30am\u201311:30pm(Mon-Sun)", "Cost for two": "\u20b9500", "votes": "21"}, {"Name": "Great Wall", "Rating": "3.4", "location": " F 14/55, Model Town 2, New Delhi", "Cuisines: ": "North Indian, Mughlai, Chinese", "hours": "11am\u201311pm(Mon-Sun)", "Cost for two": "\u20b91,500", "votes": "97"}, {"Name": "#Waffles", "Rating": "4.1", "location": " Shop 2, GC Grand Market, Indirapuram, Ghaziabad", "Cuisines: ": "Desserts, Beverages, Fast Food", "hours": "12noon\u201311pm(Mon-Sun)", "Cost for two": "\u20b9600", "votes": "363"}, {"Name": "Dosa N Chutny", "Rating": "3.8", "location": " Food Court, Mahagun Metro Mall, Vaishali, Ghaziabad", "Cuisines: ": "South Indian", "hours": "11am\u201311pm(Mon-Sun)", "Cost for two": "\u20b9400", "votes": "76"}, {"Name": "Mitran Da Junction", "Rating": "3.8", "location": " Sector 43, Suraj Kund, Faridabad", "Cuisines: ": "North Indian, Mughlai", "hours": "12noon\u20134am(Mon-Sun)", "Cost for two": "\u20b9400", "votes": "378"}, {"Name": "Shagun Sweets", "Rating": "3.8", "location": " III-N-36, Ambedkar Road, Ghaziabad", "Cuisines: ": "Mithai, Street Food", "hours": "9:30am\u201310:30pm(Mon-Sun)", "Cost for two": "\u20b9200", "votes": "114"}, {"Name": "Khalsa Restaurant", "Rating": "3.5", "location": " 10, Sector 1 Market, R K Puram, New Delhi", "Cuisines: ": "North Indian, Mughlai", "hours": "11am\u201311pm(Mon-Sun)", "Cost for two": "\u20b9550", "votes": "243"}, {"Name": "Chinese Tree", "Rating": "3.2", "location": " Opposite ASF Insignia Road, Gwal Pahari, Gurgaon", "Cuisines: ": "Chinese", "hours": "11am\u201311pm(Mon-Sun)", "Cost for two": "\u20b9350", "votes": "8"}, {"Name": "King Chilly Kitchen", "Rating": "3.6", "location": " Shop 1, E-2/16, Near Shani Mandir, Malviya Nagar, New Delhi", "Cuisines: ": "Assamese", "hours": "12noon\u201311pm(Mon-Sun)", "Cost for two": "\u20b9450", "votes": "82"}, {"Name": "Bombay Parantha Company", "Rating": "3.4", "location": " Shop 4584, 1st Floor, Arya Pura, Chaudhary Sunder Singh Gali, Roshanara Road, Kamla Nagar, New Delhi", "Cuisines: ": "North Indian", "hours": "8am\u201310pm(Mon-Sun)", "Cost for two": "\u20b9200", "votes": "17"}, {"Name": "Roll Hub", "Rating": "3.2", "location": " G 6, Sachdeva Complex, Mayur Vihar Phase 2, New Delhi", "Cuisines: ": "Rolls, Chinese", "hours": "11am\u201311pm(Mon-Sun)", "Cost for two": "\u20b9350", "votes": "10"}]