[{"Name": "Sobti Dhaba", "Rating": "-", "location": " Delivery Only", "Cuisines: ": "North Indian", "hours": "11am\u201311pm(Mon-Sun)", "Cost for two": "\u20b9300"}, {"Name": "Shankar Namkeen & Sweets Bhandar", "Rating": "-", "location": " 9326-28/7, Multani Dhanda, Paharganj, New Delhi", "Cuisines: ": "Mithai, Street Food", "hours": "10am\u20138:30pm(Mon-Sun)", "Cost for two": "\u20b9150"}, {"Name": "Shawarma Xpress", "Rating": "-", "location": " 3/8, Doctor Lane, Gole Market, New Delhi", "Cuisines: ": "Lebanese", "hours": "5pm\u201311:30pm(Mon-Sun)", "Cost for two": "\u20b9200"}, {"Name": "Chinese Express", "Rating": "3.1", "location": " T-316, Ram Dwara Road, General Market, Paharganj, New Delhi", "Cuisines: ": "Chinese, Momos", "hours": "10am\u201310pm(Mon-Sun)", "Cost for two": "\u20b9500", "votes": "5"}, {"Name": "Dayal Da Dhaba", "Rating": "-", "location": " Shop 34, Baird Line, Gole Market, New Delhi", "Cuisines: ": "North Indian", "hours": "9:30am\u201311:30pm(Mon-Sun)", "Cost for two": "\u20b9200", "votes": "5"}, {"Name": "Miglani Dhaba", "Rating": "-", "location": " 4240, Krishna Gali, Paharganj, New Delhi", "Cuisines: ": "North Indian", "hours": "8am\u201312midnight(Mon-Sun)", "Cost for two": "\u20b9250", "votes": "5"}, {"Name": "Sikkim kitchen", "Rating": "-", "location": " 1656, Chuna Mandi, Paharganj, New Delhi", "Cuisines: ": "North Indian, Chinese, Tibetan, Fast Food", "hours": "11am\u201311pm(Mon-Sun)", "Cost for two": "\u20b9400", "votes": "5"}, {"Name": "Indian Bento", "Rating": "-", "location": " 2, Doctor Lane, Gole Market, New Delhi", "Cuisines: ": "North Indian", "hours": "9:30am\u201310pm(Mon-Sun)", "Cost for two": "\u20b9400", "votes": "5"}, {"Name": "Everest Kitchen", "Rating": "3.2", "location": " 1171-1175, Main Market, Paharganj, New Delhi", "Cuisines: ": "North Indian, Chinese, Tibetan, Italian, Fast Food", "hours": "11am\u201311pm(Mon-Sun)", "Cost for two": "\u20b9600", "votes": "35"}, {"Name": "Madan Cafe & Restaurant", "Rating": "2.9", "location": " Shop 1601, Main Bazaar, Paharganj, New Delhi", "Cuisines: ": "North Indian, Chinese, Fast Food", "hours": "7am\u201311pm(Mon-Sun)", "Cost for two": "\u20b9300", "votes": "86"}, {"Name": "Dhaba", "Rating": "-", "location": " 129, Amrit Kaur Market, Babu Ram Solanki Marg, Ratan Lal Market, Kaseru Walan, Opposite New Delhi Railway Station, Paharganj, New Delhi", "Cuisines: ": "North Indian", "hours": "6am\u20131am(Mon-Sun)", "Cost for two": "\u20b9300", "votes": "86"}, {"Name": "Ashish Lal Dhaba", "Rating": "3.7", "location": " B 4, Kotla Road, ITO, New Delhi", "Cuisines: ": "North Indian", "hours": "11am\u201311pm(Mon-Sun)", "Cost for two": "\u20b9400", "votes": "112"}, {"Name": "Dunkin' Donuts", "Rating": "4.1", "location": " 18-20, Gf, Kg Marg, Chanakyapuri, New Delhi", "Cuisines: ": "Desserts, Burger, Cafe", "hours": "9am\u201312midnight(Mon-Sun)", "Cost for two": "\u20b9600", "votes": "536"}, {"Name": "Hoi Foods", "Rating": "3.2", "location": " Delivery Only", "Cuisines: ": "North Indian, Chinese", "hours": "11am\u201311pm(Mon-Sun)", "Cost for two": "\u20b9600", "votes": "10"}, {"Name": "KRK Foodies", "Rating": "NEW", "location": " Shop 1, Gali 13, A 1 Block, Kamalpur Majra, Sant Nagar, Burari, Azadpur, New Delhi", "Cuisines: ": "North Indian, Chinese", "hours": "10am\u201311:30pm(Mon-Sun)", "Cost for two": "\u20b9300", "votes": "10"}]