[{"Name": "Cake & Bake", "Rating": "-", "location": " Shop 16, Princess Park, Ahinsa Khand 2, Near DPS Secondary School, Indirapuram, Ghaziabad", "Cuisines: ": "Bakery, Fast Food", "hours": "9am\u20138pm(Mon-Sun)", "Cost for two": "\u20b9250"}, {"Name": "Chaap World", "Rating": "-", "location": " F24/1, Shop B, Sector 7, Rohini, New Delhi", "Cuisines: ": "North Indian, Fast Food", "hours": "1pm\u201311pm(Mon-Sun)", "Cost for two": "\u20b9400"}, {"Name": "Pasta & Grilled", "Rating": "3.6", "location": " Shop 6, RKGIT College, Raj Nagar Extension, Raj Nagar, Ghaziabad", "Cuisines: ": "Fast Food, Chinese, Italian, Beverages", "hours": "10am\u20139pm(Mon-Sun)", "Cost for two": "\u20b9250", "votes": "41"}, {"Name": "Ramesh Dhaba", "Rating": "-", "location": " 9/1567, Subhash Road, Gandhi Nagar, Shahdara, New Delhi", "Cuisines: ": "North Indian", "hours": "11am\u20134pm,7pm\u201311pm(Mon-Sun)", "Cost for two": "\u20b9250", "votes": "41"}, {"Name": "PubG Foodcity", "Rating": "3.5", "location": " Shop 1, Ground Floor, Mohan Bhagwati Shop, Point Complex, Uttam Nagar, New Delhi", "Cuisines: ": "North Indian, Chinese", "hours": "11am\u201311pm(Mon-Sun)", "Cost for two": "\u20b9500", "votes": "53"}, {"Name": "Vansh Fast Food Corner", "Rating": "-", "location": " H 2, Ground Floor, Phase 3, Uttam Nagar, New Delhi", "Cuisines: ": "Chinese, Fast Food", "hours": "10am\u201310pm(Mon-Sun)", "Cost for two": "\u20b9250", "votes": "53"}, {"Name": "Rawals Cafeteria", "Rating": "3.2", "location": " A-109, Deoli Road, Pocket C, Jawahar Park, Khanpur, New Delhi", "Cuisines: ": "Fast Food, Chinese", "hours": "12noon\u20134am(Mon-Sun)", "Cost for two": "\u20b9200", "votes": "10"}, {"Name": "Foodies By Born", "Rating": "3.5", "location": " E 1/18, Budh Vihar, Phase 1, Near Arihant Medicos, Rohini, New Delhi", "Cuisines: ": "Italian, Fast Food, Beverages", "hours": "11am\u20139:30pm(Mon-Sun)", "Cost for two": "\u20b9250", "votes": "18"}, {"Name": "Punjabi Tadka at OTH", "Rating": "2.6", "location": " B7/123, Safdarjung Enclave Extension, Safdarjung, New Delhi", "Cuisines: ": "North Indian, Chinese, Mughlai, Afghan", "hours": "11am\u201311pm(Mon-Sun)", "Cost for two": "\u20b9300", "votes": "62"}, {"Name": "Art Chilli", "Rating": "3.5", "location": " Gate 2, A-1, Cariappa Marg, Near Sainik Farms, Opposite Saket, M.B.Road, New Delhi", "Cuisines: ": "Chinese", "hours": "12noon\u20133:30pm,7pm\u201311pm(Mon-Sun)", "Cost for two": "\u20b91,200", "votes": "51"}, {"Name": "Standard Sweets & Confectioners", "Rating": "3.4", "location": " Shop P 38/7, Sector 12, Noida", "Cuisines: ": "Mithai, Street Food", "hours": "8am\u201310pm(Mon-Sun)", "Cost for two": "\u20b9150", "votes": "22"}, {"Name": "Akshu Chinese World", "Rating": "3.2", "location": " RZ C-102, Jeewan Park, Som Bazar Road, Uttam Nagar, New Delhi", "Cuisines: ": "Chinese", "hours": "10am\u201310pm(Mon-Sun)", "Cost for two": "\u20b9250", "votes": "10"}, {"Name": "Bhature Point", "Rating": "3.4", "location": " Opposite G 37, Near Mother Dairy, Sector 22, Noida", "Cuisines: ": "North Indian", "hours": "8am\u20135pm(Mon-Sun)", "Cost for two": "\u20b9250", "votes": "15"}, {"Name": "Cafe Italiano", "Rating": "3.2", "location": " Shop 1, Rama Complex, Mata Vali Gali, Sukhrali, Sector 17, Gurgaon", "Cuisines: ": "Fast Food, Italian", "hours": "11am\u201312:30am(Mon-Sun)", "Cost for two": "\u20b9400", "votes": "6"}, {"Name": "Meretto Bun Pizza", "Rating": "3.3", "location": " Shop 2386/7A, Sector 7, Faridabad", "Cuisines: ": "Italian, Mexican, Spanish, Cafe, Desserts, Beverages, Fast Food", "hours": "11am\u201311pm(Mon-Sun)", "Cost for two": "\u20b9500", "votes": "9"}]