[{"Name": "S.S. Tiffin Service Centre", "Rating": "3.3", "votes": "12", "location": " Furniture Market, Multani Dhanda Chowk, Paharganj, New Delhi", "Cuisines: ": "North Indian", "hours": "8am\u20138pm(Mon-Sun)", "Cost for two": "\u20b9200"}, {"Name": "Midnight Canteen", "Rating": "3.8", "votes": "115", "location": " 4/1, Mezzanine Floor, DB Gupta Road, Paharganj, New Delhi", "Cuisines: ": "Fast Food, North Indian", "hours": "24Hours(Mon-Sun)", "Cost for two": "\u20b9500"}, {"Name": "Vaga Bond", "Rating": "3.3", "votes": "24", "location": " Hotel Ajanta, 8647, Arakashan Road, Paharganj, New Delhi", "Cuisines: ": "North Indian, Chinese, Fast Food", "hours": "11am\u201311:30pm(Mon-Sun)", "Cost for two": "\u20b91,100"}, {"Name": "Cafe Brownie", "Rating": "3.6", "votes": "23", "location": " 8501/15, Grand Godwin Hotel, Aarakshan Road, Paharganj, New Delhi", "Cuisines: ": "Cafe, Italian, Fast Food", "hours": "9am\u201311pm(Mon-Sun)", "Cost for two": "\u20b9650"}, {"Name": "Punjabi Pride", "Rating": "-", "votes": "23", "location": " 9027/1, Chowk Multani Dhanda, Paharganj, New Delhi", "Cuisines: ": "North Indian, Mughlai, Rolls", "hours": "12noon\u201311pm(Mon-Sun)", "Cost for two": "\u20b9200"}, {"Name": "Tinku's Assam-Bengal Restaurant", "Rating": "-", "votes": "23", "location": " 7974/1, Arakshan Road, Paharganj, New Delhi", "Cuisines: ": "Bengali, North Indian", "hours": "8am\u201311pm(Mon-Sun)", "Cost for two": "\u20b9400"}, {"Name": "Kunal Egg Corner", "Rating": "NEW", "votes": "23", "location": " 8092, Gali 7, Multani Dhanda, Paharganj, New Delhi", "Cuisines: ": "Street Food", "hours": "6pm\u201310:30pm(Mon-Sun)", "Cost for two": "\u20b9150"}, {"Name": "Deepak Fruit Juice", "Rating": "-", "votes": "23", "location": " 8828, Multani Danda, Gali 2, Govindaram Verma Marg, Paharganj, New Delhi", "Cuisines: ": "Beverages", "hours": "9am\u201311pm(Mon-Sun)", "Cost for two": "\u20b9150"}, {"Name": "Jammu Ke Mashoor Naan", "Rating": "3.7", "votes": "32", "location": " 9223/5, Multani Dhanda, Paharganj, New Delhi", "Cuisines: ": "North Indian", "hours": "11am\u20134pm(Mon-Sun)", "Cost for two": "\u20b9100"}, {"Name": "Roll Box", "Rating": "-", "votes": "32", "location": " 9181/4, Multani Dhanda, Paharganj, New Delhi", "Cuisines: ": "Rolls, Chinese", "hours": "12noon\u201311pm(Mon-Sun)", "Cost for two": "\u20b9200"}, {"Name": "Mikky Restaurant", "Rating": "3.5", "votes": "43", "location": " 2-3, Ram Nagar Market, Paharganj, New Delhi", "Cuisines: ": "North Indian, Mughlai, Chinese", "hours": "11am\u201311pm(Mon-Sun)", "Cost for two": "\u20b9500"}, {"Name": "A-One Chinese Fast Food Corner", "Rating": "-", "votes": "43", "location": " 8203, Multani Dhanda, Paharganj, New Delhi", "Cuisines: ": "Chinese", "hours": "10am\u201310pm(Mon-Sun)", "Cost for two": "\u20b9200"}, {"Name": "Sonu South Indian Restaurant", "Rating": "3.3", "votes": "43", "location": " 8894/2, Multani Dhanda, Paharganj, New Delhi", "Cuisines: ": "South Indian, North Indian", "hours": "8am\u201311:30pm(Mon-Sun)", "Cost for two": "\u20b9300"}, {"Name": "Fouji Dhaba", "Rating": "3.2", "votes": "11", "location": " 95, Ram Nagar, Qutab Road, Paharganj, New Delhi", "Cuisines: ": "North Indian", "hours": "11am\u201310pm(Mon-Sun)", "Cost for two": "\u20b9200"}, {"Name": "Green Chilli", "Rating": "3.4", "votes": "21", "location": " 2351, Raj Guru Road, Chuna Mandi, Paharganj, New Delhi", "Cuisines: ": "North Indian, Chinese, Continental", "hours": "11am\u20131am(Mon-Sun)", "Cost for two": "\u20b9800"}]