[{"Name": "Bolly Bar", "Rating": "3.5", "votes": "15", "location": " B1/14, Central Market, Sector 50, Noida", "Cuisines: ": "Finger Food", "hours": "11am\u201311pm(Mon-Sun)", "Cost for two": "\u20b91,200"}, {"Name": "Coldpress Company", "Rating": "4.0", "votes": "104", "location": " Omaxe Gurgaon Mall, Sohna Road, Gurgaon", "Cuisines: ": "Healthy Food, Juices, Salad", "hours": "8am\u20135pm(Mon-Sun)", "Cost for two": "\u20b9500"}, {"Name": "Chilli Flakes", "Rating": "2.8", "votes": "66", "location": " Kiosk 1, Paramount Florence Plaza, Sector 137, Near Sector 132, Noida", "Cuisines: ": "Chinese, North Indian", "hours": "11:30am\u201310:30pm(Mon-Sun)", "Cost for two": "\u20b9400"}, {"Name": "ILHAM Afghan Cuisine", "Rating": "3.6", "votes": "33", "location": " Near Jain Temple, Bhogal, Jangpura, New Delhi", "Cuisines: ": "Afghan", "hours": "12noon\u201311pm(Mon-Sun)", "Cost for two": "\u20b9500"}, {"Name": "Momos Junction", "Rating": "3.3", "votes": "27", "location": " Fruit Market, Near Saat Manjila Mandir, Tilak Nagar, New Delhi", "Cuisines: ": "Chinese, North Indian", "hours": "2pm\u201310:30pm(Mon,Tue,Thu,Fri,Sat,Sun)...", "Cost for two": "\u20b9200"}, {"Name": "Jain Ke Mashoor Chhole Tikki", "Rating": "3.0", "votes": "6", "location": " 12/1, Near 12 Block Chowk, Geeta Colony, New Delhi", "Cuisines: ": "Street Food", "hours": "8:30am\u201310:30pm(Mon-Sun)", "Cost for two": "\u20b9150"}, {"Name": "Balaji Restaurant", "Rating": "3.3", "votes": "270", "location": " 51-52, Sector 28 Market, Sector 28, Faridabad", "Cuisines: ": "North Indian, Chinese, Fast Food, Mithai", "hours": "9am\u201311pm(Mon-Sun)", "Cost for two": "\u20b9500"}, {"Name": "Kalkagarh Foods", "Rating": "-", "votes": "270", "location": " B-6, Ground Floor, Guru Nanak Pura, Opposite Radhu Palace Cinema, Laxmi Nagar, New Delhi", "Cuisines: ": "North Indian, Chinese", "hours": "10am\u201310pm(Mon-Sun)", "Cost for two": "\u20b9450"}, {"Name": "Salt N Spice", "Rating": "3.3", "votes": "11", "location": " 16, Upper Ground Floor, LE Mart, Ajnara, Amrapali Dream Valley, Greater Noida", "Cuisines: ": "Fast Food, Desserts, Beverages", "hours": "11am\u201310:30pm(Mon-Sun)", "Cost for two": "\u20b9500"}, {"Name": "Kathi Roll Corner 44", "Rating": "3.5", "votes": "38", "location": " Shop 21, Ground Floor, Gurunanak Market, Lajpat Nagar 4, New Delhi", "Cuisines: ": "Chinese, Rolls", "hours": "10am\u201310pm(Mon-Sun)", "Cost for two": "\u20b9300"}, {"Name": "Signature Salads And More", "Rating": "3.8", "votes": "25", "location": " 2nd Floor, Eat Food Lounge, DLF Promenade, Vasant Kunj, New Delhi", "Cuisines: ": "Healthy Food, Salad, Wraps, Rolls, Beverages", "hours": "8am\u201311pm(Mon-Sun)", "Cost for two": "\u20b9400"}, {"Name": "French Omelet", "Rating": "3.6", "votes": "49", "location": " Sector 4 & 5 Chowk, Station Road, Old Railway Road, Gurgaon", "Cuisines: ": "Street Food", "hours": "8am\u201310pm(Mon-Sun)", "Cost for two": "\u20b9250"}, {"Name": "Wha Ji Wha", "Rating": "3.4", "votes": "63", "location": " Shop 1 & 2, Khasra 487/1, Ground Floor, Village Karala, Near Cooperative Bank, Rohini, New Delhi", "Cuisines: ": "North Indian, Chinese", "hours": "11am\u201310pm(Mon-Sun)", "Cost for two": "\u20b9400"}, {"Name": "Baba Chinese Fast Food & Snacks", "Rating": "3.4", "votes": "16", "location": " A-30, Kewal Park Extension, Main Road, Azadpur, New Delhi", "Cuisines: ": "Chinese, North Indian, Rolls", "hours": "11am\u201311pm(Mon-Sun)", "Cost for two": "\u20b9200"}, {"Name": "Friends Mr Shawarma and Grill", "Rating": "3.7", "votes": "202", "location": " G-8, Amba Tower, D.C Chowk, Rohini, New Delhi", "Cuisines: ": "North Indian, Mughlai", "hours": "1pm\u201310:30pm(Mon,Wed,Thu,Fri,Sat,Sun)...", "Cost for two": "\u20b9300"}]