[{"Name": "Indian Spice Mix", "Rating": "NEW", "location": " A-1/6/217, Air India Colony, Vasant Vihar, New Delhi", "Cuisines: ": "North Indian", "hours": "11am\u201311pm(Mon-Sun)", "Cost for two": "\u20b9200"}, {"Name": "Chic-Inn Pick-N-Move", "Rating": "NEW", "location": " Shop 28, CSC Market, West Punjabi Bagh Enclave, Punjabi Bagh, New Delhi", "Cuisines: ": "North Indian", "hours": "11am\u201311pm(Mon-Sun)", "Cost for two": "\u20b9150"}, {"Name": "Mini Meals", "Rating": "3.7", "location": " G-45, Aggarwal Millenium Tower, Netaji Subhash Place, New Delhi", "Cuisines: ": "North Indian", "hours": "11am\u201311pm(Mon-Sun)", "Cost for two": "\u20b9300", "votes": "272"}, {"Name": "Royal Food", "Rating": "3.4", "location": " Shop 29, Near Ansal Plaza Mall, Tugalpur, Near Knowledge Park, Greater Noida", "Cuisines: ": "North Indian, Chinese", "hours": "7am\u20134am(Mon-Sun)", "Cost for two": "\u20b9450", "votes": "15"}, {"Name": "Feedup", "Rating": "4.3", "location": " Plot 10, Basement, Local Shopping Complex, Madangir, Saket, New Delhi", "Cuisines: ": "North Indian, Chinese, Fast Food", "hours": "7pm\u20135am(Mon-Sun)", "Cost for two": "\u20b9500", "votes": "101"}, {"Name": "The Cake Man", "Rating": "4.0", "location": " Delivery Only", "Cuisines: ": "Bakery", "hours": "11am\u201311:30pm(Mon-Sun)", "Cost for two": "\u20b9400", "votes": "104"}, {"Name": "Punjabi's Eating Hub", "Rating": "3.7", "location": " G-5 & G-6, Anshul Tower, LSC, Sainik Vihar Market, Pitampura, New Delhi", "Cuisines: ": "North Indian, Mughlai", "hours": "12noon\u20134pm,6pm\u201311pm(Mon-Sun)", "Cost for two": "\u20b9500", "votes": "100"}, {"Name": "Caff\u00e9 Bella Italia", "Rating": "NEW", "location": " 135, Ground Floor, Paras Trade Centre, Gwal Pahari, Sector 2, Gurgaon", "Cuisines: ": "Italian, Continental", "hours": "11am\u20138pm(Mon-Sun)", "Cost for two": "\u20b9600", "votes": "100"}, {"Name": "Litti King", "Rating": "3.4", "location": " B 121, Sector 71, Noida", "Cuisines: ": "Bihari", "hours": "10am\u201310pm(Mon-Sun)", "Cost for two": "\u20b9300", "votes": "14"}, {"Name": "The Bloom Bakers", "Rating": "NEW", "location": " Shop 14, Plot 2826, Virendera Palace Market, DLF Phase 4, Gurgaon", "Cuisines: ": "Bakery, Fast Food", "hours": "8am\u201310pm(Mon-Sun)", "Cost for two": "\u20b9300", "votes": "14"}, {"Name": "Park Balluchi", "Rating": "3.9", "location": " CS 5 & 5A, Prateek Walk, Near Prateek Wisteria, Sector 77, Near Sector 72, Noida", "Cuisines: ": "Mughlai, North Indian, Chinese", "hours": "12noon\u201311pm(Mon-Sun)", "Cost for two": "\u20b9750", "votes": "543"}, {"Name": "Parantha Heaven", "Rating": "3.5", "location": " T-130, T-market, Sriniwaspuri, Friends Colony, New Delhi", "Cuisines: ": "North Indian", "hours": "11am\u201311pm(Mon-Sun)", "Cost for two": "\u20b9200", "votes": "20"}, {"Name": "Kathi Junction Company", "Rating": "4.1", "location": " Shop 03, 289, Ground Floor, Nyay Khand 2, Near Ampralli Village, Indirapuram, Ghaziabad", "Cuisines: ": "North Indian, Rolls", "hours": "2pm\u20132am(Mon-Sun)", "Cost for two": "\u20b9200", "votes": "102"}, {"Name": "Madras Dosa House", "Rating": "3.4", "location": " Shop 71, Huda Market, Sector 22, Gurgaon", "Cuisines: ": "South Indian", "hours": "8am\u20132am(Mon-Sun)", "Cost for two": "\u20b9300", "votes": "49"}, {"Name": "Chadha Uncle & Sons", "Rating": "3.6", "location": " 31, Kingswood Market, Crossing Republik, Ghaziabad", "Cuisines: ": "North Indian, Chinese", "hours": "12:30pm\u201311:30pm(Mon-Sun)", "Cost for two": "\u20b9800", "votes": "41"}]