[{"Name": "Srishti's Sugar Street", "Rating": "3.9", "votes": "35", "location": " A 15/20, Main Market, Sector 44, Noida", "Cuisines: ": "Bakery, Desserts, Beverages", "hours": "10am\u201310pm(Mon-Sat),Closed(Sun)", "Cost for two": "\u20b9400"}, {"Name": "Dilli 14", "Rating": "3.2", "votes": "23", "location": " 187, H/7, Kilokri Extension, Jeewan Nagar Main Market, Jangpura, New Delhi", "Cuisines: ": "North Indian, Chinese, Mughlai", "hours": "12noon\u201311pm(Mon-Sun)", "Cost for two": "\u20b9500"}, {"Name": "Hot & Sour", "Rating": "3.8", "votes": "149", "location": " Shop 56, Block 1, Near Ganga Shopping Complex, Sector 29, Noida", "Cuisines: ": "Chinese", "hours": "11am\u201310:45pm(Mon-Sun)", "Cost for two": "\u20b9400"}, {"Name": "Momo Mia", "Rating": "3.6", "votes": "38", "location": " Shop 3, Godavari Shopping Complex, Sector 37, Noida", "Cuisines: ": "Momos, North Indian, Rolls", "hours": "11:30am\u201310:30pm(Mon-Sun)", "Cost for two": "\u20b9400"}, {"Name": "Dim Sum Bar", "Rating": "3.4", "votes": "12", "location": " Shop 144, Ground Floor, Plot 168 A, Jaipuria Plaza, Gautam Budh Nagar, Sector 26, Noida", "Cuisines: ": "Chinese, Beverages", "hours": "11am\u201311pm(Mon-Sun)", "Cost for two": "\u20b9200"}, {"Name": "The World Of Pizza And Burger", "Rating": "3.6", "votes": "116", "location": " Shop A - 141/2, Tajpur Road, Mohan Baba Nagar, Tajpur Pahari Village, Badarpur Border, Faridabad", "Cuisines: ": "Pizza, Fast Food", "hours": "10am\u201310pm(Mon-Sun)", "Cost for two": "\u20b9500"}, {"Name": "Paan Bazaar", "Rating": "3.2", "votes": "7", "location": " G25, Savitri Market, Opposite GIP Mall Gate 3, Sector 18, Noida", "Cuisines: ": "Paan", "hours": "4pm\u20133am(Mon-Sun)", "Cost for two": "\u20b9150"}, {"Name": "Al Niyamat", "Rating": "3.4", "votes": "27", "location": " D - 867, Jaitpur Part 2, Near Kalindi Kunj, Badarpur Border, Faridabad", "Cuisines: ": "Mughlai, North Indian", "hours": "6pm\u201312midnight(Mon-Sun)", "Cost for two": "\u20b9500"}, {"Name": "Pishori Chicken", "Rating": "3.6", "votes": "45", "location": " Shop 3, DDA Market, Sector 5, Dwarka, New Delhi", "Cuisines: ": "North Indian, Chinese", "hours": "4pm\u201310:30pm(Mon-Sun)", "Cost for two": "\u20b9600"}, {"Name": "Cheer Up Point Momos", "Rating": "3.4", "votes": "22", "location": " PVR Anupam Complex, Saket, New Delhi", "Cuisines: ": "Momos", "hours": "5pm\u201310:30pm(Mon-Sun)", "Cost for two": "\u20b9100"}, {"Name": "Bengali Restaurant", "Rating": "3.3", "votes": "44", "location": " B-8A, Shop 21, Amaltash Market,  Sector 34, Noida", "Cuisines: ": "Bengali, Chinese, North Indian", "hours": "11am\u20134pm,6pm\u201310:30pm(Mon-Sun)", "Cost for two": "\u20b9500"}, {"Name": "Baankaahi", "Rating": "3.3", "votes": "18", "location": " Assam Bhawan, 1, Sardar Patel Marg, Chanakyapuri, New Delhi", "Cuisines: ": "Assamese, Chinese, North Indian", "hours": "12noon\u201310:30pm(Mon-Sun)", "Cost for two": "\u20b9600"}, {"Name": "The AB's Kitchen", "Rating": "3.5", "votes": "21", "location": " B1 45, DLF Dilshad Extension, Near Bhopura Chowk, Dilshad Garden, New Delhi", "Cuisines: ": "North Indian", "hours": "12noon\u201310:30pm(Mon-Sun)", "Cost for two": "\u20b9300"}, {"Name": "Chawla Chinese Food", "Rating": "3.4", "votes": "21", "location": " D 12/9, Shyam Park Extension, Sahibabad, Ghaziabad", "Cuisines: ": "Chinese", "hours": "11am\u201310pm(Mon-Sun)", "Cost for two": "\u20b9300"}, {"Name": "Flavours Of Chinese", "Rating": "3.6", "votes": "66", "location": " A-19/1, Second Floor, Panchsheel Vihar, Malviya Nagar, New Delhi", "Cuisines: ": "Chinese", "hours": "7am\u20134am(Mon-Sun)", "Cost for two": "\u20b9250"}]