[{"Name": "Chaudhary Di Hatti", "Rating": "3.9", "votes": "128", "location": " 4, Post Office Block, Near Arya Samaj Mandir, Krishna Nagar, New Delhi", "Cuisines: ": "Mithai, Street Food", "hours": "8am\u20139pm(Mon-Sun)", "Cost for two": "\u20b9150"}, {"Name": "Second Hand Wife", "Rating": "NEW", "votes": "128", "location": " H- 72, Vivek Vihar, Dilshad Garden, New Delhi", "Cuisines: ": "Rolls, North Indian, Chinese, Fast Food", "hours": "12:30pm\u201311pm(Mon,Wed,Thu,Fri,Sat,Sun)...", "Cost for two": "\u20b9350"}, {"Name": "Handi", "Rating": "3.8", "votes": "266", "location": " Shop G4, Plot 2, H Pocket, DDA Market, Sarita Vihar, New Delhi", "Cuisines: ": "North Indian, Chinese", "hours": "11:30am\u20134pm,6pm\u201311pm(Mon-Sun)", "Cost for two": "\u20b9500"}, {"Name": "Chinese Hut", "Rating": "3.8", "votes": "188", "location": " E-6, Main Market, South Extension 2, New Delhi", "Cuisines: ": "Chinese", "hours": "11am\u201310pm(Mon-Sun)", "Cost for two": "\u20b9500"}, {"Name": "Amar Bakery", "Rating": "3.8", "votes": "106", "location": " Shop 72 B, Vikas Marg, Opposite Metro Pillar 50, Laxmi Nagar, New Delhi", "Cuisines: ": "Bakery, Mithai, Fast Food, Street Food", "hours": "10am\u201310:30pm(Mon-Sun)", "Cost for two": "\u20b9250"}, {"Name": "Kay's Chicken Corner", "Rating": "3.8", "votes": "235", "location": " 17, ND Market, Near TV Tower, Pitampura, New Delhi", "Cuisines: ": "Mughlai, North Indian, Chinese, Kebab", "hours": "7pm\u201311pm(Mon,Wed,Thu,Fri,Sat,Sun),Closed...", "Cost for two": "\u20b9800"}, {"Name": "Baba Ji Restaurant & Chat Corner", "Rating": "3.3", "votes": "16", "location": " Near Post Office, Sector 16 A, Faridabad", "Cuisines: ": "Chinese, Fast Food, North Indian, Street Food", "hours": "10am\u201311pm(Mon-Sun)", "Cost for two": "\u20b9300"}, {"Name": "Box-e-Biryani", "Rating": "3.6", "votes": "29", "location": " 13, Hyde Park Plaza, Sector 78, Near Sector 72, Noida", "Cuisines: ": "Biryani, North Indian", "hours": "11am\u201311pm(Mon-Sun)", "Cost for two": "\u20b9500"}, {"Name": "Hungry Beast", "Rating": "NEW", "votes": "29", "location": " U8/41, U Block, Sector 24, DLF Phase 3, Gurgaon", "Cuisines: ": "North Indian, Chinese", "hours": "9am\u201311pm(Mon-Sun)", "Cost for two": "\u20b9250"}, {"Name": "Midnight Pizza", "Rating": "NEW", "votes": "29", "location": " House 10, Hans Park Enclave, Sector 23, Gurgaon", "Cuisines: ": "Pizza, Fast Food", "hours": "24Hours(Mon-Sun)", "Cost for two": "\u20b9550"}, {"Name": "Crisp n Twist", "Rating": "3.8", "votes": "97", "location": " Shop 63-64, Near Sagar Cinema, Sector 16, Faridabad", "Cuisines: ": "Fast Food, Beverages", "hours": "11:30am\u201310:30pm(Mon-Sun)", "Cost for two": "\u20b9400"}, {"Name": "Shawarma Kingdom", "Rating": "NEW", "votes": "97", "location": " Shop 8, B Block, DDA Market, Ashok Vihar Phase 3, New Delhi", "Cuisines: ": "Lebanese, Fast Food", "hours": "5pm\u201311pm(Mon-Sun)", "Cost for two": "\u20b9200"}, {"Name": "Shudh Vaishno Shanker Dhaba", "Rating": "4.0", "votes": "323", "location": " Shop 163, A-6, LSC DDA Market, Paschim Vihar, New Delhi", "Cuisines: ": "North Indian", "hours": "11:30am\u20134pm,6:30pm\u201311pm(Mon-Sun)", "Cost for two": "\u20b9300"}, {"Name": "Mystical Bundle", "Rating": "4.1", "votes": "264", "location": " Delivery Only", "Cuisines: ": "Bakery, Desserts", "hours": "11am\u201310:45pm(Mon-Sun)", "Cost for two": "\u20b9650"}, {"Name": "Bite Bikaner", "Rating": "3.9", "votes": "393", "location": " C-1/1, Opposite Mata Channan Devi Hospital, Janakpuri, New Delhi", "Cuisines: ": "North Indian, Chinese, Street Food", "hours": "11am\u201311pm(Mon-Sun)", "Cost for two": "\u20b9650", "Featured in: ": "Veggie Friendly, Get flat 25% Off"}]