[{"Name": "Zappfresh", "Rating": "3.3", "votes": "17", "location": " 208, Vipul Trade Centre, Sector 48, Sohna Road, Gurgaon", "Cuisines: ": "Raw Meats, Fast Food", "hours": "9am\u20139pm(Mon-Sun)", "Cost for two": "\u20b9300"}, {"Name": "Spicy Bites", "Rating": "3.3", "votes": "14", "location": " Shop CS-18, KW Srishti Market, Raj Nagar Extension, Raj Nagar, Ghaziabad", "Cuisines: ": "Street Food", "hours": "12noon\u201310:30pm(Mon-Sun)", "Cost for two": "\u20b9200"}, {"Name": "King Dhaba", "Rating": "3.1", "votes": "5", "location": " 2, Badshahpur Chowk, Sector 69, Sohna Road, Gurgaon", "Cuisines: ": "Rajasthani, North Indian, Chinese", "hours": "12noon\u201312midnight(Mon-Sun)", "Cost for two": "\u20b9200"}, {"Name": "Brother's Pizza Point", "Rating": "3.2", "votes": "9", "location": " Shop 452, Building 1, School Block, Shakarpur, New Delhi", "Cuisines: ": "Pizza, Fast Food, Beverages", "hours": "11am\u20139pm(Mon-Sun)", "Cost for two": "\u20b9500"}, {"Name": "Chaipiyoji", "Rating": "3.7", "votes": "62", "location": " G 39, Opposite The Asian Age, Main Market, Green Park, New Delhi", "Cuisines: ": "North Indian, Fast Food, Beverages", "hours": "10am\u20138:30pm(Mon-Sun)", "Cost for two": "\u20b9200"}, {"Name": "The Hungry Pit", "Rating": "3.8", "votes": "62", "location": " Shop G-3A, Ground Floor, SD Shoppers Arcade, DDA Community Centre, DC Chowk Market, Sector 9, Rohini, New Delhi", "Cuisines: ": "Pizza, Fast Food, Burger, Healthy Food, Beverages, Desserts, Sandwich", "hours": "11:30am\u201311:30pm(Mon-Sun)", "Cost for two": "\u20b9350"}, {"Name": "Kanikas Kitchen", "Rating": "3.6", "votes": "90", "location": " Kohat Enclave, Near Kohat Enclave Metro Station, Pitampura, New Delhi", "Cuisines: ": "North Indian, Chinese", "hours": "11am\u201311pm(Mon-Sun)", "Cost for two": "\u20b9500"}, {"Name": "Baba Dhaba", "Rating": "3.7", "votes": "78", "location": " Wazirabad Main Road, Near Bharat Petroleum, Bhopura, Near Wazirabad, Ghaziabad", "Cuisines: ": "North Indian", "hours": "24Hours(Mon-Sun)", "Cost for two": "\u20b9250"}, {"Name": "Nut Khut", "Rating": "3.3", "votes": "9", "location": " 122/2/3/4, Ground Floor, West Sant Nagar, Burari, Azadpur, New Delhi", "Cuisines: ": "North Indian, Fast Food, Chinese", "hours": "12:30pm\u201310:30pm(Mon-Sun)", "Cost for two": "\u20b9350"}, {"Name": "Hot N Crusty", "Rating": "3.6", "votes": "163", "location": " 2336, Sector 28, Faridabad", "Cuisines: ": "Fast Food, Chinese, Italian", "hours": "1pm\u20131am(Mon-Sun)", "Cost for two": "\u20b9500"}, {"Name": "Gut Gullie", "Rating": "4.0", "votes": "182", "location": " 2nd Floor, Food Court, PVR City Center Mall, MG Road, Gurgaon", "Cuisines: ": "Fast Food, Healthy Food, Mexican", "hours": "11am\u201311pm(Mon-Sun)", "Cost for two": "\u20b9400"}, {"Name": "Togglers", "Rating": "3.9", "votes": "452", "location": " 5442, Pragati Vihar, DLF Phase 4, Gurgaon", "Cuisines: ": "Burger, Sandwich, Beverages", "hours": "9am\u20132am(Mon-Sun)", "Cost for two": "\u20b9600"}, {"Name": "Al Zaika Plus", "Rating": "3.5", "votes": "27", "location": " Shop 2, Plot A5A/383, Janta Quarters, Possangipur, Janakpuri, New Delhi", "Cuisines: ": "North Indian, Mughlai", "hours": "12noon\u201311pm(Mon,Wed,Thu,Fri,Sun),Closed...", "Cost for two": "\u20b9500"}, {"Name": "The Mellow Yellow Co.", "Rating": "3.7", "votes": "53", "location": " S-187, Panchsheel Park, New Delhi", "Cuisines: ": "Bakery, Desserts", "hours": "10am\u201310pm(Mon-Sun)", "Cost for two": "\u20b9900"}, {"Name": "Rozana", "Rating": "3.7", "votes": "132", "location": " 16/6, U Block, Sector 24, DLF Phase 3, Gurgaon", "Cuisines: ": "North Indian, Chinese", "hours": "12:30pm\u201312midnight(Mon-Sun)", "Cost for two": "\u20b9500"}]