[{"Name": "Hokkaido Cafe", "Rating": "3.7", "votes": "113", "location": " Shop 172, H R Property, Maharishi Parashar Marg, Sector 17, Faridabad", "Cuisines: ": "Fast Food, Chinese", "hours": "11am\u20134am(Mon-Sun)", "Cost for two": "\u20b9400"}, {"Name": "The Coffizza", "Rating": "3.3", "votes": "21", "location": " Shop 3 & 4, Opposite SPR Buildtech, Sector 82, Near Sector 81, Faridabad", "Cuisines: ": "Fast Food, Beverages, Desserts", "hours": "10am\u201310pm(Mon-Sun)", "Cost for two": "\u20b9400"}, {"Name": "Apsara Bakers", "Rating": "3.6", "votes": "105", "location": " B-1/25-26, Sector 17, Rohini, New Delhi", "Cuisines: ": "Bakery, Fast Food", "hours": "9am\u201311pm(Mon-Sun)", "Cost for two": "\u20b9200"}, {"Name": "Kamboj's", "Rating": "3.5", "votes": "376", "location": " AVCC Club, Sector 37, Noida", "Cuisines: ": "North Indian, Mughlai, Chinese", "hours": "11am\u20135pm,6:30pm\u20131:30am(Mon-Sun)", "Cost for two": "\u20b9700"}, {"Name": "Apni Rasoi", "Rating": "3.2", "votes": "26", "location": " B-6/150, Opposite Gym, Sector 8, Rohini, New Delhi", "Cuisines: ": "North Indian", "hours": "11am\u201310:30pm(Mon-Sun)", "Cost for two": "\u20b9400"}, {"Name": "Rakesh Roshan Bedmi Puri", "Rating": "-", "votes": "26", "location": " 2C, 120, Near Mewar College, Vasundhara, Ghaziabad", "Cuisines: ": "North Indian", "hours": "10am\u20134pm,7:30pm\u201311pm(Mon-Sun)", "Cost for two": "\u20b9100"}, {"Name": "YumYumSouth", "Rating": "3.7", "votes": "175", "location": " Delivery Only", "Cuisines: ": "South Indian", "hours": "8am\u201311pm(Mon-Sun)", "Cost for two": "\u20b9500"}, {"Name": "Jain Corner", "Rating": "-", "votes": "175", "location": " 116 A, Shakti Nagar Chowk, Kamla Nagar, New Delhi", "Cuisines: ": "Bakery, Fast Food", "hours": "11am\u201311pm(Mon-Sun)", "Cost for two": "\u20b9150"}, {"Name": "Fun Bytes", "Rating": "3.8", "votes": "166", "location": " Block G, Khirki Extension, Malviya Nagar, New Delhi", "Cuisines: ": "Fast Food, Burger", "hours": "11am\u20132am(Mon-Sun)", "Cost for two": "\u20b9350"}, {"Name": "Imblotto Restobar", "Rating": "3.2", "votes": "9", "location": " 4th Floor, Arza Squar 1, Near Gaur Chawk, Noida Extention, Gautam Buddh Nagar, Greater Noida, Gaur City 1, Greater Noida", "Cuisines: ": "North Indian, Chinese, Continental, BBQ", "hours": "12noon\u201311pm(Mon-Sun)", "Cost for two": "\u20b9600"}, {"Name": "Chawla Express", "Rating": "3.2", "votes": "11", "location": " 1341, Near Batra Cinema Hall, Mukherjee Nagar, New Delhi", "Cuisines: ": "North Indian, Chinese", "hours": "11:30am\u201311:30pm(Mon-Sun)", "Cost for two": "\u20b9450"}, {"Name": "San Diego Bakers", "Rating": "3.6", "votes": "34", "location": " Delivery Only", "Cuisines: ": "Bakery, Desserts", "hours": "10am\u20131am(Mon-Sun)", "Cost for two": "\u20b9600"}, {"Name": "Champaran Dhaba", "Rating": "3.1", "votes": "5", "location": " 69, Bonita Chasa, IGNOU Main Road, Sainik Farms, New Delhi", "Cuisines: ": "Chinese, North Indian", "hours": "9am\u20132am(Mon-Sun)", "Cost for two": "\u20b9400"}, {"Name": "Aap Ki Rasoi", "Rating": "NEW", "votes": "5", "location": " Shop 10, Ground Floor, Sudan Singh Market, Saidulajab, Saket, New Delhi", "Cuisines: ": "North Indian, South Indian", "hours": "9am\u201311pm(Mon-Sun)", "Cost for two": "\u20b9350"}, {"Name": "Chilli Gun", "Rating": "3.3", "votes": "20", "location": " Shop 2, Yardam Market, Yadram Marg, Chotpur Colony, Sector 63, Noida", "Cuisines: ": "North Indian, Chinese, Fast Food", "hours": "12noon\u201312midnight(Mon),11am\u201312midnight...", "Cost for two": "\u20b9500"}]