[{"Name": "World Of Desserts", "Rating": "3.8", "votes": "59", "location": " SD 145, Ground Floor, Jaipuria Sunrise Plaza, Dr Sushila Naiyar Marg, Ahinsa Khand 1, Indirapuram, Ghaziabad", "Cuisines: ": "Ice Cream, Fast Food", "hours": "11:30am\u201311:30pm(Mon-Sun)", "Cost for two": "\u20b9250"}, {"Name": "Ethnic Swaad", "Rating": "4.1", "votes": "75", "location": " Shop D, Auto Complex, Zamrudpur, Greater Kailash 1 (GK 1), New Delhi", "Cuisines: ": "North Indian, Rolls", "hours": "1pm\u20131am(Mon-Sun)", "Cost for two": "\u20b9600"}, {"Name": "Kadahitod", "Rating": "3.2", "votes": "8", "location": " 04, Plot 9, Gardenia Gateway, Sector 75, Near Sector 72, Noida", "Cuisines: ": "North Indian", "hours": "12noon\u201312midnight(Mon-Sun)", "Cost for two": "\u20b9500"}, {"Name": "Taste Of Youngistan", "Rating": "NEW", "votes": "8", "location": " G-70, Shiv Mandir, Mansarover Garden, Kirti Nagar, New Delhi", "Cuisines: ": "North Indian", "hours": "7pm\u201310pm(Mon-Sun)", "Cost for two": "\u20b9150"}, {"Name": "Bhai Bhai Special Chowmein", "Rating": "NEW", "votes": "8", "location": " Pochanpur, Near SBI Bank, Sector 23, Dwarka, New Delhi", "Cuisines: ": "Chinese, Fast Food", "hours": "10am\u201311pm(Mon-Sun)", "Cost for two": "\u20b9200"}, {"Name": "Tamarind Farm", "Rating": "3.5", "votes": "28", "location": " G 20, Ocus Quantum, Sector 51, Near Sector 50, Gurgaon", "Cuisines: ": "North Indian, Chinese", "hours": "11:30am\u201311:30pm(Mon-Sun)", "Cost for two": "\u20b9600"}, {"Name": "Shweta Cakes And Bakers", "Rating": "NEW", "votes": "28", "location": " Glory 1204, Ajnara Gen-X, Crossing Republik, Ghaziabad", "Cuisines: ": "Bakery", "hours": "10am\u20136pm(Mon-Sat),Closed(Sun)", "Cost for two": "\u20b9250"}, {"Name": "Khana Khazana", "Rating": "3.7", "votes": "92", "location": " DC Chowk, Near Delhi Citizen Apartment, Rohini, New Delhi", "Cuisines: ": "Chinese, Fast Food, North Indian", "hours": "11am\u201310pm(Mon-Sun)", "Cost for two": "\u20b9300"}, {"Name": "Alam Muradabadi Chicken Biryani & Chicken Corner", "Rating": "3.6", "votes": "66", "location": " Shop 2, Plot 5, Shavery, Near Bank Of India, Crossing Republik, Ghaziabad", "Cuisines: ": "Biryani, North Indian", "hours": "9am\u201311pm(Mon-Sun)", "Cost for two": "\u20b9300"}, {"Name": "Balaji Chaap Wale", "Rating": "3.3", "votes": "17", "location": " Shop 642, Main Burari Chowk, Azadpur, New Delhi", "Cuisines: ": "North Indian", "hours": "5pm\u201310:30pm(Mon-Sun)", "Cost for two": "\u20b9200"}, {"Name": "Nirvanaa Restaurant", "Rating": "3.2", "votes": "9", "location": " Shop 19 A, Ground Floor, Raja Garden, Rajouri Garden, New Delhi", "Cuisines: ": "North Indian, Chinese", "hours": "11am\u201311pm(Mon-Sun)", "Cost for two": "\u20b9300"}, {"Name": "Sai Foods", "Rating": "3.2", "votes": "6", "location": " 3424, Mahindra Park, Rani Bagh, Pitampura, New Delhi", "Cuisines: ": "North Indian", "hours": "11am\u201311pm(Mon-Sun)", "Cost for two": "\u20b9400"}, {"Name": "Tandoori Night's", "Rating": "3.1", "votes": "6", "location": " 1157, Janta Flats, Near Mukesh Dairy, DDA Market, Dilshad Garden, New Delhi", "Cuisines: ": "North Indian, Chinese", "hours": "11am\u201311pm(Mon-Sun)", "Cost for two": "\u20b9300"}, {"Name": "AL Kuresh", "Rating": "3.5", "votes": "6", "location": " Shop G-5, Plot 1, Vikas Surya Palaza, Sector 4, Dwarka, New Delhi", "Cuisines: ": "North Indian, Fast Food", "hours": "1pm\u201312midnight(Mon-Sun)", "Cost for two": "\u20b9500"}, {"Name": "Sanjha Chula", "Rating": "3.6", "votes": "90", "location": " Opposite Tirath Ram Hospital, Basai Road, Old Railway Road, Gurgaon", "Cuisines: ": "North Indian", "hours": "12:30pm\u20133:30pm,6pm\u201311pm(Mon,Wed,Thu...", "Cost for two": "\u20b9700"}]