[{"Name": "Gulshan Ji Kharode", "Rating": "3.5", "votes": "66", "location": " 354, Kabool Nagar, Near Taxi Stand, Shahdara, New Delhi", "Cuisines: ": "North Indian", "hours": "5:30pm\u201311:30pm(Mon-Sun)", "Cost for two": "\u20b9350"}, {"Name": "NY Pizzeria", "Rating": "4.0", "votes": "570", "location": " Delivery Only", "Cuisines: ": "Pizza, Italian", "hours": "5pm\u20134am(Mon,Tue,Wed,Thu,Sat,Sun),2pm\u2013...", "Cost for two": "\u20b9500"}, {"Name": "Pubg Restaurants", "Rating": "4.1", "votes": "140", "location": " 146, Central Arcade, MG Road, DLF Phase 2, Gurgaon", "Cuisines: ": "Mughlai, Chinese, North Indian", "hours": "12noon\u20133am(Mon-Sun)", "Cost for two": "\u20b9700"}, {"Name": "Rubicon Bar - The Leela Ambience", "Rating": "3.6", "votes": "49", "location": " The Leela Ambience, Ambience Island, DLF Phase 3, Gurgaon", "Cuisines: ": "Finger Food, Bar Food", "hours": "4pm\u201312midnight(Mon-Sat),12noon\u201312midnight...", "Cost for two": "\u20b91,800"}, {"Name": "Destination Live", "Rating": "3.8", "votes": "313", "location": " Shop 5, 12/2, Sector 37, Faridabad", "Cuisines: ": "North Indian, Mughlai, Chinese", "hours": "12noon\u201311pm(Mon-Sun)", "Cost for two": "\u20b9550"}, {"Name": "Mg Devine Cafe", "Rating": "3.4", "votes": "15", "location": " D 106, Sector 10, Noida", "Cuisines: ": "Rolls, Fast Food", "hours": "2pm\u20132am(Mon-Sun)", "Cost for two": "\u20b9300"}, {"Name": "Rolls N More", "Rating": "3.6", "votes": "165", "location": " 712, West Guru Angad Nagar, Laxmi Nagar, New Delhi", "Cuisines: ": "North Indian, Rolls", "hours": "11am\u20131am(Mon-Sun)", "Cost for two": "\u20b9250"}, {"Name": "Di Te Da", "Rating": "3.2", "votes": "8", "location": " Shop 3, Plot 1/4, Abhay Palace Complex, Ashok Marg, Sector 1, Vaishali, Ghaziabad", "Cuisines: ": "Fast Food, North Indian", "hours": "11am\u201311pm(Mon-Sun)", "Cost for two": "\u20b9300"}, {"Name": "The Choco Bites", "Rating": "NEW", "votes": "8", "location": " B1/1, Thoker 7, Shaheen Bagh, Abul Fazal Enclave, Jasola, New Delhi", "Cuisines: ": "Bakery, Fast Food, Pizza", "hours": "10:30am\u201310:30pm(Mon,Tue,Wed,Thu,Sat,Sun)...", "Cost for two": "\u20b9600"}, {"Name": "Aggrafe", "Rating": "3.6", "votes": "327", "location": " 1-F-30, 2nd Floor, Ozone Center, Near Town Park, Sector 12, Faridabad", "Cuisines: ": "North Indian, Mughlai, Chinese, Italian", "hours": "11am\u201311:30pm(Mon-Sun)", "Cost for two": "\u20b92,300"}, {"Name": "Unique Pastry Shop", "Rating": "3.7", "votes": "65", "location": " Opposite Raison Plaza, Sector 4, Vaishali, Ghaziabad", "Cuisines: ": "Bakery", "hours": "9am\u20139:30pm(Mon-Sun)", "Cost for two": "\u20b9300"}, {"Name": "Briosca", "Rating": "3.8", "votes": "71", "location": " Shop 16, 12/2, Upper Ground Floor, Near Sapna Market, Sector 37, Faridabad", "Cuisines: ": "Bakery, Desserts, Fast Food", "hours": "9am\u201310pm(Mon-Sun)", "Cost for two": "\u20b9500"}, {"Name": "MeatMe", "Rating": "3.2", "votes": "4", "location": " Delivery Only", "Cuisines: ": "North Indian", "hours": "11am\u201311pm(Mon-Sun)", "Cost for two": "\u20b9900"}, {"Name": "Cafe Hugs And Mugs", "Rating": "3.4", "votes": "24", "location": " Near Palam Metro Station Gate 2, Palam, New Delhi", "Cuisines: ": "Fast Food, Chinese, North Indian, Beverages", "hours": "10am\u201310pm(Mon-Sun)", "Cost for two": "\u20b9400"}, {"Name": "The Hunger Food", "Rating": "NEW", "votes": "24", "location": " Shop 1, WZ 409-OA, Ground Floor, Janak Park, Hari Nagar, Opposite Deen Dayal Hospital, Mayapuri Phase 2, New Delhi", "Cuisines: ": "North Indian, Chinese", "hours": "8am\u20131am(Mon-Sun)", "Cost for two": "\u20b9200"}]