[{"Name": "Pinka's Rasoi", "Rating": "3.6", "votes": "71", "location": " 1, MCD Market, Jangpura Extension, Jangpura, New Delhi", "Cuisines: ": "North Indian, Rolls", "hours": "10am\u201311pm(Mon-Sun)", "Cost for two": "\u20b9600"}, {"Name": "Moets Curry Leaf", "Rating": "3.6", "votes": "269", "location": " 50, Defence Colony Market, Defence Colony, New Delhi", "Cuisines: ": "North Indian, Mughlai, Japanese, Chinese", "hours": "12noon\u201312midnight(Mon-Sun)", "Cost for two": "\u20b91,500"}, {"Name": "Zaika", "Rating": "3.7", "votes": "231", "location": " Tradex Tower 2, Alpha Commercial Belt, Alpha 1, Greater Noida", "Cuisines: ": "North Indian, Mughlai", "hours": "11am\u201311pm(Mon-Sun)", "Cost for two": "\u20b9600"}, {"Name": "Pizza Diet", "Rating": "3.4", "votes": "142", "location": " C-3, North Chhajjupur, 100 Feet Road, Near V Mart, Durgapuri Chowk, Shahdara, New Delhi", "Cuisines: ": "Pizza, Fast Food", "hours": "11am\u201311pm(Mon-Sun)", "Cost for two": "\u20b9450"}, {"Name": "Chinese Hut", "Rating": "3.2", "votes": "6", "location": " Ashoka Complex, Sector 51, South City 2, Gurgaon", "Cuisines: ": "Chinese", "hours": "11am\u201311pm(Mon-Sun)", "Cost for two": "\u20b9600"}, {"Name": "Green Vatika", "Rating": "4.1", "votes": "220", "location": " CSC 5, DDA Gole Market, Rohini, New Delhi", "Cuisines: ": "North Indian, Chinese, Fast Food", "hours": "10am\u201312midnight(Mon-Sun)", "Cost for two": "\u20b91,200"}, {"Name": "Diju Da Dhaba", "Rating": "4.1", "votes": "291", "location": " Shop 9, First Floor, Huda Market, Sector 23 Gurgaon", "Cuisines: ": "North Indian, Chinese", "hours": "11am\u20131am(Mon-Sun)", "Cost for two": "\u20b9400"}, {"Name": "Desi Zaika", "Rating": "3.7", "votes": "216", "location": " House 85-A, Humayupur, Safdarjung Enclave, Safdarjung, New Delhi", "Cuisines: ": "North Indian, Chinese", "hours": "9am\u201311:30pm(Mon-Sun)", "Cost for two": "\u20b9350"}, {"Name": "The Royal Treat", "Rating": "3.7", "votes": "60", "location": " 542, Bada Bazaar, Baburam School, Shahdara, New Delhi", "Cuisines: ": "South Indian, Chinese", "hours": "11am\u201310pm(Mon-Sun)", "Cost for two": "\u20b9300"}, {"Name": "A One Chicken Biryani Corner", "Rating": "3.8", "votes": "132", "location": " Shop 1, 5-R/4, Opposite Surya Hospital, NIT, Faridabad", "Cuisines: ": "Biryani, Mughlai", "hours": "9:30am\u201312noon(Mon),Closed(Tue),9:30am\u2013...", "Cost for two": "\u20b9300"}, {"Name": "Tom Uncle Maggi Point", "Rating": "3.8", "votes": "144", "location": " 2262, Hudson lane, Behind S.G.T.B Khalsa College, Delhi University-GTB Nagar, New Delhi", "Cuisines: ": "Fast Food", "hours": "11am\u20139pm(Mon-Sun)", "Cost for two": "\u20b9300"}, {"Name": "Slic Chic", "Rating": "3.9", "votes": "459", "location": " 2, BS Market, Shalimar Bagh, New Delhi", "Cuisines: ": "Chinese, Salad", "hours": "10:30am\u201310pm(Mon-Sun)", "Cost for two": "\u20b9500"}, {"Name": "Baked Love by Vatsala", "Rating": "3.9", "votes": "130", "location": " Shop 17A, Aashirwad Complex D-1, Green Park, New Delhi", "Cuisines: ": "Bakery, Beverages", "hours": "11am\u20139pm(Mon-Sat),Closed(Sun)", "Cost for two": "\u20b9800"}, {"Name": "Sher- E-Punjab", "Rating": "3.2", "votes": "32", "location": " Sharma Market, Sector 53, Noida", "Cuisines: ": "North Indian, Chinese", "hours": "8am\u20134pm,7pm\u20134am(Mon-Sun)", "Cost for two": "\u20b9650"}, {"Name": "Gujarati Rasoi", "Rating": "NEW", "votes": "32", "location": " B 144, Rama Park Road, Uttam Nagar, New Delhi", "Cuisines: ": "North Indian, Gujarati", "hours": "8:20am\u201310:52pm(Mon),9:45am\u201311:25pm...", "Cost for two": "\u20b9200"}]