[{"Name": "Shawarma Mohalla", "Rating": "3.8", "votes": "139", "location": " Shop 18, DDA Market M Block, Vikaspuri, New Delhi", "Cuisines: ": "Lebanese, Chinese", "hours": "1:30pm\u201312midnight(Mon-Sun)", "Cost for two": "\u20b9400"}, {"Name": "Pasta Xpress", "Rating": "4.0", "votes": "386", "location": " 298-A, C-5/A, Janakpuri, New Delhi", "Cuisines: ": "Pizza, Burger, Fast Food", "hours": "11am\u201311pm(Mon-Sun)", "Cost for two": "\u20b9500"}, {"Name": "Pizza Cantt Express", "Rating": "3.3", "votes": "90", "location": " Shop 1/232, Near Allahbad Bank, Delhi Cantt., New Delhi", "Cuisines: ": "Pizza, Fast Food", "hours": "10:30am\u20139:30pm(Mon-Sun)", "Cost for two": "\u20b9500"}, {"Name": "2 In 1 Pizza & Burgers", "Rating": "3.3", "votes": "13", "location": " Shop 4, U 16/89, Gali 16, Opposite Mother Dairy, DLF Phase 3, Gurgaon", "Cuisines: ": "Pizza, Burger, Fast Food", "hours": "12noon\u20131am(Mon-Sun)", "Cost for two": "\u20b9300"}, {"Name": "Zanotta - The Leela Ambience", "Rating": "3.9", "votes": "161", "location": " The Leela Ambience, Ambience Island, DLF Phase 3, Gurgaon", "Cuisines: ": "Italian", "hours": "6:30pm\u201311:30pm(Mon-Fri),12noon\u201311pm(Sat-Sun)", "Cost for two": "\u20b93,000"}, {"Name": "MB Kitchen", "Rating": "-", "votes": "161", "location": " G-14 B, 1st Floor, Hudson Lane, Vijay Nagar, New Delhi", "Cuisines: ": "North Indian, Chinese, Continental, Momos", "hours": "11:30am\u20133am(Mon-Sun)", "Cost for two": "\u20b9600"}, {"Name": "Shree Rathnam", "Rating": "-", "votes": "161", "location": " 3rd Floor, Gaur City Mall, Gaur City 1, Greater Noida", "Cuisines: ": "South Indian, North Indian, Chinese", "hours": "10am\u201310pm(Mon-Sun)", "Cost for two": "\u20b9400"}, {"Name": "Cake Cafe", "Rating": "3.4", "votes": "44", "location": " Main Market, Sector 31, Gurgaon", "Cuisines: ": "Bakery", "hours": "10am\u201310pm(Mon-Sun)", "Cost for two": "\u20b9300"}, {"Name": "Abdul Muradabadi Chicken", "Rating": "3.8", "votes": "107", "location": " Shop 1, Kashmiri Market, Sector 1, R K Puram, New Delhi", "Cuisines: ": "North Indian", "hours": "10am\u201311pm(Mon-Sun)", "Cost for two": "\u20b9500"}, {"Name": "Nimtho", "Rating": "4.0", "votes": "377", "location": " 1st Floor, R Block, Pamposh Enclave, Greater Kailash (GK) 1, New Delhi", "Cuisines: ": "Nepalese, Chinese, Asian", "hours": "12:30pm\u201311:30pm(Mon-Sun)", "Cost for two": "\u20b91,100"}, {"Name": "Maa Ka Khaana", "Rating": "3.7", "votes": "255", "location": " Shop 5, House 121, Durga Market, Gijhore, Sector 53, Noida", "Cuisines: ": "North Indian", "hours": "9am\u201312midnight(Mon-Sun)", "Cost for two": "\u20b9200"}, {"Name": "Cafe Pride - Pride Plaza Hotel", "Rating": "3.8", "votes": "139", "location": " Pride Plaza Hotel, 5-A, Hospitality District, Aerocity, New Delhi", "Cuisines: ": "North Indian, Mediterranean", "hours": "24Hours(Mon-Sun)", "Cost for two": "\u20b92,500"}, {"Name": "The Junket", "Rating": "NEW", "votes": "139", "location": " Khasra 505, 506, Ground Floor, DLF Phase 4, Gurgaon", "Cuisines: ": "North Indian, South Indian, Street Food", "hours": "11am\u201311pm(Mon-Sun)", "Cost for two": "\u20b9500"}, {"Name": "Biryani Buds", "Rating": "3.0", "votes": "55", "location": " Shop 11A, Ground Floor, Galaxy Shoppe Market, Opposite 11th Avenue, Gaur City 2, Greater Noida", "Cuisines: ": "Biryani, North Indian", "hours": "6pm\u201311pm(Mon,Wed,Thu),Closed(Tue),6pm\u2013...", "Cost for two": "\u20b9800"}, {"Name": "Novelty Chicken Corner", "Rating": "3.8", "votes": "424", "location": " Shop 28, C Block Market, Near Punjab National Bank, East Of Kailash, New Delhi", "Cuisines: ": "North Indian, Mughlai, Chinese", "hours": "11:30am\u201311:30pm(Mon-Sun)", "Cost for two": "\u20b9650"}]