[{"Name": "Shakes Square House", "Rating": "3.6", "location": " 101, 1st Floor, Building 55, Numberdar Building, Chakkarpur, DLF Phase 4, Gurgaon", "Cuisines: ": "Beverages, Fast Food", "hours": "2pm\u20134am(Mon),12noon\u20134am(Tue-Sun)", "Cost for two": "\u20b9300"}, {"Name": "Kebabs And Curries", "Rating": "3.6", "location": " Shop 18, DDA Market Shopping Complex, Near Milan Cinema, Karampura, New Delhi", "Cuisines: ": "North Indian, Rolls", "hours": "1am\u201311pm(Mon,Wed,Thu,Fri,Sat,Sun),(Tue)", "Cost for two": "\u20b9500", "votes": "35"}, {"Name": "Yaara Da junction", "Rating": "3.6", "location": " Unit EG 06, Ground Floor, Unitech Rodeo Drive, South City 2, Gurgaon", "Cuisines: ": "North Indian", "hours": "12:30pm\u20134pm,6pm\u201311pm(Mon-Sun)", "Cost for two": "\u20b9450", "votes": "34"}, {"Name": "Suraj Food & Snack Corner", "Rating": "3.6", "location": " Shop 2, Near Neelkanth Hospital, Nathupur Road, Dlf Phase 3, Gurgaon", "Cuisines: ": "North Indian, Chinese", "hours": "11am\u20134:30pm,6pm\u201312midnight(Mon-Sun)", "Cost for two": "\u20b9300", "votes": "89"}, {"Name": "Chandok's Chicken", "Rating": "4.4", "location": " BA 142A, 1, Janakpuri, Jail Road, New Delhi", "Cuisines: ": "North Indian, Mughlai", "hours": "12noon\u201312:30am(Mon-Sun)", "Cost for two": "\u20b9500", "votes": "105"}, {"Name": "Order Shoder", "Rating": "3.6", "location": " U-71/1, Ground Floor, DLF Phase 3, Gurgaon", "Cuisines: ": "North Indian, Mughlai, Chinese, Fast Food", "hours": "12noon\u201312midnight(Mon-Sun)", "Cost for two": "\u20b9400", "votes": "44"}, {"Name": "Mic Mac Nutrition House", "Rating": "NEW", "location": " Shop A-120, C, Ramphal Chowk, Near J&K Bank, Sector 7, Dwarka, New Delhi", "Cuisines: ": "Healthy Food, Salad, Beverages", "hours": "10am\u201310pm(Mon-Sun)", "Cost for two": "\u20b9400", "votes": "44"}, {"Name": "Burger Point", "Rating": "3.5", "location": " Shop 8, MKM Market, Sector 57, Gurgaon", "Cuisines: ": "Fast Food, Burger", "hours": "11:30am\u201310:30pm(Mon,Wed,Thu,Fri,Sat,Sun)...", "Cost for two": "\u20b9300", "votes": "46"}, {"Name": "Gravity Mantra", "Rating": "3.8", "location": " 2nd - 3rd Floor, J-56, Sector 18, Noida", "Cuisines: ": "North Indian, Continental, Chinese", "hours": "12noon\u201312midnight(Mon-Sun)", "Cost for two": "\u20b91,500", "votes": "187"}, {"Name": "Bun & Busted", "Rating": "4.0", "location": " A-4, Shahpur Jat, New Delhi", "Cuisines: ": "Burger", "hours": "11am\u201311pm(Mon-Sun)", "Cost for two": "\u20b9650", "votes": "26"}, {"Name": "Al Qureshi's", "Rating": "3.9", "location": " 8, Narmada Shopping Complex, Alaknanda, New Delhi", "Cuisines: ": "North Indian, Mughlai, Raw Meats", "hours": "7pm\u201311pm(Mon-Sun)", "Cost for two": "\u20b9650", "votes": "758"}, {"Name": "Yummy Tummy", "Rating": "3.9", "location": " SD-08, Opposite Express Zenith Society, Sector 116, Near Sector 72, Noida", "Cuisines: ": "North Indian, Chinese, Fast Food", "hours": "6pm\u20138am(Mon-Sun)", "Cost for two": "\u20b9600", "votes": "112"}, {"Name": "Spicytrail", "Rating": "4.0", "location": " 27/48, Street 6, 60 Feet Main Road, Vishwas Nagar, Shahdara, New Delhi", "Cuisines: ": "North Indian, Chinese, Momos", "hours": "11am\u201311pm(Mon-Sun)", "Cost for two": "\u20b9400", "votes": "156"}, {"Name": "Bakington", "Rating": "3.8", "location": " A3/230, Opposite St. Francis School, Janakpuri, New Delhi", "Cuisines: ": "Bakery, Desserts, Fast Food", "hours": "10am\u201310pm(Mon-Sun)", "Cost for two": "\u20b9500", "votes": "398"}, {"Name": "Dob Nob", "Rating": "NEW", "location": " DLF Regal Garden, Sector 90, Near Sector 83, Gurgaon", "Cuisines: ": "Pizza, Fast Food, Beverages", "hours": "1pm\u201311:30pm(Mon-Sun)", "Cost for two": "\u20b9500", "votes": "398"}]