[{"Name": "Shahi Rasoi", "Rating": "-", "location": " Krishna Bhavannear Shani Mandir, Sector 122, Near Sector 72, Noida", "Cuisines: ": "North Indian, Fast Food, Chinese", "hours": "11am\u201311pm(Mon-Sun)", "Cost for two": "\u20b9500"}, {"Name": "Fusion Kitchen", "Rating": "3.7", "location": " 20, Pocket F & G Market, Sarita Vihar, New Delhi", "Cuisines: ": "North Indian, Mughlai, Chinese", "hours": "11am\u20133:30pm,6:30pm\u201310:45pm(Mon-Sun)", "Cost for two": "\u20b9700", "votes": "155"}, {"Name": "Wafflenesss", "Rating": "3.5", "location": " H 1/5, Pocket 2, Sector 11, Rohini, Delhi", "Cuisines: ": "Fast Food, Desserts", "hours": "12noon\u20132am(Mon-Sun)", "Cost for two": "\u20b9550", "votes": "79"}, {"Name": "Mint Masala", "Rating": "3.8", "location": " Shop 41, J Block, DDA Market, Vikaspuri, New Delhi", "Cuisines: ": "North Indian, Momos, Lebanese, Chinese", "hours": "12noon\u201311:30pm(Mon-Wed),Closed(Thu),12noon\u2013...", "Cost for two": "\u20b9600", "votes": "67"}, {"Name": "Shubham Eating Corner", "Rating": "3.7", "location": " B-19/A, Main Vikas Marg, Shakarpur, New Delhi", "Cuisines: ": "North Indian", "hours": "11:30am\u20134pm,7pm\u201310:30pm(Mon-Sun)", "Cost for two": "\u20b9300", "votes": "240"}, {"Name": "Mikky Peshawari", "Rating": "3.5", "location": " 7, NN Tower, Shopping Complex, Road 44, Fountain Chowk, Pitampura, New Delhi", "Cuisines: ": "North Indian, Mughlai", "hours": "11am\u201311pm(Mon,Wed,Thu,Fri,Sat,Sun),Closed...", "Cost for two": "\u20b9600", "votes": "174"}, {"Name": "Sip And Snack", "Rating": "3.1", "location": " Shop 50, Lower Ground, Cloud 9, Sector 1, Vaishali, Ghaziabad", "Cuisines: ": "Fast Food, Beverages", "hours": "10am\u201310pm(Mon-Sun)", "Cost for two": "\u20b9250", "votes": "6"}, {"Name": "Roll Eat", "Rating": "3.3", "location": " Shop 2, E 3/37, Sector 16, Rohini, New Delhi", "Cuisines: ": "Rolls, Fast Food", "hours": "24Hours(Mon-Sun)", "Cost for two": "\u20b9300", "votes": "8"}, {"Name": "Tnjoy", "Rating": "3.5", "location": " F 2/9, Opposite Happy English School, Krishna Nagar, New Delhi", "Cuisines: ": "Cafe, Desserts, Ice Cream, Fast Food, Chinese", "hours": "11am\u201311pm(Mon-Sun)", "Cost for two": "\u20b9400", "votes": "19"}, {"Name": "R Foods", "Rating": "2.9", "location": " Shop 07, Yadav Market, Opposite BH 92, Sector 70, Sector 71, Noida", "Cuisines: ": "Chinese", "hours": "12noon\u201310:30pm(Mon-Sun)", "Cost for two": "\u20b9250", "votes": "33"}, {"Name": "Prince Ki Choice", "Rating": "3.3", "location": " Wazirabad Road, Near Gramin Bank, Sector 52, Near Sector 50, Gurgaon", "Cuisines: ": "North Indian, Chinese, Mughlai", "hours": "11am\u201311pm(Mon-Sun)", "Cost for two": "\u20b9300", "votes": "14"}, {"Name": "Prince Ki Rasoi", "Rating": "3.3", "location": " Near Paras Hospital, Sector 43, Gurgaon", "Cuisines: ": "North Indian, Chinese", "hours": "8am\u201311:30pm(Mon-Sun)", "Cost for two": "\u20b9550", "votes": "447"}, {"Name": "Cloud Foods", "Rating": "-", "location": " 307 A, 3rd Floor, Panchsheel Square, Crossing Republik, Ghaziabad", "Cuisines: ": "North Indian", "hours": "11am\u201310pm(Mon-Sun)", "Cost for two": "\u20b9500", "votes": "447"}, {"Name": "Ji Janab", "Rating": "NEW", "location": " Shop S-24, Crown Interiorz Mall 2, Mathura Road, Subash Nagar, Sector 35, Faridabad", "Cuisines: ": "Rolls, Kebab, North Indian", "hours": "11am\u201311pm(Mon-Sun)", "Cost for two": "\u20b9500", "votes": "447"}, {"Name": "Delhi Darbaar Biryani", "Rating": "3.6", "location": " B 54, Hastsal Village, Near LIG Flat, Uttam Nagar, New Delhi", "Cuisines: ": "Biryani", "hours": "10am\u20139pm(Mon,Wed,Thu,Fri,Sat,Sun),Closed...", "Cost for two": "\u20b9200", "votes": "60"}]