[{"Name": "Behrouz Biryani", "Rating": "4.1", "votes": "230", "location": " 30, Gandhi Market, Minto Road, Barakhamba Road, New Delhi", "Cuisines: ": "Biryani, North Indian, Mughlai", "hours": "10am\u201312midnight(Mon-Sun)", "Cost for two": "\u20b9700"}, {"Name": "Depaul's", "Rating": "3.8", "votes": "796", "location": " 22, Janpath Bhawan, Janpath, New Delhi", "Cuisines: ": "Sandwich, Fast Food", "hours": "9am\u20137:30pm(Mon-Sun)", "Cost for two": "\u20b9150"}, {"Name": "Bhimsain's Bengali Sweet House", "Rating": "3.7", "votes": "621", "location": " 27-29, Bengali Market, Mandi House, New Delhi", "Cuisines: ": "North Indian, South Indian, Chinese, Street Food, Mithai", "hours": "8am\u201311pm(Mon-Sun)", "Cost for two": "\u20b9400"}, {"Name": "Sam's Cafe", "Rating": "3.4", "votes": "327", "location": " Vivek Hotel, Main Bazaar, Paharganj", "Cuisines: ": "Italian, North Indian, Chinese", "hours": "24Hours(Mon-Sun)", "Cost for two": "\u20b9750"}, {"Name": "Dosa Express", "Rating": "NEW", "votes": "327", "location": " Shop 2, Kashmiri Market, Barakhamba Road, New Delhi", "Cuisines: ": "South Indian", "hours": "9am\u20136pm(Mon-Sun)", "Cost for two": "\u20b9250"}, {"Name": "Dhaba Xpress", "Rating": "4.3", "votes": "90", "location": " Shop 33, Punchkuian Road, Near R. K. Ashram Metro Station, Paharganj, New Delhi", "Cuisines: ": "North Indian, Seafood, Chinese, Mughlai", "hours": "12noon\u201311:45pm(Mon-Sun)", "Cost for two": "\u20b9650"}, {"Name": "Odeon Sweets", "Rating": "4.0", "votes": "274", "location": " 22, Bhagat Singh Market, Gole Market, New Delhi", "Cuisines: ": "Mithai, Street Food", "hours": "8:30am\u201310pm(Mon),8am\u201310pm(Tue-Sun)", "Cost for two": "\u20b9100"}, {"Name": "Bangla Sweet n Spice", "Rating": "3.5", "votes": "83", "location": " 129, Bangla Sahib Marg, Gole Market, New Delhi", "Cuisines: ": "Street Food, Mishti", "hours": "9am\u201310:30pm(Mon-Sun)", "Cost for two": "\u20b9300"}, {"Name": "Pehalwan Da Hotel", "Rating": "3.6", "votes": "85", "location": " 22, Amrit Kaur Market, Opposite New Delhi Railway Station, Paharganj, New Delhi", "Cuisines: ": "Mughlai, North Indian", "hours": "10:30am\u201311:30pm(Mon-Sun)", "Cost for two": "\u20b9350"}, {"Name": "Sweet Truth", "Rating": "3.9", "votes": "91", "location": " Shop 30, Gandhi Market, Minto Road", "Cuisines: ": "Bakery, Desserts", "hours": "9am\u201312midnight(Mon-Sun)", "Cost for two": "\u20b9300"}, {"Name": "Gupta Restaurant", "Rating": "3.5", "votes": "40", "location": " Shop 57, Bhagat Singh Market, Gole Market, New Delhi", "Cuisines: ": "North Indian, South Indian, Chinese", "hours": "11am\u201310pm(Mon-Sun)", "Cost for two": "\u20b9400"}, {"Name": "Sam's Restaurant & Bar", "Rating": "3.7", "votes": "233", "location": " 1548, Vivek Hotel, Main Bazar, Paharganj, New Delhi", "Cuisines: ": "North Indian, Chinese, Italian", "hours": "11am\u201312midnight(Mon-Sun)", "Cost for two": "\u20b91,000"}, {"Name": "Chai Shots", "Rating": "3.5", "votes": "9", "location": " G 7A, Arunachal Building 19, Barakhamba Road, New Delhi", "Cuisines: ": "Tea, Beverages, Fast Food", "hours": "9am\u20138pm(Mon-Sun)", "Cost for two": "\u20b9300"}, {"Name": "The Atrium - The Imperial", "Rating": "3.8", "votes": "79", "location": " The Imperial, Janpath, New Delhi", "Cuisines: ": "European, Desserts", "hours": "8am\u201311:45pm(Mon-Sun)", "Cost for two": "\u20b92,500"}, {"Name": "Daniell's Tavern - The Imperial", "Rating": "3.8", "votes": "86", "location": " The Imperial, Janpath, New Delhi", "Cuisines: ": "North Indian", "hours": "6:30pm\u201311:45pm(Mon-Sun)", "Cost for two": "\u20b94,000"}]