[{"Name": "Friends Mr Shawarma and Grill", "Rating": "3.7", "votes": "202", "location": " G-8, Amba Tower, D.C Chowk, Rohini, New Delhi", "Cuisines: ": "North Indian, Mughlai", "hours": "1pm\u201310:30pm(Mon,Wed,Thu,Fri,Sat,Sun)...", "Cost for two": "\u20b9300"}, {"Name": "Cafe Cup of Life", "Rating": "3.8", "votes": "164", "location": " 6B, New Colony, Circular Road, Sector 7, Gurgaon", "Cuisines: ": "Cafe, Chinese, Italian, Mexican, Healthy Food, Biryani", "hours": "11:30am\u201310:30pm(Mon-Sun)", "Cost for two": "\u20b9750"}, {"Name": "The Crepe Cafe", "Rating": "-", "votes": "164", "location": " 4th Floor, Ambience Mall, NH-8, DLF Phase 3, Gurgaon", "Cuisines: ": "Cafe, Continental, American", "hours": "11am\u201310:30pm(Mon-Sun)", "Cost for two": "\u20b9800"}, {"Name": "Lavish Chicken Corner", "Rating": "-", "votes": "164", "location": " Shop 6, 28/6, New Ashok Nagar, Vasundhara Enclave, New Delhi", "Cuisines: ": "North Indian", "hours": "11am\u201311pm(Mon-Sun)", "Cost for two": "\u20b9500"}, {"Name": "Kwality Non Veg", "Rating": "-", "votes": "164", "location": " Shop 6, 27, Naveen Park, Jindal Market, Rajendar Nagar, Ghaziababd", "Cuisines: ": "North Indian, Rolls", "hours": "11am\u201311pm(Mon-Sun)", "Cost for two": "\u20b9400"}, {"Name": "Thali Corner", "Rating": "3.6", "votes": "158", "location": " Delivery Only", "Cuisines: ": "North Indian", "hours": "7am\u201310:30pm(Mon-Sun)", "Cost for two": "\u20b9400"}, {"Name": "Noida Darbar", "Rating": "3.5", "votes": "42", "location": " Hotel Noida International, 116, Nagar Complex, Opposite Mercedes Showroom, Jhundpura Village, Sector 11, Noida", "Cuisines: ": "North Indian, Chinese, South Indian", "hours": "7am\u20132am(Mon-Sun)", "Cost for two": "\u20b9500"}, {"Name": "Food Express", "Rating": "3.5", "votes": "130", "location": " Delivery Only", "Cuisines: ": "Chinese, North Indian", "hours": "11:30am\u201310pm(Mon-Sun)", "Cost for two": "\u20b9500"}, {"Name": "The FLIP Cafe", "Rating": "3.7", "votes": "233", "location": " Delivery Only", "Cuisines: ": "Italian, Continental, North Indian, Chinese, Finger Food", "hours": "10:30am\u201311pm(Mon-Fri),11am\u201312midnight...", "Cost for two": "\u20b9700"}, {"Name": "Sugar Daddy Bakers", "Rating": "3.1", "votes": "33", "location": " Shop 45, Amarapali Pricely Estate, Sector 76, Near Sector 72, Noida", "Cuisines: ": "Bakery", "hours": "11am\u201311pm(Mon-Sun)", "Cost for two": "\u20b9350"}, {"Name": "Uttarakhand Cafe", "Rating": "-", "votes": "33", "location": " B1/180, Gali 6, Near Durga Mata Mandir, New Ashok Vihar Phase 1, New Delhi", "Cuisines: ": "Fast Food, Ice Cream, Beverages", "hours": "11am\u201311pm(Mon-Sun)", "Cost for two": "\u20b9400"}, {"Name": "Anytime Bakers", "Rating": "3.2", "votes": "9", "location": " Village Gijhore, Sector 53, Noida", "Cuisines: ": "Bakery", "hours": "11am\u201311pm(Mon-Sun)", "Cost for two": "\u20b9300"}, {"Name": "Royal Dhaba And Restaurant", "Rating": "-", "votes": "9", "location": " Near Baba Motors, Sector 122, Near Sector 72, Noida", "Cuisines: ": "North Indian", "hours": "8am\u201311pm(Mon-Sun)", "Cost for two": "\u20b9250"}, {"Name": "Cakes ND Pastries", "Rating": "3.3", "votes": "15", "location": " Delivery Only", "Cuisines: ": "Bakery", "hours": "8am\u20134am(Mon-Sun)", "Cost for two": "\u20b9300"}, {"Name": "Monu Dhaba", "Rating": "3.1", "votes": "9", "location": " M-151, Main Road, Shastri Nagar, Rohini, New Delhi", "Cuisines: ": "North Indian", "hours": "11am\u20134pm,7pm\u201312midnight(Mon-Sun)", "Cost for two": "\u20b9200"}]