[{"Name": "Lunchly", "Rating": "3.9", "votes": "241", "location": " 26, Upper Ground Floor, Ajnara Arcade, Crossing Republic, Ghaziabad", "Cuisines: ": "North Indian, Biryani", "hours": "9am\u201312midnight(Mon-Sun)", "Cost for two": "\u20b9600"}, {"Name": "Chawla's", "Rating": "2.7", "votes": "145", "location": " Ground Floor, Rana Complex, Main GT Road, Opposite Police Fire Station, Rajendar Nagar, Ghaziabad", "Cuisines: ": "North Indian, Mughlai, Chinese", "hours": "11am\u201311pm(Mon-Sun)", "Cost for two": "\u20b9600"}, {"Name": "Red Chilli Restaurant", "Rating": "NEW", "votes": "145", "location": " Shop 2, CH Teja Complex, Tugalpur, Knowledge Park, Greater Noida", "Cuisines: ": "North Indian, Street Food, Chinese", "hours": "11am\u201311pm(Mon-Sun)", "Cost for two": "\u20b9400"}, {"Name": "My 100 Rupee Meal", "Rating": "3.5", "votes": "19", "location": " O 11/B, Ground Floor, Lajpat Nagar 2,New Delhi", "Cuisines: ": "North Indian", "hours": "8am\u201311pm(Mon-Sun)", "Cost for two": "\u20b9300"}, {"Name": "Sunny Vaishno Dhaba", "Rating": "3.3", "votes": "10", "location": " House 3, KH 104/14, Sher Singh Enclave, Jain Nagar Karala, Main Kanjhawala Road, Rohini, New Delhi", "Cuisines: ": "North Indian", "hours": "11am\u20134pm,7pm\u201311pm(Mon-Sun)", "Cost for two": "\u20b9200"}, {"Name": "Rao Hotel", "Rating": "3.7", "votes": "206", "location": " NH 8, Sector 80, Manesar, Gurgaon", "Cuisines: ": "North Indian", "hours": "24Hours(Mon-Sun)", "Cost for two": "\u20b9500"}, {"Name": "Nathu's Bakers & Sweets Shop", "Rating": "3.8", "votes": "113", "location": " L 13, C.R. Park Road, Kalkaji, New Delhi", "Cuisines: ": "Street Food, Chinese, South Indian, Bakery", "hours": "10am\u201310pm(Mon-Sun)", "Cost for two": "\u20b9350"}, {"Name": "Grubhouse Cafe", "Rating": "4.0", "votes": "242", "location": " D 33, Acharya Niketan, Mayur Vihar Phase 1, New Delhi", "Cuisines: ": "Italian, Chinese, Sandwich, Burger, Rolls, Momos, Pizza, Beverages", "hours": "11am\u201311pm(Mon-Sun)", "Cost for two": "\u20b9500"}, {"Name": "Lama Chinese Food", "Rating": "3.7", "votes": "278", "location": " G-31, West Patel Nagar, New Delhi", "Cuisines: ": "Chinese", "hours": "1pm\u201310pm(Mon-Sun)", "Cost for two": "\u20b9400"}, {"Name": "Shreya Shuddh Bhojanalya", "Rating": "3.5", "votes": "278", "location": " 13/1, Adarsh Nagar, Bus Stand Gali, Near New Railway Road, Sector 12, Gurgaon", "Cuisines: ": "North Indian", "hours": "10am\u201310pm(Mon-Sun)", "Cost for two": "\u20b9250"}, {"Name": "Cakes Hi Cakes", "Rating": "3.6", "votes": "22", "location": " Shop 149, Plot 7, Pocket 1, Sector 11, Dwarka, New Delhi", "Cuisines: ": "Bakery, Desserts", "hours": "7am\u20134am(Mon-Sun)", "Cost for two": "\u20b9200"}, {"Name": "The China Wall", "Rating": "4.1", "votes": "112", "location": " Shop 5, Amenity Block 2, Candor Techspace, Sector 135, Sector 132, Noida", "Cuisines: ": "Chinese", "hours": "11am\u201311pm(Mon-Fri),Closed(Sat-Sun)", "Cost for two": "\u20b9450"}, {"Name": "Kings of Food", "Rating": "NEW", "votes": "112", "location": " Ansal Golf Link, Near Pari Chowk, Omega 1, Greater Noida", "Cuisines: ": "Chinese", "hours": "11am\u20134pm(Mon-Sun)", "Cost for two": "\u20b9200"}, {"Name": "Hammad Chicken Biryani Corner", "Rating": "3.6", "votes": "25", "location": " U-9/26, Near Rapid Metro, DLF Phase 3, Gurgaon", "Cuisines: ": "Biryani, Mughlai", "hours": "11am\u201312midnight(Mon-Sun)", "Cost for two": "\u20b9250"}, {"Name": "Pizza Forever", "Rating": "4.1", "votes": "85", "location": " 1010/121, Basement, Chauhan Market, Near Fire Station, Sarita Vihar, New Delhi", "Cuisines: ": "American, Italian, Pizza", "hours": "10am\u201311pm(Mon-Sun)", "Cost for two": "\u20b9400"}]