[{"Name": "Amar Biscuit Bakery", "Rating": "3.4", "votes": "17", "location": " 159, Bhagat Singh Market, Gole Market, New Delhi", "Cuisines: ": "Bakery", "hours": "9am\u20139pm(Mon-Sun)", "Cost for two": "\u20b9200"}, {"Name": "OpenHand Cafe & Gallery", "Rating": "3.3", "votes": "7", "location": " Opposite Hotel Vishal, Main Market, Paharganj, New Delhi", "Cuisines: ": "Cafe, Italian", "hours": "11am\u201310pm(Mon-Sun)", "Cost for two": "\u20b9600"}, {"Name": "Golu Gurudev Vaishno Dhaba", "Rating": "3.0", "votes": "14", "location": " Arakshan Road, Paharganj, New Delhi", "Cuisines: ": "North Indian", "hours": "12noon\u20133:30pm,7pm\u201310:30pm(Mon-Sun)", "Cost for two": "\u20b9250"}, {"Name": "VIP Lounge", "Rating": "3.3", "votes": "16", "location": " R. K Ashram Metro Station, Pillor 11, Paharganj, New Delhi", "Cuisines: ": "Continental", "hours": "11:30am\u201311pm(Mon-Sun)", "Cost for two": "\u20b9800"}, {"Name": "Naveen Tea House", "Rating": "-", "votes": "16", "location": " 91, Bangla Sahib Road, New Khanna Market, Sector 4, Gole Market, New Delhi", "Cuisines: ": "Beverages, Fast Food", "hours": "6am\u20137pm(Mon-Sun)", "Cost for two": "\u20b9100"}, {"Name": "Kamal Restaurant", "Rating": "3.2", "votes": "13", "location": " 3966/67, Gali Hari Mandir, Ratan Lal Market, Kaseru Walan, Paharganj, New Delhi", "Cuisines: ": "North Indian, South Indian, Chinese", "hours": "8am\u201311pm(Mon-Sun)", "Cost for two": "\u20b9300"}, {"Name": "San Vi", "Rating": "3.2", "votes": "8", "location": " 1776, Laxmi Narayan Estate, Chuna Mandi, Paharganj, New Delhi", "Cuisines: ": "North Indian, Chinese", "hours": "7am\u201312midnight(Mon-Sun)", "Cost for two": "\u20b9250"}, {"Name": "Delhi Ka Zaika", "Rating": "NEW", "votes": "8", "location": " Shop 99, Krishna Gali, Paharganj, New Delhi", "Cuisines: ": "North Indian", "hours": "10am\u201311pm(Mon-Sun)", "Cost for two": "\u20b9300"}, {"Name": "Bunta Express", "Rating": "-", "votes": "8", "location": " Janpath, New Delhi", "Cuisines: ": "North Indian, Chinese, Continental", "hours": "12noon\u20131am(Mon-Sun)", "Cost for two": "\u20b9900"}, {"Name": "Kaku Da Dhaba", "Rating": "3.0", "votes": "4", "location": " Near Amar Hotel, Opposite Krishna Market, Paharganj, New Delhi", "Cuisines: ": "North Indian", "hours": "10am\u201310pm(Mon-Sun)", "Cost for two": "\u20b9300"}, {"Name": "Krishna Cafe", "Rating": "3.3", "votes": "14", "location": " 659, Top Floor, Tooti Chowk, Main Bazaar, Paharganj, New Delhi", "Cuisines: ": "North Indian, Chinese, Fast Food", "hours": "8am\u201312midnight(Mon-Sun)", "Cost for two": "\u20b9600"}, {"Name": "Bar Company", "Rating": "-", "votes": "14", "location": " Airport Express Line, Opposite New Delhi Railway Station, Below Multi Level Parking, Asaf Ali Road, New Delhi", "Cuisines: ": "Finger Food", "hours": "12noon\u20131am(Mon-Sun)", "Cost for two": "\u20b9700"}, {"Name": "Fire & Ice", "Rating": "-", "votes": "14", "location": " Plot 4775, Main Bazaar 6 tooti chowk, Paharganj, New Delhi", "Cuisines: ": "Chinese, North Indian", "hours": "24Hours(Mon-Sun)", "Cost for two": "\u20b9500"}, {"Name": "Janta Restaurant", "Rating": "3.1", "votes": "9", "location": " 4251, Krishna Gali, Opposite New Delhi Railway Station, Paharganj, New Delhi", "Cuisines: ": "South Indian, North Indian", "hours": "7am\u201311pm(Mon-Sun)", "Cost for two": "\u20b9200"}, {"Name": "The Square Meal", "Rating": "3.3", "votes": "17", "location": " Ginger Hotel, Rail Yatri Niwas, Near New Delhi Railway Station, Ajmeri Gate Side, Pahadganj, New Delhi", "Cuisines: ": "Chinese, North Indian, Fast Food", "hours": "24Hours(Mon-Sun)", "Cost for two": "\u20b9500"}]