[{"Name": "The House of Cakes", "Rating": "3.6", "votes": "153", "location": " Delivery Only", "Cuisines: ": "Bakery", "hours": "24Hours(Mon-Sun)", "Cost for two": "\u20b9300"}, {"Name": "The Yummy Cakes", "Rating": "3.7", "votes": "83", "location": " C-134, B-Shopprix Mall, Sector 61, Noida", "Cuisines: ": "Bakery, Desserts", "hours": "10am\u201310:30pm(Mon-Sun)", "Cost for two": "\u20b9250"}, {"Name": "Pastry Palace", "Rating": "3.8", "votes": "345", "location": " G-4, Vardhaman Ring Road Plaza, Outer Ring Road, Vikaspuri, New Delhi", "Cuisines: ": "Bakery, Fast Food", "hours": "9am\u201311:30pm(Mon-Sun)", "Cost for two": "\u20b9150"}, {"Name": "Odisha Hotel", "Rating": "4.0", "votes": "384", "location": " A1-A, Keher Singh Estate, Saket, New Delhi", "Cuisines: ": "Odia", "hours": "12noon\u20135:30pm,7pm\u201311pm(Mon-Sun)", "Cost for two": "\u20b9600"}, {"Name": "New Khushboo Vaishno Dhaba", "Rating": "3.4", "votes": "85", "location": " 3/37, Double Story, Vijay Nagar, New Delhi", "Cuisines: ": "North Indian", "hours": "11am\u20132am(Mon-Sun)", "Cost for two": "\u20b9300"}, {"Name": "Pizza Mania", "Rating": "3.9", "votes": "340", "location": " Shop 36, Eros Market Place, Shakti Khand 2, Indirapuram, Ghaziabad", "Cuisines: ": "Pizza", "hours": "10am\u201312midnight(Mon-Thu),10am\u20131am(Fri-Sun)", "Cost for two": "\u20b9400"}, {"Name": "Rosebud - By The Nook", "Rating": "4.0", "votes": "612", "location": " Ground Floor, Tower A, Vatika Business Park, Sohna Road, Gurgaon", "Cuisines: ": "North Indian, Continental, Chinese, Mughlai, Seafood, Bar Food", "hours": "11:30am\u201311:30pm(Mon-Sun)", "Cost for two": "\u20b92,800"}, {"Name": "Farebi Ki Jalebi", "Rating": "3.3", "votes": "9", "location": " Plot 333, Mayur Vihar, Niti Khand 2, Indirapuram, Ghaziabad", "Cuisines: ": "Mithai, Street Food", "hours": "8am\u201310:30pm(Mon-Sun)", "Cost for two": "\u20b9250"}, {"Name": "Momos Treat", "Rating": "NEW", "votes": "9", "location": " 98-B/1, Khasra 18, Shyam Vihar, Old Khaira Road, Najafgarh, New Delhi", "Cuisines: ": "Momos, Chinese, North Indian", "hours": "11am\u201312midnight(Mon-Sun)", "Cost for two": "\u20b9250"}, {"Name": "Hot Sauce", "Rating": "4.1", "votes": "468", "location": " 89 A, Ground Floor, Zamrud Pur, GK 1, New Delhi, Greater Kailash 1 New Delhi", "Cuisines: ": "Continental, Burger, American", "hours": "6pm\u20134am(Mon),12noon\u20134am(Tue-Sun)", "Cost for two": "\u20b9650"}, {"Name": "La Pizza", "Rating": "NEW", "votes": "468", "location": " 27, Upper Ground Floor, Aranya Market, Sector 119, Near Sector 72, Noida", "Cuisines: ": "Pizza, Fast Food", "hours": "11am\u201311pm(Mon-Sun)", "Cost for two": "\u20b9300"}, {"Name": "Champaran Chicken & Mutton", "Rating": "3.3", "votes": "49", "location": " 03, Ajnara Arcade Market, Opposite Golf Course, Crossing Republik, Ghaziabad", "Cuisines: ": "Bihari, North Indian", "hours": "11am\u201311:45pm(Mon-Sun)", "Cost for two": "\u20b9300"}, {"Name": "Hunger On Fire", "Rating": "3.6", "votes": "27", "location": " Shop 21, Ground Floor, Panchsheel Square, Crossing Republik, Ghaziabad", "Cuisines: ": "Fast Food, Bakery", "hours": "10am\u201310pm(Mon-Sun)", "Cost for two": "\u20b9300"}, {"Name": "Chinese Mania", "Rating": "NEW", "votes": "27", "location": " Plot 140, New Balaji Chowk, Uttam Nagar, New Delhi", "Cuisines: ": "Chinese", "hours": "12noon\u20134am(Mon,Wed,Thu,Fri,Sat,Sun)...", "Cost for two": "\u20b9250"}, {"Name": "Bakers Oven Boulangerie And Cafe", "Rating": "4.0", "votes": "26", "location": " 06/A, Ground Floor, Block R5, M3M, Urbana Commercial, Sector 67, Sohna Road, Gurgaon", "Cuisines: ": "Continental, Bakery, Mediterranean, Cafe", "hours": "10:30am\u201310pm(Mon-Sun)", "Cost for two": "\u20b9600"}]