[{"Name": "Dolma House", "Rating": "3.8", "votes": "594", "location": " 1, Block 10, New Tibetan Colony, Majnu Ka Tila, New Delhi", "Cuisines: ": "Tibetan, Chinese, Beverages", "hours": "8am\u201310pm(Mon-Sun)", "Cost for two": "\u20b9400"}, {"Name": "Grill & More Cafe", "Rating": "3.6", "votes": "25", "location": " SD 117, Jaipuria Plaza, Indirapuram, Ghaziabad", "Cuisines: ": "Fast Food, Beverages", "hours": "8am\u20134am(Mon-Sun)", "Cost for two": "\u20b9550"}, {"Name": "Shake Club", "Rating": "3.5", "votes": "24", "location": " Shop 104, Plot 1681, South City 2, Gurgaon", "Cuisines: ": "Beverages, Ice Cream", "hours": "7am\u20134am(Mon-Sun)", "Cost for two": "\u20b9250"}, {"Name": "Kukkad Singh", "Rating": "3.5", "votes": "29", "location": " Shop 4, J Block Market, Ashok Vihar Phase 1, New Delhi", "Cuisines: ": "North Indian", "hours": "11:30am\u20133pm,6pm\u201312midnight(Mon,Tue,Wed...", "Cost for two": "\u20b9300"}, {"Name": "Uncle's", "Rating": "3.7", "votes": "347", "location": " S-17 &18, L Block Market, Sector 11, Noida", "Cuisines: ": "North Indian, Mughlai, Chinese", "hours": "12noon\u20134pm,7pm\u201311pm(Mon-Sun)", "Cost for two": "\u20b9600"}, {"Name": "Prince Ki Rasoi", "Rating": "3.3", "votes": "303", "location": " 410, Opposite Ramada Hotel, Sector 45, Gurgaon", "Cuisines: ": "North Indian, Chinese", "hours": "8am\u201311pm(Mon-Sun)", "Cost for two": "\u20b9500"}, {"Name": "The Feast Box", "Rating": "4.2", "votes": "144", "location": " Shop 32, Assotech Business Cresterra, Sector 135, Noida", "Cuisines: ": "Chinese, Fast Food", "hours": "12noon\u20134am(Mon-Sun)", "Cost for two": "\u20b9500"}, {"Name": "#Waffles", "Rating": "4.1", "votes": "312", "location": " G 5, Plot 6, Rishabh Vihar Market, Karkardooma, New Delhi", "Cuisines: ": "Desserts, Fast Food", "hours": "12noon\u201312midnight(Mon-Sun)", "Cost for two": "\u20b9400"}, {"Name": "Rock & Roll", "Rating": "-", "votes": "312", "location": " 306, Block A Road, Block A, Beta 1, Greater Noida", "Cuisines: ": "Rolls", "hours": "10am\u201311pm(Mon-Sun)", "Cost for two": "\u20b9400"}, {"Name": "Nikhil Restaurant", "Rating": "3.1", "votes": "5", "location": " 348/1, Bhim Garh Kheri,  Phase 1, Old Railway Road, Gurgaon", "Cuisines: ": "North Indian, South Indian, Continental", "hours": "8am\u201312midnight(Mon-Sun)", "Cost for two": "\u20b9500"}, {"Name": "Balajis Vegetarian Paradise", "Rating": "3.8", "votes": "197", "location": " H-14, Sushant Shopping Arcade, Phase 1, Sushant Lok, Gurgaon", "Cuisines: ": "North Indian", "hours": "11:30am\u20134pm,6:30pm\u201311pm(Mon-Sun)", "Cost for two": "\u20b9400"}, {"Name": "Social Chatuureeyy", "Rating": "NEW", "votes": "197", "location": " Shop 54, Huda Market, Sector 9, Faridabad", "Cuisines: ": "Chinese, Fast Food, Momos", "hours": "10am\u201311pm(Mon-Sun)", "Cost for two": "\u20b9300"}, {"Name": "Duke Of Flavours", "Rating": "3.7", "votes": "30", "location": " A-105, Ground Floor, Sector 10, Noida", "Cuisines: ": "North Indian, Chinese, Mughlai", "hours": "1pm\u201310pm(Mon),12noon\u201310pm(Tue-Fri),1pm\u2013...", "Cost for two": "\u20b9500"}, {"Name": "Handi Punjab Di", "Rating": "3.3", "votes": "19", "location": " GT-27, Sector 70, Near Sector 71, Noida", "Cuisines: ": "Chinese, North Indian", "hours": "11am\u201311pm(Mon-Sun)", "Cost for two": "\u20b9350"}, {"Name": "Mumbaikar's", "Rating": "3.7", "votes": "73", "location": " Shop 68, Ground Floor, Golf Course Road Extension, Sector 63, Golf Course Road, Gurgaon", "Cuisines: ": "Street Food, South Indian, Beverages", "hours": "10am\u201310pm(Mon-Sun)", "Cost for two": "\u20b9300"}]