[{"Name": "Fast Food South Indian Restaurant", "Rating": "2.9", "votes": "9", "location": " A-1240, Plot 3, GD Colony, Mayur Vihar Phase 3, New Delhi", "Cuisines: ": "South Indian, Chinese", "hours": "11am\u201310pm(Mon-Sun)", "Cost for two": "\u20b9250"}, {"Name": "Friends Food Club", "Rating": "3.4", "votes": "18", "location": " 7A/A2, Mayur Vihar Phase 3, New Delhi", "Cuisines: ": "Chinese, Fast Food", "hours": "Closed(Mon),11am\u201311pm(Tue-Sun)", "Cost for two": "\u20b9250"}, {"Name": "Chawla Chicken Social", "Rating": "-", "votes": "18", "location": " Shop 1, Main Road, Opposite Piller 226, Hoshiyarpur, Sector 51, Noida", "Cuisines: ": "North Indian", "hours": "11am\u20134am(Mon-Sun)", "Cost for two": "\u20b9600"}, {"Name": "The Epic Cafe", "Rating": "NEW", "votes": "18", "location": " Shop 16, Ground Floor, Exprees Garden Market, Vaibhav Khand, Indirapuram, Ghaziabad", "Cuisines: ": "Fast Food, Chinese, Beverages", "hours": "11am\u201311pm(Mon-Sun)", "Cost for two": "\u20b9300"}, {"Name": "Mannat Classic Cuisine", "Rating": "3.8", "votes": "22", "location": " 127 A, Ground Floor, South Extension 2, New Delhi", "Cuisines: ": "North Indian", "hours": "12noon\u20134am(Mon-Sun)", "Cost for two": "\u20b9300"}, {"Name": "Mahendra Sweets House", "Rating": "3.6", "votes": "145", "location": " 67, Babu Market, Sarojini Nagar, New Delhi", "Cuisines: ": "Mithai, North Indian", "hours": "8am\u201310pm(Mon-Sun)", "Cost for two": "\u20b9300"}, {"Name": "Cake And Bakers Palace", "Rating": "3.7", "votes": "37", "location": " 34, Sharda Hospital, Knowledge Park, Greater Noida", "Cuisines: ": "Bakery, Fast Food", "hours": "7:30am\u20139:30pm(Mon-Wed),7:30pm\u20139:30pm(Thu...", "Cost for two": "\u20b9350"}, {"Name": "American Sweet Corn", "Rating": "3.1", "votes": "4", "location": " Outside Gurgaon Dreams Mall, Old Railway Road, Gurgaon", "Cuisines: ": "Fast Food", "hours": "10am\u201310pm(Mon-Sun)", "Cost for two": "\u20b9100"}, {"Name": "New Gopal Ji Poori Wale", "Rating": "3.3", "votes": "28", "location": " Shop 56, Block 5, Vashisth Park, Janakpuri, New Delhi", "Cuisines: ": "Street Food", "hours": "10am\u201310pm(Mon-Sun)", "Cost for two": "\u20b9100"}, {"Name": "Spice Studio", "Rating": "3.4", "votes": "13", "location": " Shop 6, Nipun Complex, Karkardooma Community Centre, Karkardooma, New Delhi", "Cuisines: ": "North Indian, Chinese", "hours": "7pm\u201311:45pm(Mon-Sun)", "Cost for two": "\u20b9700"}, {"Name": "Pizza Fire", "Rating": "3.5", "votes": "27", "location": " RZ-11A, Main Road, Indra Park, Palam Colony, Palam, New Delhi", "Cuisines: ": "Pizza, Fast Food, Chinese", "hours": "11am\u201311pm(Mon-Sun)", "Cost for two": "\u20b9400"}, {"Name": "Tandoori Tadka & Gravy", "Rating": "-", "votes": "27", "location": " Shop 16, Amarpali Crystal, Sector 72, Noida", "Cuisines: ": "North Indian", "hours": "11am\u201311pm(Mon-Sun)", "Cost for two": "\u20b9250"}, {"Name": "Rendezvous Calcutta", "Rating": "2.7", "votes": "46", "location": " Delivery Only", "Cuisines: ": "North Indian, Bengali", "hours": "9am\u201311pm(Mon-Sun)", "Cost for two": "\u20b9600"}, {"Name": "Monster's Eye Cafe", "Rating": "3.3", "votes": "13", "location": " 1st Floor, Hansraj Complex, Sector 31, Noida", "Cuisines: ": "Fast Food, Chinese", "hours": "8am\u201310pm(Mon-Sun)", "Cost for two": "\u20b9300"}, {"Name": "Food Paradise", "Rating": "-", "votes": "13", "location": " C 87, Sector 100, Near Sector 110, Noida", "Cuisines: ": "North Indian, Chinese, Rolls", "hours": "12noon\u20131am(Mon-Sun)", "Cost for two": "\u20b9600"}]