[{"Name": "Dvar Indian Restaurant - Radisson Blu Dwarka", "Rating": "4.0", "votes": "365", "location": " Radisson Blu, Plot 4, Sector 13, Dwarka, New Delhi", "Cuisines: ": "North Indian, Mughlai", "hours": "7pm\u201311:30pm(Mon-Sun)", "Cost for two": "\u20b93,000"}, {"Name": "Masala Art - Taj Palace", "Rating": "3.9", "votes": "466", "location": " 2, Taj Palace, Sardar Patel Marg, Chanakyapuri, New Delhi", "Cuisines: ": "North Indian, Mughlai", "hours": "12:30pm\u20132:45pm,6:30pm\u201311:45pm(Mon-Sun)", "Cost for two": "\u20b93,500"}, {"Name": "Flavours De China", "Rating": "4.2", "votes": "96", "location": " B-70, Ground Floor, Shashi Garden, Mayur Vihar Phase 1, New Delhi", "Cuisines: ": "Chinese", "hours": "12noon\u201312midnight(Mon-Sun)", "Cost for two": "\u20b9450"}, {"Name": "SFC", "Rating": "3.9", "votes": "294", "location": " Shop 20, Anshul Plaza Market, Opposite Gufa Mandir, Shalimar Bagh, New Delhi", "Cuisines: ": "Rolls, North Indian", "hours": "5pm\u201310:30pm(Mon-Sun)", "Cost for two": "\u20b9400"}, {"Name": "Amritsari Kulccha Corner", "Rating": "4.1", "votes": "337", "location": " Site 4/56, C Block, Vikaspuri, New Delhi", "Cuisines: ": "North Indian", "hours": "8:30am\u201310pm(Mon-Sun)", "Cost for two": "\u20b9250"}, {"Name": "Italian Pizza & Fast Food", "Rating": "3.6", "votes": "33", "location": " 16, Ground Floor, Block E, Alpha Plaza, Alpha 1, Greater Noida", "Cuisines: ": "Pizza, Fast Food, Beverages", "hours": "10am\u20134am(Mon-Sun)", "Cost for two": "\u20b9650"}, {"Name": "Apni Thali", "Rating": "NEW", "votes": "33", "location": " A1, Sector-51, Noida", "Cuisines: ": "North Indian", "hours": "24Hours(Mon-Sun)", "Cost for two": "\u20b9300"}, {"Name": "Grover's Sweet Chilli's", "Rating": "3.3", "votes": "19", "location": " A 11, Prem Nagar, Block R, Uttam Nagar, New Delhi", "Cuisines: ": "North Indian, Fast Food, Chinese, Mithai", "hours": "9am\u201312midnight(Mon-Sun)", "Cost for two": "\u20b9250"}, {"Name": "NutriDay", "Rating": "NEW", "votes": "19", "location": " B1/10, Sector 16, Rohini, New Delhi", "Cuisines: ": "Fast Food, Healthy Food, Beverages", "hours": "9am\u201310pm(Mon-Sun)", "Cost for two": "\u20b9500"}, {"Name": "Chawla Snacks", "Rating": "NEW", "votes": "19", "location": " Shop 5, Opposite Pataudi Chowk, Police Station, Sector 37, Gurgaon", "Cuisines: ": "Chinese, Italian, Continental", "hours": "9am\u201311pm(Mon-Sun)", "Cost for two": "\u20b9100"}, {"Name": "Gullu's", "Rating": "NEW", "votes": "19", "location": " Cart 176, Huda Market, Sector 56, Gurgaon", "Cuisines: ": "North Indian", "hours": "5:30pm\u201310:30pm(Mon-Sun)", "Cost for two": "\u20b9250"}, {"Name": "Caf\u00e9 Healthilicious", "Rating": "4.0", "votes": "783", "location": " A-69, Ground floor, Lajpat Nagar 1, New Delhi", "Cuisines: ": "Healthy Food, Continental", "hours": "7am\u201312midnight(Mon-Sun)", "Cost for two": "\u20b91,100", "Featured in: ": "Counting Calories? Try These Places"}, {"Name": "Paratha Inbox", "Rating": "NEW", "votes": "783", "location": " A1, Sector 51, Noida", "Cuisines: ": "North Indian", "hours": "24Hours(Mon-Sun)", "Cost for two": "\u20b9200", "Featured in: ": "Counting Calories? Try These Places"}, {"Name": "Chatorebaaz Dhaba", "Rating": "3.7", "votes": "62", "location": " 3/1, Ground Floor, Ramesh Nagar, Kirti Nagar, New Delhi", "Cuisines: ": "North Indian", "hours": "11am\u201311:30pm(Mon-Sun)", "Cost for two": "\u20b9400", "Featured in: ": "Counting Calories? Try These Places"}, {"Name": "Vijay Chowmein", "Rating": "3.9", "votes": "174", "location": " A-4/129, Sector 17, Rohini, New Delhi", "Cuisines: ": "Chinese, Fast Food", "hours": "9am\u201311pm(Mon-Sun)", "Cost for two": "\u20b9350", "Featured in: ": "Counting Calories? Try These Places"}]