[{"Name": "Choudhary Dairy & Sweets Corner", "Rating": "3.3", "votes": "63", "location": " Shop 9, Godavari Complex Market, Sector 37, Noida", "Cuisines: ": "Mithai, Fast Food", "hours": "8:30am\u201310pm(Mon-Sun)", "Cost for two": "\u20b9150"}, {"Name": "Hot Paprika", "Rating": "3.5", "votes": "298", "location": " D 8, 1st Floor, DDA Market, Near Wine Shop, East of Kailash, New Delhi", "Cuisines: ": "Chinese, North Indian, Fast Food", "hours": "11am\u20131am(Mon-Sun)", "Cost for two": "\u20b9500"}, {"Name": "Food Hopper", "Rating": "NEW", "votes": "298", "location": " Shop-16, 17, 18&19, Plot-58, 5th Floor, Logix City Center, Sector 32, Near Sector 31, Noida", "Cuisines: ": "North Indian", "hours": "(Mon-Sun)", "Cost for two": "\u20b9700"}, {"Name": "Chicken At 21", "Rating": "3.6", "votes": "211", "location": " 71, Marble Market, Sector 21 C, Near Sector 21, Faridabad", "Cuisines: ": "Raw Meats, North Indian, Chinese, Mughlai, Rolls", "hours": "10:30am\u201310:30pm(Mon,Wed,Thu,Fri,Sat,Sun)...", "Cost for two": "\u20b9850"}, {"Name": "Cafe Chapter One", "Rating": "4.1", "votes": "112", "location": " Shop 2, B 6, DDA Market, Safdarjung, New Delhi", "Cuisines: ": "Cafe", "hours": "11am\u201311pm(Mon-Sun)", "Cost for two": "\u20b9650"}, {"Name": "Lotus Spice of Taste", "Rating": "4.0", "votes": "43", "location": " Shop 1, Hazipur, Sector 104, Near Sector 110, Noida", "Cuisines: ": "North Indian, Chinese, Fast Food, Biryani, Desserts, Beverages", "hours": "11am\u201311pm,12midnight\u20132am(Mon-Sun)", "Cost for two": "\u20b9200"}, {"Name": "PK Shoppe", "Rating": "3.5", "votes": "95", "location": " Shop 4, D/3, KC Complex, Jwala Heri Market, Paschim Vihar, New Delhi", "Cuisines: ": "Bakery", "hours": "9:30am\u201311pm(Mon-Sun)", "Cost for two": "\u20b9200"}, {"Name": "Kook Du Koo", "Rating": "3.4", "votes": "17", "location": " Shop 2, Geotech Homz, Pristine Avenue, Gaur City 2, Greater Noida", "Cuisines: ": "North Indian", "hours": "11:30am\u20131am(Mon-Sun)", "Cost for two": "\u20b9400"}, {"Name": "Karma Foodz", "Rating": "3.5", "votes": "40", "location": " Delivery Only", "Cuisines: ": "North Indian, Chinese, South Indian, Continental", "hours": "8am\u201310:30pm(Mon-Sun)", "Cost for two": "\u20b9150"}, {"Name": "Cake Star", "Rating": "3.1", "votes": "4", "location": " 3026, Basement, Near Vhari Mandi, Sector 28, DLF Phase 4, Gurgaon", "Cuisines: ": "Bakery", "hours": "9am\u20134am(Mon-Sun)", "Cost for two": "\u20b9500"}, {"Name": "AP Food & Restaurant", "Rating": "3.3", "votes": "10", "location": " Anaj Mandi, Near Ganesh Tailor, Sector 10 A, Near Sector 37, Gurgaon", "Cuisines: ": "Chinese, Rolls", "hours": "11am\u201311pm(Mon-Sun)", "Cost for two": "\u20b9350"}, {"Name": "Dee The Bakerr", "Rating": "4.1", "votes": "174", "location": " Delivery Only", "Cuisines: ": "Bakery, Desserts", "hours": "12noon\u201311pm(Mon,Tue,Fri,Sat,Sun),12:06pm...", "Cost for two": "\u20b9300"}, {"Name": "Vaishno Chat Bhandar", "Rating": "3.9", "votes": "372", "location": " Shop 66-67/E, Near Chota Gali Chakkar, Kamla Nagar, New Delhi", "Cuisines: ": "Street Food", "hours": "12:30pm\u201310:30pm(Mon-Sun)", "Cost for two": "\u20b9150"}, {"Name": "V R Foodiez", "Rating": "4.0", "votes": "133", "location": " SC 145, Plot 12 A, Jaipuria Sunrise Greens, Ahinsa Khand, Indirapuram, Ghaziabad", "Cuisines: ": "Chinese, North Indian, Momos", "hours": "12noon\u201311am(Mon),12noon\u201312:15am...", "Cost for two": "\u20b9400"}, {"Name": "Ujala Chaat Bhandar", "Rating": "4.0", "votes": "93", "location": " A4-C/180-A, Near Mota Singh School, Janakpuri, New Delhi", "Cuisines: ": "Street Food", "hours": "2pm\u201310:30pm(Mon-Sun)", "Cost for two": "\u20b9100"}]