[{"Name": "Roll Village", "Rating": "-", "location": " Shop 3392-B, D.B Gupta Road, Karol Bagh, New Delhi", "Cuisines: ": "Rolls, Fast Food", "hours": "1pm\u201311:30pm(Mon-Sun)", "Cost for two": "\u20b9300"}, {"Name": "Chopra Rasoi", "Rating": "3.0", "location": " 7A/5, Channa Market, WEA, Karol Bagh, New Delhi", "Cuisines: ": "North Indian", "hours": "7am\u20134pm,7pm\u201311pm(Mon-Sun)", "Cost for two": "\u20b9250", "votes": "8"}, {"Name": "Food Art Factory", "Rating": "3.1", "location": " Shop 2223, Qasim Jan Street, Balli Maran, Chandni Chowk, New Delhi", "Cuisines: ": "Fast Food", "hours": "5:30pm\u201310:30pm(Mon-Sun)", "Cost for two": "\u20b9300", "votes": "11"}, {"Name": "New Delhi Metro Food Plaza", "Rating": "-", "location": " Shop 1, Ajmeri Gate, Near New Delhi Metro Station Gate 3, Chawri Bazar, New Delhi", "Cuisines: ": "North Indian", "hours": "9am\u201311pm(Mon-Sun)", "Cost for two": "\u20b9500", "votes": "11"}, {"Name": "Biryani Appetizers", "Rating": "3.0", "location": " Shop 141, Tibia College Market, Karol Bagh, New Delhi", "Cuisines: ": "Hyderabadi", "hours": "11am\u201311pm(Mon-Sun)", "Cost for two": "\u20b9400", "votes": "15"}, {"Name": "Ice Ninja", "Rating": "-", "location": " 11/22, Shop 2, Bazar Road, Old Rajendra Nager, Rajinder Nagar, New Delhi", "Cuisines: ": "Desserts", "hours": "2:30pm\u201311pm(Mon-Sun)", "Cost for two": "\u20b9300", "votes": "15"}, {"Name": "New York Waffles & DInges", "Rating": "3.7", "location": " 17/2864, 1st Floor, Beadonpura, Karol Bagh, New Delhi", "Cuisines: ": "Desserts, Beverages", "hours": "12noon\u20132am(Mon-Sun)", "Cost for two": "\u20b9300", "votes": "60"}, {"Name": "M J Dosa Corner", "Rating": "3.4", "location": " 111, Guru Nanak Market, A Block, Karol Bagh, New Delhi", "Cuisines: ": "South Indian", "hours": "8am\u20138pm(Mon-Sun)", "Cost for two": "\u20b9150", "votes": "84"}, {"Name": "Mohan Dhaba", "Rating": "2.6", "location": " 5239, Sir Sobha Singh Building, Ajmeri Gate, Chawri Bazaar, New Delhi", "Cuisines: ": "North Indian", "hours": "10am\u201311pm(Mon-Sun)", "Cost for two": "\u20b9400", "votes": "8"}, {"Name": "Noodle", "Rating": "-", "location": " 5069, Main Desh Bandhu Gupta Road, Opposite H.P. World, Karol Bagh, New Delhi", "Cuisines: ": "Chinese, Fast Food", "hours": "11am\u201311pm(Mon-Sun)", "Cost for two": "\u20b9250", "votes": "8"}, {"Name": "Asharam Foods", "Rating": "3.5", "location": " 755, First Floor, Opposite Town Hall, Chandni Chowk, New Delhi", "Cuisines: ": "North Indian", "hours": "12noon\u20131am(Mon-Sat),7pm\u20131am(Sun)", "Cost for two": "\u20b9250", "votes": "34"}, {"Name": "Pizza Time", "Rating": "3.4", "location": " Shop 95, Model Basti, Near Filmistan Parking, Chandni Chowk, New Delhi", "Cuisines: ": "Pizza, Fast Food", "hours": "12noon\u201311pm(Mon-Sun)", "Cost for two": "\u20b9400", "votes": "33"}, {"Name": "Patiala Grill", "Rating": "3.6", "location": " 6/19, W.E.A, West Extension Area, Karol Bagh, New Delhi", "Cuisines: ": "North Indian", "hours": "7pm\u201311pm(Mon),12noon\u20134pm,7pm\u201311pm...", "Cost for two": "\u20b9800", "votes": "45"}, {"Name": "Maharaaj", "Rating": "NEW", "location": " 76, New Qutub Road, Sadar Bazar, Near Fire Station, Chandni Chowk, New Delhi", "Cuisines: ": "North Indian, Chinese", "hours": "9am\u201311pm(Mon-Sun)", "Cost for two": "\u20b9250", "votes": "45"}, {"Name": "Snack Shack", "Rating": "NEW", "location": " Shop 9, Metro Pillar 105, Gurudwara Baba Phoola Singh, Near Pusa Road, Rajinder Nagar, New Delhi", "Cuisines: ": "Chinese, Fast Food", "hours": "11am\u201311pm(Mon-Sun)", "Cost for two": "\u20b9350", "votes": "45"}]