[{"Name": "Mukesh Dhaba", "Rating": "3.1", "votes": "5", "location": " Near L Block, Street 15, Old Rangpuri Road, Mahipalpur, New Delhi", "Cuisines: ": "North Indian", "hours": "8:30am\u20133:30pm,6pm\u201311:30pm(Mon-Sun)", "Cost for two": "\u20b9300"}, {"Name": "Lucky's Bakery & Patisserie", "Rating": "-", "votes": "5", "location": " Shop 4, E-2/16, Ground Floor, Near Shani Mandir, Malviya Nagar, New Delhi", "Cuisines: ": "Bakery", "hours": "11am\u201311pm(Mon-Sun)", "Cost for two": "\u20b9350"}, {"Name": "Delhi Fresh Bakery", "Rating": "3.1", "votes": "5", "location": " House 221-A, Munirka Village, Near JNU, Munirka, New Delhi", "Cuisines: ": "Bakery", "hours": "10am\u201310pm(Mon-Sun)", "Cost for two": "\u20b9250"}, {"Name": "Mughlai Frenzy", "Rating": "-", "votes": "5", "location": " House 38 Ravi das chooke Jia Sarai, Near IIT, Qutab Institutional Area, New Delhi", "Cuisines: ": "North Indian", "hours": "11:30am\u20133:30pm,6:30pm\u201311:30pm(Mon-Sun)", "Cost for two": "\u20b9400"}, {"Name": "The Food Nest", "Rating": "3.2", "votes": "29", "location": " 253/A/5, Shahpur Jat, New Delhi", "Cuisines: ": "North Indian, Mughlai, Chinese", "hours": "11am\u201311pm(Mon-Sun)", "Cost for two": "\u20b9450"}, {"Name": "Shake Mazaa", "Rating": "3.3", "votes": "38", "location": " 634/7, Desi Fire, Govind Puri, Kalkaji, New Delhi", "Cuisines: ": "Beverages", "hours": "6:30pm\u20134am(Mon-Sun)", "Cost for two": "\u20b9300"}, {"Name": "Veer Ji Da Dhaba", "Rating": "3.4", "votes": "98", "location": " Shop 1, Kunwar Singh Nagar, Nagloi Najafgarh Road, Opposite NR Convent School, Nangloi, New Delhi", "Cuisines: ": "North Indian, Chinese, South Indian", "hours": "11:30am\u201310:30pm(Mon-Sun)", "Cost for two": "\u20b9550"}, {"Name": "Pizza's House", "Rating": "3.4", "votes": "43", "location": " Bhoor Colony, Main Dividing Road, Near Sector 29, Faridabad", "Cuisines: ": "Pizza", "hours": "10am\u201310pm(Mon-Sun)", "Cost for two": "\u20b9350"}, {"Name": "Ghar Ka Khana", "Rating": "3.2", "votes": "9", "location": " 169, Shakti Khand 1, Indirapuram, Ghaziabad", "Cuisines: ": "North Indian", "hours": "8am\u201310pm(Mon-Sun)", "Cost for two": "\u20b9200"}, {"Name": "WOW7 Worlds Of Waffle", "Rating": "3.2", "votes": "8", "location": " G 60, Shaheen Bagh, Abul Fazal Enclave, Jamia Nagar, Jasola, New Delhi", "Cuisines: ": "Desserts", "hours": "10:30am\u20132am(Mon-Sun)", "Cost for two": "\u20b9250"}, {"Name": "Anna Ki Rasoi", "Rating": "3.1", "votes": "8", "location": " A1/1, Kalkaji Double Storey, Kalkaji, New Delhi", "Cuisines: ": "South Indian", "hours": "8am\u201311pm(Mon-Sun)", "Cost for two": "\u20b9350"}, {"Name": "Khushdil Ice Cream And Shakes", "Rating": "3.7", "votes": "30", "location": " 1/29, Moti Nagar, New Delhi", "Cuisines: ": "Desserts, Ice Cream, Beverages", "hours": "2:30pm\u20131am(Mon-Sun)", "Cost for two": "\u20b9200"}, {"Name": "Annapurna Hotel", "Rating": "2.7", "votes": "224", "location": " Shop 22 & 34, Market 1, Chittaranjan Park, New Delhi", "Cuisines: ": "North Indian, Mughlai", "hours": "12noon\u20134pm,6pm\u201311pm(Mon-Sun)", "Cost for two": "\u20b9500"}, {"Name": "Chop Curry", "Rating": "-", "votes": "224", "location": " F-1, First Floor, Kalkaji, New Delhi", "Cuisines: ": "North Indian, Chinese", "hours": "11:30am\u201312:30am(Mon-Sun)", "Cost for two": "\u20b9600"}, {"Name": "METRO Meats & Grills", "Rating": "-", "votes": "224", "location": " Shop 01, Plot B 10, Ground Floor, Okhla Vihar, Jamia Nagar, Jasola, New Delhi", "Cuisines: ": "Fast Food, Kebab, Raw Meats, Chinese", "hours": "8:30am\u201310:30pm(Mon-Sun)", "Cost for two": "\u20b9500"}]