[{"Name": "Aggarwal Sweets", "Rating": "3.9", "votes": "104", "location": " Near PVR Cinema, Community Center, Naraina, New Delhi", "Cuisines: ": "Mithai, Street Food", "hours": "8am\u201310pm(Mon-Sun)", "Cost for two": "\u20b9150"}, {"Name": "100 Bites", "Rating": "4.2", "votes": "132", "location": " Shop 11 & 12, Near Yatharth Hospital, Sector 1, Amrapali Leisure Valley, Greater Noida", "Cuisines: ": "North Indian, Chinese", "hours": "8am\u20132am(Mon-Sun)", "Cost for two": "\u20b9500"}, {"Name": "Big Burger Cafe", "Rating": "3.2", "votes": "7", "location": " Shop 227, Ground Floor, Pocket G 20, Sector 7, Rohini, New Delhi", "Cuisines: ": "Fast Food", "hours": "11am\u201311pm(Mon-Sun)", "Cost for two": "\u20b9350"}, {"Name": "Punjab Biryani Chef", "Rating": "3.6", "votes": "34", "location": " Shop D- 437, Mahavir Enclave Part 3, Palam, New Delhi", "Cuisines: ": "Biryani", "hours": "11am\u201311pm(Mon-Sun)", "Cost for two": "\u20b9250"}, {"Name": "Food Garden", "Rating": "3.6", "votes": "39", "location": " 206, 2nd Floor, Panchsheel Square, Crossing Republik, Ghaziabad", "Cuisines: ": "Chinese, North Indian", "hours": "1:30pm\u20131am(Mon,Wed,Thu,Fri,Sat,Sun)...", "Cost for two": "\u20b9300"}, {"Name": "Kake Di Rasoi", "Rating": "3.3", "votes": "12", "location": " Shop 4, Four Storey Flats, Tagore Garden, New Delhi", "Cuisines: ": "North Indian, Mughlai", "hours": "11am\u201311pm(Mon-Sun)", "Cost for two": "\u20b9400"}, {"Name": "Board'em", "Rating": "NEW", "votes": "12", "location": " 2nd Floor, 1, Opposite Global Foyer Mall, Sector 42 Golf Course Road, Gurgaon", "Cuisines: ": "Fast Food, Beverages", "hours": "Closed(Mon),1pm\u201310pm(Tue-Fri),12noon\u201310pm...", "Cost for two": "\u20b9300"}, {"Name": "Invitation", "Rating": "3.7", "votes": "148", "location": " Shop 11, Pocket C Market, Sarita Vihar, New Delhi", "Cuisines: ": "Chinese, South Indian", "hours": "11am\u201310pm(Mon-Sun)", "Cost for two": "\u20b9350"}, {"Name": "Meghraj Sweets", "Rating": "3.5", "votes": "55", "location": " C 5, Main Road, Industries Area, Wazirpur, New Delhi", "Cuisines: ": "Mithai, Street Food, North Indian", "hours": "8am\u20139pm(Mon-Sun)", "Cost for two": "\u20b9300"}, {"Name": "Chaap Point", "Rating": "3.7", "votes": "76", "location": " Appu Town, Ramesh Nagar, Near Gol Chakkar Park, Kirti Nagar, New Delhi", "Cuisines: ": "North Indian", "hours": "11am\u201311pm(Mon-Sun)", "Cost for two": "\u20b9200"}, {"Name": "Biryani Corner", "Rating": "3.8", "votes": "142", "location": " C-27, Amar Colony, New Delhi", "Cuisines: ": "Biryani, North Indian", "hours": "12noon\u201310pm(Mon-Sun)", "Cost for two": "\u20b9300"}, {"Name": "Goldy Bake Ways", "Rating": "3.5", "votes": "43", "location": " 1H-39,Near Sabha Real Electronics, NIT, Faridabad", "Cuisines: ": "Bakery, Burger", "hours": "9am\u201310pm(Mon-Sun)", "Cost for two": "\u20b9500"}, {"Name": "Shri Parantha Point & Fast Food Centre", "Rating": "-", "votes": "43", "location": " 35/3, Patel Chest, Christan Colony, Delhi University-GTB Nagar, New Delhi", "Cuisines: ": "Chinese, North Indian, Fast Food", "hours": "10am\u201310pm(Mon-Sun)", "Cost for two": "\u20b9200"}, {"Name": "Roll Singh", "Rating": "3.5", "votes": "43", "location": " U-22, CGN, Near Subhash Nagar Metro Station, Subhash Nagar, New Delhi", "Cuisines: ": "Rolls, Fast Food, Beverages", "hours": "10:30am\u201311:30pm,12midnight\u20133:30am(Mon-Sun)", "Cost for two": "\u20b9400"}, {"Name": "The Nom Nom Box", "Rating": "3.2", "votes": "4", "location": " K-41, Baludyan Road, Uttam Nagar, New Delhi", "Cuisines: ": "Chinese", "hours": "12:30pm\u201310:30pm(Mon,Wed,Thu,Fri,Sat,Sun)...", "Cost for two": "\u20b9300"}]