[{"Name": "Roshan Food Corner", "Rating": "NEW", "location": " Shop 3, Old Rajinder Nagar, Rajinder Nagar, New Delhi", "Cuisines: ": "North Indian", "hours": "7am\u201310:30pm(Mon-Sun)", "Cost for two": "\u20b9200"}, {"Name": "Josie's Coffee House", "Rating": "NEW", "location": " Shop 2, 11/22, Bazar Road, Old Rajendra Nager, Rajinder Nagar, New Delhi", "Cuisines: ": "Beverages, Fast Food", "hours": "8am\u201310:30pm(Mon-Sun)", "Cost for two": "\u20b9400"}, {"Name": "Momos Junction", "Rating": "NEW", "location": " 2590, Kucha Chalan, Khabas Pura, Daryaganj, New Delhi", "Cuisines: ": "Momos, Fast Food", "hours": "1pm\u201311pm(Mon-Sun)", "Cost for two": "\u20b9200"}, {"Name": "Madan Lal Halwai", "Rating": "NEW", "location": " 5285, Sardar Thana Road, Basti Harphool Singh, Pahari Dhiraj, Sadar Bazaar, Chandni Chowk, New Delhi", "Cuisines: ": "Mithai, Street Food", "hours": "8am\u20138pm(Mon-Sun)", "Cost for two": "\u20b9250"}, {"Name": "Chaitu's Kitchen", "Rating": "2.4", "location": " 25/32, Old Rajinder Nagar, Rajinder Nagar, New Delhi", "Cuisines: ": "North Indian, South Indian, Chinese", "hours": "8am\u20138pm(Mon-Sun)", "Cost for two": "\u20b9250", "votes": "19"}, {"Name": "The Chinese Chimney", "Rating": "NEW", "location": " First Floor, Building 3946, Street 29, Regar Pura, Karol Bagh, New Delhi", "Cuisines: ": "Chinese", "hours": "11am\u20134am(Mon-Sun)", "Cost for two": "\u20b9450", "votes": "19"}, {"Name": "Tikkas & More", "Rating": "NEW", "location": " Near Rapid Floor Mill, Old Rajender Nagar Market, Rajinder Nagar, New Delhi", "Cuisines: ": "Rolls, North Indian", "hours": "5pm\u201311pm(Mon-Sun)", "Cost for two": "\u20b9350", "votes": "19"}, {"Name": "Natthu  Sweets", "Rating": "NEW", "location": " Shop 47, Old Rajinder Nagar Market, Rajinder Nagar, New Delhi", "Cuisines: ": "Mithai, Street Food", "hours": "10am\u201310pm(Mon-Sun)", "Cost for two": "\u20b9100", "votes": "19"}, {"Name": "Chennai Biryani Shop", "Rating": "NEW", "location": " Shop 47, Old Rajinder Nagar Market, Rajinder Nagar, New Delhi", "Cuisines: ": "South Indian, Kerala, North Indian", "hours": "7am\u201310pm(Mon-Sun)", "Cost for two": "\u20b9200", "votes": "19"}, {"Name": "Radhe Dhaba", "Rating": "NEW", "location": " Shop 2, 4D/9, Ground Floor, Rajinder Nagar, New Delhi", "Cuisines: ": "North Indian", "hours": "10am\u201310:30pm(Mon-Sun)", "Cost for two": "\u20b9200", "votes": "19"}, {"Name": "NIC-Natural Ice Creams", "Rating": "NEW", "location": " Shop 12, Gali 30, Bedponpura, Karol Bagh, New Delhi", "Cuisines: ": "Ice Cream", "hours": "12noon\u201311pm(Mon-Sun)", "Cost for two": "\u20b9150", "votes": "19"}, {"Name": "Flavour And Foods", "Rating": "-", "location": " Ratan Sabzi Market, Paharganj, New Delhi", "Cuisines: ": "Biryani, North Indian", "hours": "12noon\u201310pm(Mon-Sun)", "Cost for two": "\u20b9200", "votes": "19"}, {"Name": "Santosh Namkeen", "Rating": "-", "location": " Shop 2, Nehru Bazaar, Paharganj, New Delhi", "Cuisines: ": "Street Food", "hours": "10am\u20138:30pm(Mon-Sun)", "Cost for two": "\u20b9400", "votes": "19"}, {"Name": "Diggin", "Rating": "4.3", "location": " 10, Santushti Shopping Complex, Race Course Road, Chanakyapuri, New Delhi", "Cuisines: ": "Cafe, Italian, Beverages", "hours": "11:30am\u201310pm(Mon-Sun)", "Cost for two": "\u20b91,300", "votes": "3186", "Featured in: ": "For The Family, Outdoor Seating, Romantic, Insta-Worthy"}, {"Name": "Bukhara - ITC Maurya", "Rating": "4.3", "location": " ITC Maurya, Chanakyapuri, New Delhi", "Cuisines: ": "North Indian, Kebab", "hours": "12:30pm\u20132:45pm,7pm\u201311:45pm(Mon-Sun)", "Cost for two": "\u20b96,500", "votes": "4474", "Featured in: ": "Legendary Outlets, Luxury Dining"}]