[{"Name": "Sona Pure Veg Paradise", "Rating": "3.8", "votes": "242", "location": " 53-54, 1st Floor, Goverdhan House, Nehru Place, New Delhi", "Cuisines: ": "North Indian, South Indian, Fast Food", "hours": "11am\u201311pm(Mon-Sun)", "Cost for two": "\u20b9500"}, {"Name": "Momos House", "Rating": "3.8", "votes": "169", "location": " G-130, Sudarshan Cinema Road, Gautam Nagar, Hauz Khas, New Delhi", "Cuisines: ": "Chinese, Momos", "hours": "11am\u201311pm(Mon-Sun)", "Cost for two": "\u20b9350"}, {"Name": "Chaizz N Chillzz", "Rating": "3.7", "votes": "26", "location": " 365 Bazaar, Pavilion Arcade Market, Jaypee Wish Town, Sector 128, Near Sector 127, Noida", "Cuisines: ": "North Indian, Fast Food, Biryani, Beverages", "hours": "12:30pm\u201311:30pm(Mon-Sun)", "Cost for two": "\u20b9650"}, {"Name": "Sholay", "Rating": "3.0", "votes": "4", "location": " Dharampal Market, Near Indian Oil Petrol Pump, Sector 41, Noida", "Cuisines: ": "North Indian", "hours": "10am\u201310pm(Mon-Sun)", "Cost for two": "\u20b9100"}, {"Name": "Kant Khana Khazana", "Rating": "3.9", "votes": "277", "location": " 135, Huda Market, Sector 16, Faridabad", "Cuisines: ": "North Indian", "hours": "5pm\u201310pm(Mon-Sun)", "Cost for two": "\u20b9300"}, {"Name": "Mehta's Food Junction", "Rating": "3.6", "votes": "128", "location": " 434/113, Veer Savarkar Block, Shakarpur, Laxmi Nagar, New Delhi", "Cuisines: ": "North Indian, South Indian", "hours": "11am\u201311pm(Mon-Sun)", "Cost for two": "\u20b9350"}, {"Name": "Dakshin South Indian Hut", "Rating": "3.6", "votes": "42", "location": " Ashok Nagar Market, Subhash Nagar, New Delhi", "Cuisines: ": "South Indian", "hours": "10am\u201310pm(Mon-Sun)", "Cost for two": "\u20b9300"}, {"Name": "Lazeez Foods", "Rating": "3.4", "votes": "80", "location": " Plot 557, Sector 66, Mamura,Near Sector 66, Noida", "Cuisines: ": "North Indian, Mughlai, Chinese", "hours": "12noon\u201312midnight(Mon-Sun)", "Cost for two": "\u20b9400"}, {"Name": "Chilly Chinese Point", "Rating": "3.2", "votes": "12", "location": " Opposite Petrol Pump, Sector 9, Near Sector 7, Gurgaon", "Cuisines: ": "Chinese, North Indian", "hours": "10am\u20133am(Mon-Sun)", "Cost for two": "\u20b9300"}, {"Name": "Sholey Shawarma", "Rating": "NEW", "votes": "12", "location": " 24, Ground Floor, Delhi University-GTB Nagar, New Delhi", "Cuisines: ": "North Indian, Lebanese, Beverages", "hours": "12noon\u201311pm(Mon-Sun)", "Cost for two": "\u20b9350"}, {"Name": "Pizza Pie", "Rating": "3.5", "votes": "31", "location": " 87, Old Gandhi Nagar, Nehru Nagar, Ghaziabad", "Cuisines: ": "Pizza, Fast Food, Beverages", "hours": "5pm\u20133am(Mon-Sun)", "Cost for two": "\u20b9400"}, {"Name": "Nice Kitchen NK", "Rating": "3.2", "votes": "200", "location": " 67, Duplex Flat, Gudmandi Rajpura, Kalyan Vihar, Vijay Nagar, New Delhi", "Cuisines: ": "North Indian, Fast Food", "hours": "8pm\u20135am(Mon-Sun)", "Cost for two": "\u20b9250"}, {"Name": "Pind Bawarchi", "Rating": "3.5", "votes": "139", "location": " Shop 4 & 5, Huda Market, Sector 14, Gurgaon", "Cuisines: ": "North Indian, Chinese", "hours": "11:30am\u201311:30pm(Mon-Sun)", "Cost for two": "\u20b9600"}, {"Name": "Bombay Dhaba", "Rating": "3.8", "votes": "315", "location": " Main Jhadsa Road, Near Sector 31, Gurgaon", "Cuisines: ": "North Indian", "hours": "11am\u201311:51pm(Mon),11am\u201311:52pm(Tue),11am...", "Cost for two": "\u20b9250"}, {"Name": "Punjabi Rasoi", "Rating": "3.5", "votes": "41", "location": " Shop 3/84, 1st Floor, Shiva Ji Nagar, Sector 11, Near Sector 37, Gurgaon", "Cuisines: ": "North Indian, Chinese, Mughlai", "hours": "10am\u201311pm(Mon-Sun)", "Cost for two": "\u20b9500"}]