[{"Name": "Raj Sweets", "Rating": "3.2", "votes": "9", "location": " 1955, Main Road, Near Metro Pillar 229, Tri Nagar, Lawrence Road, New Delhi", "Cuisines: ": "Mithai", "hours": "8:30am\u201311pm(Mon-Sun)", "Cost for two": "\u20b9300"}, {"Name": "Khana Khazaanaa", "Rating": "3.4", "votes": "16", "location": " 2881, Floor 2, Sant Nagar, Rani Bagh Pitampura, New Delhi", "Cuisines: ": "North Indian", "hours": "8am\u20134am(Mon-Sun)", "Cost for two": "\u20b9250"}, {"Name": "Sethi Ice Cream", "Rating": "3.7", "votes": "63", "location": " 6/28, Subhash Nagar, New Delhi", "Cuisines: ": "Ice Cream", "hours": "4pm\u20132am(Mon-Sun)", "Cost for two": "\u20b9400"}, {"Name": "Del 41", "Rating": "3.3", "votes": "28", "location": " Plot 5, Ground Floor, Near Shivam Hospital, Najafgarh Road, Nangloi, New Delhi", "Cuisines: ": "Chinese, North Indian", "hours": "11am\u201311pm(Mon-Sun)", "Cost for two": "\u20b9600"}, {"Name": "Raju Chap Wala", "Rating": "3.4", "votes": "15", "location": " Kaushik Market, Sector 2C, Opposite Mewar College, Vasundhara, Ghaziabad", "Cuisines: ": "North Indian, Fast Food", "hours": "4pm\u201311pm(Mon-Sun)", "Cost for two": "\u20b9300"}, {"Name": "Al Qaza Lounge & Bar", "Rating": "3.5", "votes": "83", "location": " 40, N W Avenue Road, Punjabi Bagh, New Delhi", "Cuisines: ": "Chinese, North Indian", "hours": "12noon\u201312midnight(Mon-Sun)", "Cost for two": "\u20b92,400"}, {"Name": "Tandoori Nights", "Rating": "3.8", "votes": "225", "location": " Delivery Only", "Cuisines: ": "Street Food, Fast Food", "hours": "2pm\u20134am(Mon-Sun)", "Cost for two": "\u20b9500"}, {"Name": "Street Pizza", "Rating": "3.2", "votes": "9", "location": " Near Mangalam Place, Sector 3, Rohini, New Delhi", "Cuisines: ": "Pizza", "hours": "11am\u201311pm(Mon-Sun)", "Cost for two": "\u20b9300"}, {"Name": "City Ka Tadka", "Rating": "3.9", "votes": "336", "location": " L 41, Ground Floor, Old Double Story, Lajpat Nagar 4, New Delhi", "Cuisines: ": "North Indian, Fast Food, Biryani, Rolls", "hours": "8am\u201312midnight(Mon-Sun)", "Cost for two": "\u20b9450"}, {"Name": "Chinese Inn", "Rating": "3.5", "votes": "128", "location": " 13/82, Geeta Colony, New Delhi", "Cuisines: ": "Chinese, South Indian, Fast Food", "hours": "1pm\u201311pm(Mon-Sun)", "Cost for two": "\u20b9300"}, {"Name": "Deli Belly", "Rating": "3.6", "votes": "148", "location": " Shop 31, Ground Floor, DLF Tower B, Jasola, New Delhi", "Cuisines: ": "North Indian, Italian, Continental", "hours": "11:30am\u201312midnight(Mon-Sun)", "Cost for two": "\u20b91,000"}, {"Name": "Tangerine - Mahagun Sarovar Portico", "Rating": "3.5", "votes": "204", "location": " Sarovar Portico, VC 3, Vaishali, Ghaziabad", "Cuisines: ": "North Indian, Thai, Continental", "hours": "7am\u201311:30pm(Mon-Sun)", "Cost for two": "\u20b92,000"}, {"Name": "Pizza Cant", "Rating": "3.2", "votes": "13", "location": " 1/7154, Shivaji Park, Opposite Sharma Dry Cleaners, Shahdara, New Delhi", "Cuisines: ": "Pizza, Fast Food", "hours": "11am\u201311pm(Mon-Sun)", "Cost for two": "\u20b9200"}, {"Name": "Metro Cafe", "Rating": "3.9", "votes": "171", "location": " Gate 1, Rajouri Garden Metro Station, Rajouri Garden, New Delhi", "Cuisines: ": "Fast Food, Chinese", "hours": "8am\u201310pm(Mon-Sun)", "Cost for two": "\u20b9300"}, {"Name": "Mr. Diet", "Rating": "4.1", "votes": "104", "location": " Plot-6, KP-Block, Community Centre, Pitampura, New Delhi", "Cuisines: ": "Healthy Food, Fast Food, Continental, American", "hours": "8am\u20134am(Mon-Sun)", "Cost for two": "\u20b9700"}]