[{"Name": "Hunger Wings", "Rating": "3.7", "votes": "150", "location": " I 221, Jaidpur Naala Road, Hari Nagar Exention, Badarpur Border, Faridabad", "Cuisines: ": "North Indian, Chinese, Momos, Fast Food", "hours": "11am\u201311:30pm(Mon-Sun)", "Cost for two": "\u20b9300"}, {"Name": "Deepak Restaurant", "Rating": "3.1", "votes": "5", "location": " Shop 28, Bypass Road, Opposite Basilwa Colony, Sector 19, Faridabad", "Cuisines: ": "North Indian", "hours": "11am\u201312midnight(Mon-Sun)", "Cost for two": "\u20b9300"}, {"Name": "Cafe Waffles", "Rating": "3.9", "votes": "97", "location": " 494, Sector 4, Vaishali, Ghaziabad", "Cuisines: ": "Cafe, Beverages", "hours": "11am\u201311pm(Mon-Sun)", "Cost for two": "\u20b9350"}, {"Name": "Bhola Shankar Kachodi Wale", "Rating": "3.8", "votes": "129", "location": " Chotta Bazar, Near Civil Hospital, Shahdara, New Delhi", "Cuisines: ": "Street Food", "hours": "11am\u20136pm(Mon-Sun)", "Cost for two": "\u20b9100"}, {"Name": "Celebration Multi Cuisine Restaurant", "Rating": "3.7", "votes": "126", "location": " 15, Upper Ground Floor, Pratap Nagar, Near Mayur Vihar Phase 1, New Delhi", "Cuisines: ": "North Indian, Chinese, Fast Food", "hours": "12noon\u201311pm(Mon-Sun)", "Cost for two": "\u20b9500"}, {"Name": "Village - The House of Food", "Rating": "3.6", "votes": "216", "location": " B-1, Acharya Niketan, Mayur Vihar Phase 1, New Delhi", "Cuisines: ": "Street Food, Fast Food, Chinese, South Indian, North Indian, Momos", "hours": "12noon\u201311pm(Mon-Sun)", "Cost for two": "\u20b9300"}, {"Name": "Tandoori House", "Rating": "-", "votes": "216", "location": " 12, Samman Bazar Road, Bhogal, Jangpura, New Delhi", "Cuisines: ": "North Indian, Chinese", "hours": "12noon\u201311pm(Mon-Sun)", "Cost for two": "\u20b9200"}, {"Name": "Chic Plaza Xpress", "Rating": "3.3", "votes": "83", "location": " G 5, Ashish Complex, Behind Axis Bank, Mayur Vihar Phase 1, New Delhi", "Cuisines: ": "Fast Food, Beverages, Healthy Food", "hours": "12noon\u20132am(Mon-Sun)", "Cost for two": "\u20b9350"}, {"Name": "Adarsh Kulfi", "Rating": "3.3", "votes": "11", "location": " Centre Stage Mall, Basement Floor, Sector 18, Noida", "Cuisines: ": "Ice Cream", "hours": "11am\u201310pm(Mon-Sun)", "Cost for two": "\u20b9100"}, {"Name": "Yummy Tummy Food Corner", "Rating": "3.5", "votes": "55", "location": " Shop 5, A Block, DDA Market, East of Kailash, New Delhi", "Cuisines: ": "Chinese, Fast Food, Beverages", "hours": "4pm\u20134am(Mon-Sun)", "Cost for two": "\u20b9250"}, {"Name": "Shimla Bakery", "Rating": "3.1", "votes": "6", "location": " Atta Market, Sector 27, Noida", "Cuisines: ": "Bakery", "hours": "10am\u201312midnight(Mon-Sun)", "Cost for two": "\u20b9300"}, {"Name": "JK Cafe", "Rating": "3.6", "votes": "64", "location": " 234 A 1, Shop 6, Sant Nagar, East Of Kailash, New Delhi", "Cuisines: ": "Chinese", "hours": "9am\u20138pm(Mon-Sun)", "Cost for two": "\u20b9150"}, {"Name": "Pizza-a-Goodness", "Rating": "-", "votes": "64", "location": " Shop 14, DDA Market, Swasthya Vihar, Preet Vihar, New Delhi", "Cuisines: ": "Pizza, Fast Food", "hours": "11am\u201310pm(Mon-Sun)", "Cost for two": "\u20b9400"}, {"Name": "Talk of D'Town", "Rating": "3.4", "votes": "23", "location": " B-65, Near SBI Branch, Sector 2, Noida", "Cuisines: ": "Chinese, Continental, North Indian", "hours": "9am\u201312midnight(Mon),9am\u201310:30pm...", "Cost for two": "\u20b9600"}, {"Name": "Wakhra Swag By Mafia Kitchen", "Rating": "3.7", "votes": "99", "location": " Hotel P.K. Residency, B 2, Sector 27, Noida", "Cuisines: ": "North Indian, Mughlai", "hours": "9am\u20131am(Mon-Sun)", "Cost for two": "\u20b91,000"}]