[{"Name": "Hot Stuff", "Rating": "3.7", "votes": "74", "location": " B Block, Shopping Centre, Tagore Garden, New Delhi", "Cuisines: ": "Chinese", "hours": "11am\u201310:30pm(Mon-Sun)", "Cost for two": "\u20b9400"}, {"Name": "Food Pirates", "Rating": "NEW", "votes": "74", "location": " Shiv Puri Part 2, Main Goyla Dwarka Road, Dinpur, Najafgarh, New Delhi", "Cuisines: ": "North Indian, Chinese, Beverages", "hours": "10am\u201311pm(Mon-Sun)", "Cost for two": "\u20b9500"}, {"Name": "Oasis Baklawa", "Rating": "4.0", "votes": "136", "location": " Shop 3, Block D, Opposite Satyavati Medicos, Kamla Nagar, New Delhi", "Cuisines: ": "Bakery, Fast Food, Beverages", "hours": "10am\u201310pm(Mon-Sun)", "Cost for two": "\u20b9450"}, {"Name": "Exotic Paan And Chocolates", "Rating": "3.5", "votes": "16", "location": " 1-16/380, Pyare Lal Road, Bapa Nagar, Karol Bagh, New Delhi", "Cuisines: ": "Paan, Desserts", "hours": "7pm\u201312:30am(Mon-Sun)", "Cost for two": "\u20b9100"}, {"Name": "Wake Up Sid-The Cafeteria", "Rating": "NEW", "votes": "16", "location": " Shop 4, Ground Floor, Jop Plaza, Sector 18, Noida", "Cuisines: ": "South Indian, Chinese, Continental", "hours": "12noon\u201311pm(Mon-Sun)", "Cost for two": "\u20b9300"}, {"Name": "Arvind Zaika", "Rating": "NEW", "votes": "16", "location": " 109A, Gali 19, Vipin Garden Extension, Near Dwarka Mor Metro Station, Uttam Nagar, New Delhi", "Cuisines: ": "North Indian", "hours": "6pm\u20136am(Mon-Sun)", "Cost for two": "\u20b9200"}, {"Name": "Relax", "Rating": "3.8", "votes": "210", "location": " HS-22, Kailash Colony Market, Kailash Colony, New Delhi", "Cuisines: ": "North Indian, Mughlai, Chinese", "hours": "11am\u201312midnight(Mon-Sun)", "Cost for two": "\u20b9700"}, {"Name": "Kamal Dhaba", "Rating": "3.4", "votes": "106", "location": " Shop 19, Central Market, Sector 16-B, Vasundhara, Ghaziabad", "Cuisines: ": "North Indian", "hours": "12noon\u20134pm,7pm\u201311pm(Mon-Sun)", "Cost for two": "\u20b9300"}, {"Name": "Anands Chic Inn", "Rating": "3.8", "votes": "113", "location": " 1 & 2, Subash Municipal Market, Ramte Ram Road, Near Nehru Nagar, Ghaziabad", "Cuisines: ": "North Indian", "hours": "9am\u201311pm(Mon,Wed,Thu,Fri,Sat,Sun),Closed...", "Cost for two": "\u20b9600"}, {"Name": "BSGulati's Punjabi Swad", "Rating": "2.6", "votes": "429", "location": " G-8/3, Savitri Market, Sector 18, Noida", "Cuisines: ": "North Indian, Chinese", "hours": "9am\u20136pm(Mon-Sun)", "Cost for two": "\u20b9550"}, {"Name": "Al-Aseem Pizza", "Rating": "3.3", "votes": "12", "location": " M-29, Batla House, Near Masjid Khalilullah, Okhla Phase 1, New Delhi", "Cuisines: ": "Pizza", "hours": "1pm\u201311pm(Mon-Sun)", "Cost for two": "\u20b9500"}, {"Name": "Multani Theeya", "Rating": "3.5", "votes": "45", "location": " 509/8, Shiv Puri, Dayal Market, Sector 7, Gurgaon", "Cuisines: ": "Fast Food, Chinese, North Indian", "hours": "12noon\u201311pm(Mon-Sun)", "Cost for two": "\u20b9350"}, {"Name": "Babyram", "Rating": "3.1", "votes": "5", "location": " 85, Prakash Mohalla, Garhi, East Of Kailash, New Delhi", "Cuisines: ": "North Indian", "hours": "9am\u201311pm(Mon-Sun)", "Cost for two": "\u20b9200"}, {"Name": "Duggu Food Nation Restaurant", "Rating": "3.7", "votes": "52", "location": " ATO 1-ATO 2, Lower Ground Floor Market, Amrapali Sapphire, Sector 45, Noida", "Cuisines: ": "North Indian, Chinese", "hours": "6pm\u20135am(Mon-Sun)", "Cost for two": "\u20b9550"}, {"Name": "Emoi", "Rating": "4.0", "votes": "110", "location": " DLF Mall of India, 4th Floor, Sector 18, Noida", "Cuisines: ": "Desserts, Ice Cream", "hours": "12:30pm\u201312:30am(Mon-Sun)", "Cost for two": "\u20b9200"}]