[{"Name": "Hangchua's Chinese Food", "Rating": "4.0", "votes": "90", "location": " N50, JJ Colony, Near Gate 4, Siriniwas Puri, Friends Colony, New Delhi", "Cuisines: ": "Chinese", "hours": "11am\u201311pm(Mon-Sun)", "Cost for two": "\u20b9300"}, {"Name": "Nikke Tikke", "Rating": "4.0", "votes": "227", "location": " HS-20, Shop 3, Behind Kailash Colony Market, Kailash Colony, New Delhi", "Cuisines: ": "North Indian, Mughlai, Rolls", "hours": "7pm\u20134am(Mon-Sun)", "Cost for two": "\u20b9600"}, {"Name": "Foodie Sip \"N\" Bite", "Rating": "4.1", "votes": "179", "location": " 229, Nimri Colony, Near Ashok Vihar Phase 4, Ashok Vihar Phase 3, New Delhi", "Cuisines: ": "Fast Food", "hours": "8am\u201310:30pm(Mon-Sun)", "Cost for two": "\u20b9300"}, {"Name": "Paan After Naan", "Rating": "NEW", "votes": "179", "location": " C-2/10, Pharma Apartment 88, Near Madhu Vihar Market, IP Extension, New Delhi", "Cuisines: ": "Paan", "hours": "10am\u201311pm(Mon-Sun)", "Cost for two": "\u20b9100"}, {"Name": "Pochinki Food Zone", "Rating": "3.7", "votes": "39", "location": " C1/57, Dilshad Extension, Bhopura, Sahibabad, Ghaziabad", "Cuisines: ": "Chinese, Fast Food", "hours": "11:30am\u201311:30pm(Mon-Sun)", "Cost for two": "\u20b9200"}, {"Name": "Legend Cafe", "Rating": "4.1", "votes": "154", "location": " SD-120, Jaipuria Sunrise Plaza, Indirapuram, Ghaziabad", "Cuisines: ": "Italian, Fast Food", "hours": "10am\u20136am(Mon-Sun)", "Cost for two": "\u20b9350"}, {"Name": "Lucknow Junction", "Rating": "4.2", "votes": "77", "location": " Shop 19, Puri Diplomatic Greens, The Emporium, Sector 111, Near New Palam Vihar, Gurgaon", "Cuisines: ": "Mughlai, North Indian, Kebab", "hours": "1pm\u201311pm(Mon-Sun)", "Cost for two": "\u20b9500"}, {"Name": "GST-Geet Special Tandoori", "Rating": "3.8", "votes": "50", "location": " 355/1, Opposite Jnu Main Gate, Baba Gang Nath Marg, Munirka, New Delhi", "Cuisines: ": "Chinese, North Indian", "hours": "12noon\u201311:30pm(Mon-Sun)", "Cost for two": "\u20b9200"}, {"Name": "Flavors In A Bowl", "Rating": "3.5", "votes": "33", "location": " Realco Plaza, Village Kanhai, Sector 45, Gurgaon", "Cuisines: ": "North Indian", "hours": "11am\u20134am(Mon-Sun)", "Cost for two": "\u20b9250"}, {"Name": "Temptations", "Rating": "2.7", "votes": "15", "location": " Shop 73, Assotech Business Crestera, Sector 135, Noida", "Cuisines: ": "Bakery, Fast Food", "hours": "10:30am\u201311pm(Mon-Sun)", "Cost for two": "\u20b9200"}, {"Name": "C L Corner", "Rating": "4.1", "votes": "420", "location": " A-12/18, Near Fun Cinema, Moti Nagar, New Delhi", "Cuisines: ": "Street Food", "hours": "7am\u20135pm(Mon-Sun)", "Cost for two": "\u20b9100"}, {"Name": "The Tea Lounge - Taj Palace", "Rating": "4.0", "votes": "121", "location": " Taj Palace, 2 Sardar Patel Marg, Chanakyapuri, New Delhi", "Cuisines: ": "Cafe, Tea", "hours": "9am\u20139pm(Mon-Sun)", "Cost for two": "\u20b91,500"}, {"Name": "Kathi Junction", "Rating": "3.8", "votes": "418", "location": " 14/28, Near Happy English School, Geeta Colony, New Delhi", "Cuisines: ": "Fast Food, Rolls", "hours": "1pm\u201311:30pm(Mon-Sun)", "Cost for two": "\u20b9300"}, {"Name": "Bhukkad Adda", "Rating": "NEW", "votes": "418", "location": " Shop 3, MC Market, Old Railway Road, Bhim Nagar, Sector 7, Gurgaon", "Cuisines: ": "Street Food", "hours": "8am\u20138pm(Mon-Sun)", "Cost for two": "\u20b9100"}, {"Name": "Chawla's", "Rating": "3.8", "votes": "375", "location": " New Rajdhani Enclave, Vikas Marg, Near Preet Vihar Metro Station, Preet Vihar, New Delhi", "Cuisines: ": "North Indian, Fast Food, Chinese", "hours": "6pm\u201311pm(Mon,Wed,Thu,Fri,Sat,Sun),Closed...", "Cost for two": "\u20b9800"}]