[{"Name": "Aggarwal Standard Sweets", "Rating": "3.8", "votes": "209", "location": " KG 1/373, Shankar Chowk, PVR Road, Vikaspuri, New Delhi", "Cuisines: ": "Mithai, Street Food, Desserts, Bakery", "hours": "9am\u201310pm(Mon-Sun)", "Cost for two": "\u20b9100"}, {"Name": "Dhaba Junction", "Rating": "3.7", "votes": "176", "location": " A 8, Sector 11, Opposite Metro Pillar 839, Sector 12, Faridabad", "Cuisines: ": "North Indian, Chinese, South Indian, Fast Food", "hours": "11am\u201311pm(Mon-Sun)", "Cost for two": "\u20b91,000"}, {"Name": "Samarkand", "Rating": "3.7", "votes": "321", "location": " R-292, Ganga Shopping Complex, Sector 29, Noida", "Cuisines: ": "North Indian, Mughlai", "hours": "12noon\u201312midnight(Mon-Sun)", "Cost for two": "\u20b91,500"}, {"Name": "The Social Chamber", "Rating": "3.7", "votes": "52", "location": " San Felipe Marg, Opposite South City 2, Block A, Sector 47, Sohna Road, Gurgaon", "Cuisines: ": "North Indian, Fast Food, Chinese", "hours": "12noon\u201312midnight(Mon-Sun)", "Cost for two": "\u20b91,200"}, {"Name": "Dalgrak", "Rating": "4.0", "votes": "45", "location": " A25, Ring Road, Vikram Vihar, Lajpat Nagar 4, New Delhi", "Cuisines: ": "Korean, Beverages", "hours": "9am\u20139pm(Mon-Sat),Closed(Sun)", "Cost for two": "\u20b9700"}, {"Name": "Perbacco", "Rating": "3.2", "votes": "4", "location": " Ministry Of Environment & Forest, Lodhi Road, New Delhi", "Cuisines: ": "Italian", "hours": "12noon\u20133pm,7pm\u201311:30pm(Mon-Sun)", "Cost for two": "\u20b92,000"}, {"Name": "Bao & More", "Rating": "4.4", "votes": "132", "location": " Delivery Only", "Cuisines: ": "Thai, Chinese, Burmese, Malaysian, Vietnamese", "hours": "12noon\u20134am(Mon-Sun)", "Cost for two": "\u20b9750"}, {"Name": "The Kylin Experience", "Rating": "4.0", "votes": "149", "location": " Worldmark 2, Aerocity, New Delhi", "Cuisines: ": "Japanese, Asian, Thai", "hours": "12:30pm\u201312midnight(Mon-Sun)", "Cost for two": "\u20b91,800"}, {"Name": "Spice Box Amritsari Kulcha", "Rating": "3.7", "votes": "86", "location": " 11/20, Darbar Marg, Opposite Ramlila Ground, Near Geeta Colony Police Station, Geeta Colony, New Delhi", "Cuisines: ": "North Indian, Chinese", "hours": "9am\u20135pm(Mon-Sun)", "Cost for two": "\u20b9250"}, {"Name": "The Paratha Singh", "Rating": "NEW", "votes": "86", "location": " House A1, Near Wave City Center Noida, Sector 51, Noida", "Cuisines: ": "North Indian, Beverages", "hours": "24Hours(Mon-Sun)", "Cost for two": "\u20b9400"}, {"Name": "Chinese By Nature", "Rating": "3.6", "votes": "321", "location": " LSC 1, Sector 12, Dwarka, New Delhi", "Cuisines: ": "Chinese", "hours": "11am\u201311pm(Mon-Sun)", "Cost for two": "\u20b9300"}, {"Name": "Bikaner Sweets Corner", "Rating": "3.1", "votes": "6", "location": " 12/2, Vicky Complex, Sector 37, Faridabad", "Cuisines: ": "Mithai", "hours": "9am\u201310pm(Mon-Sun)", "Cost for two": "\u20b9250"}, {"Name": "Tetris Toasts", "Rating": "NEW", "votes": "6", "location": " SCO 63, Top Floor, Oyo PG, Noble Enclave, Opposite Maruti Factory, Sector 22, Gurgaon", "Cuisines: ": "Street Food", "hours": "11am\u201311pm(Mon-Sun)", "Cost for two": "\u20b9200"}, {"Name": "Vishnu Sweet Corner", "Rating": "3.6", "votes": "65", "location": " 259, Sector 2 C, Vasundhara, Ghaziabad", "Cuisines: ": "South Indian, Street Food, Mithai", "hours": "9am\u201310pm(Mon-Sun)", "Cost for two": "\u20b9200"}, {"Name": "Bindass Burgers", "Rating": "3.4", "votes": "9", "location": " 151, Ground Floor, DDA Flats, Shahpur Jat, New Delhi", "Cuisines: ": "Burger, Fast Food", "hours": "11am\u201311pm(Mon-Sun)", "Cost for two": "\u20b9200"}]