[{"Name": "JSB Evergreen Snack & Sweets", "Rating": "3.7", "votes": "130", "location": " Brahmaputra Shopping Complex, Sector 29, Noida", "Cuisines: ": "North Indian, Chinese, Fast Food, Street Food", "hours": "8am\u201310:30pm(Mon-Sun)", "Cost for two": "\u20b9300"}, {"Name": "Champaran Handi Meat Factory", "Rating": "3.0", "votes": "7", "location": " Kiosk 10, Huda Main Market, Sector 56, Gurgaon", "Cuisines: ": "North Indian", "hours": "7pm\u201311pm(Mon,Wed,Thu,Fri,Sat,Sun),Closed...", "Cost for two": "\u20b9600"}, {"Name": "India Kitchen", "Rating": "3.5", "votes": "1119", "location": " DLF Phase 4, Gurgaon", "Cuisines: ": "North Indian, Chinese, South Indian, Fast Food, Thai, Continental, Beverages", "hours": "24Hours(Mon-Sun)", "Cost for two": "\u20b9800"}, {"Name": "Bro's Kitchen", "Rating": "3.5", "votes": "54", "location": " Shop 1, GDA Market, Nyay Khand 1, Indirapuram, Ghaziabad", "Cuisines: ": "Chinese", "hours": "12midnight\u20134am(Mon,Tue,Wed,Thu,Sat,Sun)...", "Cost for two": "\u20b9300"}, {"Name": "Minion's Kitchen", "Rating": "3.8", "votes": "64", "location": " EWS-3, EWS Complex, Gali 4, U Block, DLF Phase 3, Gurgaon", "Cuisines: ": "North Indian, Chinese", "hours": "24Hours(Mon-Sun)", "Cost for two": "\u20b9300"}, {"Name": "New Minar", "Rating": "3.8", "votes": "378", "location": " M-65, M Block Market, Greater Kailash (GK 1), New Delhi", "Cuisines: ": "North Indian, Mughlai", "hours": "1pm\u20135pm,6pm\u201311pm(Mon-Sun)", "Cost for two": "\u20b91,300"}, {"Name": "Thali Ghar", "Rating": "3.8", "votes": "129", "location": " Plot VC 3, 3rd Floor, Mahagun Metro Mall, Vishali, Ghaziabad", "Cuisines: ": "North Indian, Rajasthani, Chinese", "hours": "12noon\u20133:30pm,7pm\u201310:30pm(Mon-Sun)", "Cost for two": "\u20b9600"}, {"Name": "Moffle Waffle", "Rating": "3.9", "votes": "296", "location": " WZ 686 E, Shop 2, Shiv Nagar Extention, Janakpuri, New Delhi", "Cuisines: ": "Desserts, Beverages, Fast Food", "hours": "1pm\u20132am(Mon-Sun)", "Cost for two": "\u20b9400"}, {"Name": "A One Pizza & Burger", "Rating": "NEW", "votes": "296", "location": " U 46/26, Sector 24, DLF Phase 3, Gurgaon", "Cuisines: ": "North Indian, Fast Food", "hours": "24Hours(Mon-Sun)", "Cost for two": "\u20b9300"}, {"Name": "Kuremals Kulfi", "Rating": "4.0", "votes": "81", "location": " G 1, Opposite Aurobindo Market, Hauz Khas, New Delhi", "Cuisines: ": "Desserts, Ice Cream", "hours": "12noon\u201312midnight(Mon-Sun)", "Cost for two": "\u20b9200"}, {"Name": "Chahal Meat Wala", "Rating": "NEW", "votes": "81", "location": " RZ-5, X- Block, New Roshan Pura, Najafgarh, New Delhi", "Cuisines: ": "North Indian", "hours": "1pm\u201310:30pm(Mon-Sun)", "Cost for two": "\u20b9500"}, {"Name": "Masala Story", "Rating": "NEW", "votes": "81", "location": " C-198, 4th Floor, Jhilmil Colony, Vivek Vihar, New Delhi", "Cuisines: ": "Italian, North Indian", "hours": "10am\u201312midnight(Mon-Sun)", "Cost for two": "\u20b9400"}, {"Name": "Bharat Chicken Inn Foods", "Rating": "3.7", "votes": "168", "location": " 157, Jheel Khuranja, Krishna Nagar, New Delhi", "Cuisines: ": "Raw Meats, North Indian, Mughlai", "hours": "12:30pm\u201311pm(Mon,Wed,Thu,Fri,Sat,Sun)...", "Cost for two": "\u20b9300"}, {"Name": "Kingdom of Parathas", "Rating": "3.8", "votes": "87", "location": " SD 147, Jaipuria Sunrise Greens, Ahinsa Khand 1, Sushila Naiyar Marg, Indirapuram, Ghaziabad", "Cuisines: ": "North Indian", "hours": "11am\u201311pm(Mon-Sun)", "Cost for two": "\u20b9350"}, {"Name": "Spice King", "Rating": "3.7", "votes": "28", "location": " Shop 1, C 37, Metro Plaza, Near Vasundhara Hospital, Sector 15, Vasundhara", "Cuisines: ": "Chinese, North Indian", "hours": "5pm\u201310pm(Mon-Sun)", "Cost for two": "\u20b9300"}]