[{"Name": "Murthal Da Dhaba", "Rating": "NEW", "location": " 489/55/2, Ground Floor, Maharishi Dayanand Marg, Malviya Nagar, New Delhi", "Cuisines: ": "North Indian, Street Food", "hours": "11am\u201312midnight(Mon-Sun)", "Cost for two": "\u20b9250"}, {"Name": "Cafe Red", "Rating": "3.8", "location": " 5-G, Dada Jungi House, Shahpur Jat, New Delhi", "Cuisines: ": "Cafe, Italian", "hours": "11am\u20138:30pm(Mon-Sun)", "Cost for two": "\u20b91,000", "votes": "380"}, {"Name": "Breads & Curries", "Rating": "3.6", "location": " Shop 30, Kings Avenue, Crossing Republik, Ghaziabad", "Cuisines: ": "North Indian, South Indian, Chinese", "hours": "11:30am\u201311pm(Mon-Sun)", "Cost for two": "\u20b9400", "votes": "42"}, {"Name": "Dosa Junction", "Rating": "3.5", "location": " Suraj Kund Road, Near Indian Oil Petrol Pump, Suraj Kund, Faridabad", "Cuisines: ": "South Indian", "hours": "11am\u201310pm(Mon-Fri),11am\u201310:30pm(Sat-Sun)", "Cost for two": "\u20b9300", "votes": "137"}, {"Name": "Swadisht Restaurant", "Rating": "3.7", "location": " C 691/706, LIG DDA Flats, East of Loni Road, Shahdara, New Delhi", "Cuisines: ": "North Indian, Chinese", "hours": "11am\u201311pm(Mon-Sun)", "Cost for two": "\u20b9300", "votes": "48"}, {"Name": "Al-Naaz Restaurant", "Rating": "3.3", "location": " I-142, Ground Floor, Main Market Road, Jogabai Extension, Zakir Nagar, New Delhi", "Cuisines: ": "Mughlai, Biryani, North Indian", "hours": "10am\u201311:30pm(Mon-Sun)", "Cost for two": "\u20b9400", "votes": "9"}, {"Name": "New Bakers Shoppee", "Rating": "4.0", "location": " A-12, Alaknanda Shopping Complex, Opposite ICICI Bank, Alaknanda, New Delhi", "Cuisines: ": "Bakery", "hours": "9am\u201310pm(Mon-Sun)", "Cost for two": "\u20b9200", "votes": "87"}, {"Name": "The Family Pizza", "Rating": "3.6", "location": " Shop 513/19, Near Raj Modern Public School, Nala Road, Badarpur Border, Faridabad", "Cuisines: ": "Pizza, Fast Food", "hours": "11am\u201311pm(Mon-Sun)", "Cost for two": "\u20b9400", "votes": "35"}, {"Name": "A-One Chicken Biryani", "Rating": "3.5", "location": " X 63, West Patel Nagar, New Delhi", "Cuisines: ": "Mughlai, Biryani", "hours": "11am\u201311pm(Mon-Sun)", "Cost for two": "\u20b9300", "votes": "48"}, {"Name": "The Pizza Family", "Rating": "2.7", "location": " 126/114, Najafgarh Road, Nangloi, New Delhi", "Cuisines: ": "Fast Food, Pizza", "hours": "10am\u201310pm(Mon-Sun)", "Cost for two": "\u20b9500", "votes": "10"}, {"Name": "Deem Seem", "Rating": "3.6", "location": " Kohat Enclave, Near Karur Vysya Bank, Pitampura, New Delhi", "Cuisines: ": "Chinese", "hours": "11am\u201311pm(Mon-Sun)", "Cost for two": "\u20b9300", "votes": "24"}, {"Name": "Chinese Tadka", "Rating": "3.3", "location": " Shop 42, Main Market, Nehru Nagar, Friends Colony, New Delhi", "Cuisines: ": "Chinese, Momos", "hours": "10:30am\u201311pm(Mon-Sun)", "Cost for two": "\u20b9250", "votes": "14"}, {"Name": "Chitra Cafe", "Rating": "3.7", "location": " A-15/21, Sector 44 Market, Sector 44, Noida", "Cuisines: ": "Chinese, Fast Food, Beverages", "hours": "11am\u201311pm(Mon),10am\u201311pm(Tue-Thu),11am\u2013...", "Cost for two": "\u20b9650", "votes": "144"}, {"Name": "Betroo Juice Bar", "Rating": "3.9", "location": " Delivery Only", "Cuisines: ": "Juices, Beverages, Salad", "hours": "7am\u201312:30am(Mon-Sun)", "Cost for two": "\u20b9250", "votes": "43"}, {"Name": "Platinum Lounge", "Rating": "3.4", "location": " Star City Mall, Ground Floor, Mayur Vihar Phase 1, New Delhi", "Cuisines: ": "North Indian, Chinese, Continental", "hours": "11am\u20131am(Mon-Sun)", "Cost for two": "\u20b91,400", "votes": "130"}]