[{"Name": "Anokhe Rasoi", "Rating": "3.8", "votes": "92", "location": " A - 84, Sector 70, Near Sector 71, Noida", "Cuisines: ": "North Indian, Chinese", "hours": "2pm\u20134am(Mon-Sun)", "Cost for two": "\u20b9450"}, {"Name": "Noodle Monk By Fewbucks", "Rating": "3.8", "votes": "60", "location": " D 8, Sushant Shopping Arcade, Sushant Lok, Gurgaon", "Cuisines: ": "Chinese", "hours": "12:30pm\u20133:30pm,7:30pm\u20131:30am(Mon-Sun)", "Cost for two": "\u20b9700"}, {"Name": "FRIENDS CAFE", "Rating": "3.6", "votes": "36", "location": " 08, Lower Ground Floor, Lotus Pond, Vaibhav Khand, Indirapuram, Ghaziabad", "Cuisines: ": "Fast Food, Beverages", "hours": "8am\u20132am(Mon-Sun)", "Cost for two": "\u20b9350"}, {"Name": "Adyar Ananda Bhavan", "Rating": "3.8", "votes": "598", "location": " S-18, Main Market, Green Park, New Delhi", "Cuisines: ": "South Indian, North Indian, Chinese, Mithai", "hours": "9am\u201310:30pm(Mon-Sun)", "Cost for two": "\u20b9500"}, {"Name": "Sukhmani Burger Point", "Rating": "NEW", "votes": "598", "location": " 1-B/52, Ramesh Nagar, Near Durga Mandir, Kirti Nagar, New Delhi", "Cuisines: ": "Fast Food, Burger", "hours": "10am\u201311pm(Mon-Sun)", "Cost for two": "\u20b9300"}, {"Name": "Gulati Da Punjabi Dhaba", "Rating": "4.1", "votes": "878", "location": " Shop 5E 14, Opposite Fruit Garden Railway Road, NIT, Faridabad", "Cuisines: ": "North Indian, Momos", "hours": "11am\u201311pm(Mon-Sun)", "Cost for two": "\u20b9300"}, {"Name": "Top Breads", "Rating": "3.5", "votes": "571", "location": " K 4, Ground Floor, Sector 18, Noida", "Cuisines: ": "Bakery, Fast Food, Chinese", "hours": "8:30am\u201312midnight(Mon-Sun)", "Cost for two": "\u20b9400"}, {"Name": "Night Owl", "Rating": "3.4", "votes": "38", "location": " 4-A, A-1, Mayur Vihar Phase 3, New Delhi", "Cuisines: ": "Fast Food, Lebanese", "hours": "11am\u20134am(Mon-Sun)", "Cost for two": "\u20b9500"}, {"Name": "FOKS- Food Online Kitchen Services", "Rating": "NEW", "votes": "38", "location": " Shop 4, U-6/50, DLF Phase 3, Gurgaon", "Cuisines: ": "North Indian", "hours": "11am\u201311pm(Mon-Sun)", "Cost for two": "\u20b9400"}, {"Name": "The Oriental Spice", "Rating": "4.2", "votes": "619", "location": " 439, First Floor, Aghapur Village, Sector 41, Noida", "Cuisines: ": "Chinese, Thai, Asian", "hours": "11am\u201311:30pm(Mon-Sun)", "Cost for two": "\u20b9800"}, {"Name": "BBBurger", "Rating": "3.4", "votes": "30", "location": " Shop 3, Plot 82, Saraswati Kunj, Golf Course Road, Sector 53, Gurgaon", "Cuisines: ": "Burger, Pizza, Fast Food", "hours": "11am\u20134am(Mon-Sun)", "Cost for two": "\u20b9400"}, {"Name": "Joy Of China", "Rating": "4.1", "votes": "37", "location": " Shop 5, Commercial Centre, Near Metro Station Gate 2, Green Park, New Delhi", "Cuisines: ": "Chinese, North Indian", "hours": "11am\u201311pm(Mon-Sun)", "Cost for two": "\u20b9500"}, {"Name": "Oh Faridabad", "Rating": "4.0", "votes": "47", "location": " Shop 68, 2nd Floor, Sector 7, Faridabad", "Cuisines: ": "North Indian, Chinese", "hours": "11am\u201311pm(Mon-Sun)", "Cost for two": "\u20b9450"}, {"Name": "Pizza Plus", "Rating": "3.9", "votes": "505", "location": " 10D/155, Kalpana Complex, Near Kisan Chowk, Sector 10, Vasundhara, Ghaziabad", "Cuisines: ": "Pizza", "hours": "11am\u201311pm(Mon-Sun)", "Cost for two": "\u20b9400"}, {"Name": "OSAL", "Rating": "3.8", "votes": "26", "location": " Shop GL 216, Floor 2, GL 223, Cross Point Mall, Sector 28, Near DLF Phase 4, Gurgaon", "Cuisines: ": "Goan, Seafood", "hours": "11am\u201310:30pm(Mon-Sun)", "Cost for two": "\u20b9700"}]