[{"Name": "Biryaniya", "Rating": "3.3", "votes": "10", "location": " Shop 2&3, La Lagune, Sector 54, Golf Course Road, Gurgaon", "Cuisines: ": "Biryani, North Indian, Mughlai", "hours": "12noon\u201311:30pm(Mon-Sun)", "Cost for two": "\u20b9500"}, {"Name": "Phonebooth Express", "Rating": "4.3", "votes": "854", "location": " Delhi University-GTB Nagar, New Delhi", "Cuisines: ": "North Indian, Italian, Chinese, Mexican", "hours": "12midnight\u20134am,12noon\u201312midnight...", "Cost for two": "\u20b9800"}, {"Name": "Flames Of Punjab", "Rating": "4.0", "votes": "110", "location": " Shop 16, Amrapali Princely Estate, Near Sector 72, Sector 76, Noida", "Cuisines: ": "North Indian, Mughlai", "hours": "12noon\u20133am(Mon-Sun)", "Cost for two": "\u20b9650"}, {"Name": "Janak Taste Budz", "Rating": "4.0", "votes": "126", "location": " B2B /1, L Type, Corner Shop, Janakpuri, New Delhi", "Cuisines: ": "Chinese, Rolls, Mughlai", "hours": "11am\u201311pm(Mon-Sun)", "Cost for two": "\u20b9350"}, {"Name": "Jhakkas Pav Bhaji Mumbai Wala", "Rating": "3.9", "votes": "427", "location": " Pocket 15, Property 180, Near Shiv Chowk, Block E, Sector 8, Rohini, New Delhi", "Cuisines: ": "Street Food, South Indian", "hours": "12:30pm\u201311pm(Mon-Sun)", "Cost for two": "\u20b9300"}, {"Name": "Vaishno Chat Corner", "Rating": "3.8", "votes": "44", "location": " B 5, DDA Market, Block B, Yamuna Vihar, Shahdara, New Delhi", "Cuisines: ": "Street Food, Chinese, North Indian", "hours": "10am\u201310:30pm(Mon-Sun)", "Cost for two": "\u20b9200"}, {"Name": "Kulcha Singh", "Rating": "3.3", "votes": "10", "location": " D/1, Fateh Nagar, Jail Road, New Delhi", "Cuisines: ": "North Indian", "hours": "4pm\u201311:30pm(Mon-Sun)", "Cost for two": "\u20b9500"}, {"Name": "Pasta Bites", "Rating": "3.6", "votes": "39", "location": " A 58, Harijan Colony, Sawan Park, Ashok Vihar Phase 3, New Delhi", "Cuisines: ": "Fast Food, Chinese", "hours": "11am\u20134am(Mon-Sun)", "Cost for two": "\u20b9200"}, {"Name": "The Litti Chokha", "Rating": "3.5", "votes": "29", "location": " Shop 60, Omaxe World Street, Sector 79, Near Sector 81, Faridabad", "Cuisines: ": "Bihari, North Indian, Chinese, Healthy Food", "hours": "11am\u201311pm(Mon-Sun)", "Cost for two": "\u20b91,000"}, {"Name": "Fill Up", "Rating": "3.8", "votes": "826", "location": " Elddeco Arcadia, Sector Pi 1, Sector PI, Noida", "Cuisines: ": "North Indian, Chinese", "hours": "11am\u201311pm(Mon-Sun)", "Cost for two": "\u20b91,400"}, {"Name": "Omya - The Oberoi", "Rating": "3.8", "votes": "114", "location": " The Oberoi, Drive Zakir Hussain Marg, New Delhi", "Cuisines: ": "North Indian", "hours": "12:30pm\u20133pm,7pm\u201311:30pm(Mon-Sun)", "Cost for two": "\u20b95,000"}, {"Name": "The Cake House", "Rating": "4.0", "votes": "34", "location": " Shop 10, Lakkhu Market, Sector 117, Near Sector 72, Noida", "Cuisines: ": "Bakery, Desserts", "hours": "8am\u201311pm(Mon-Sun)", "Cost for two": "\u20b9350"}, {"Name": "The Cake Cafe", "Rating": "4.1", "votes": "353", "location": " 196, Second Floor, Pocket D14, Opposite Metro Pillar 413, Sector 7, Rohini, New Delhi", "Cuisines: ": "Bakery, Italian, Chinese, Fast Food", "hours": "10:30am\u201311pm(Mon-Sun)", "Cost for two": "\u20b9350"}, {"Name": "Bamboo House", "Rating": "3.8", "votes": "415", "location": " Shop 97, HUDA Market, Sector 46, Near Sector 45, Gurgaon", "Cuisines: ": "Chinese, Thai, Momos, Japanese", "hours": "11am\u201311pm(Mon-Sun)", "Cost for two": "\u20b9600"}, {"Name": "Hunger Ground", "Rating": "3.3", "votes": "49", "location": " Kiosk 1, Icon Leisure Valley, Near Amrapali Dream Valley, Greater Noida", "Cuisines: ": "Fast Food, Chinese", "hours": "1pm\u201310pm(Mon-Sun)", "Cost for two": "\u20b9250"}]