[{"Name": "Brick N Bean Caf\u00e9 Kitchen", "Rating": "4.1", "votes": "75", "location": " 110, 1st Floor, South Point Mall, Golf Course Road, Gurgaon", "Cuisines: ": "Cafe, European, Italian, Continental", "hours": "9am\u201310pm(Mon-Sun)", "Cost for two": "\u20b91,400"}, {"Name": "Thirty 6 China Town", "Rating": "NEW", "votes": "75", "location": " Shop 12, Ground Floor, Market 1, Chittaranjan Park, New Delhi", "Cuisines: ": "Chinese", "hours": "11am\u201311pm(Mon-Sun)", "Cost for two": "\u20b9500"}, {"Name": "Fig", "Rating": "4.3", "votes": "344", "location": " 2nd Floor, Vijaya Complex, Near Vakil Market, DLF Phase 4, Gurgaon", "Cuisines: ": "Bakery, Desserts", "hours": "8am\u201310pm(Mon-Sat),8:30am\u201310pm(Sun)", "Cost for two": "\u20b9300"}, {"Name": "Punjab Di Mehak", "Rating": "NEW", "votes": "344", "location": " Shop 32, Fusion Homes, Tech Zone-4, Amrapali Dream Valley, Greater Noida", "Cuisines: ": "North Indian", "hours": "11am\u201311pm(Mon-Sun)", "Cost for two": "\u20b9300"}, {"Name": "Yes! Cake House", "Rating": "3.6", "votes": "11", "location": " Shop 10, Lakkhu Market, Sector 117, Near Sector 72, Noida", "Cuisines: ": "Bakery", "hours": "8am\u201311pm(Mon-Sun)", "Cost for two": "\u20b9350"}, {"Name": "Sushiya", "Rating": "4.2", "votes": "127", "location": " 9, MMTC Market, Shivalik Road, Malviya Nagar, New Delhi", "Cuisines: ": "Sushi, Asian, Thai", "hours": "10:30am\u20133am(Mon,Wed,Thu,Fri,Sat,Sun)...", "Cost for two": "\u20b9800"}, {"Name": "Kadimi Sweets", "Rating": "3.9", "votes": "423", "location": " 38, Central Road, Jangpura, New Delhi", "Cuisines: ": "Mithai, Street Food, North Indian", "hours": "11am\u20139:30pm(Mon-Sun)", "Cost for two": "\u20b9250"}, {"Name": "Madras Cafe", "Rating": "4.0", "votes": "377", "location": " D 12/231, Near Garg Sweets, Sector 7, Rohini, New Delhi", "Cuisines: ": "South Indian, Chinese", "hours": "9am\u201310:30pm(Mon-Sun)", "Cost for two": "\u20b9250"}, {"Name": "Baba Hotel", "Rating": "3.7", "votes": "183", "location": " L-65 A, Dilshad Garden, New Delhi", "Cuisines: ": "North Indian, Raw Meats", "hours": "11:30am\u201311pm(Mon-Sun)", "Cost for two": "\u20b9600"}, {"Name": "Uns", "Rating": "4.2", "votes": "111", "location": " Delivery Only", "Cuisines: ": "Rajasthani, North Indian, Kebab, Afghan", "hours": "6pm\u20134am(Mon),11:30am\u20134am(Tue-Sun)", "Cost for two": "\u20b9750"}, {"Name": "Yi Jing", "Rating": "NEW", "votes": "111", "location": " Sheraton Hotel, District Centre, Saket, New Delhi", "Cuisines: ": "Chinese, Asian", "hours": "6pm\u201311:45pm(Mon-Sat),12:30pm\u20132:45pm,6pm...", "Cost for two": "\u20b92,000"}, {"Name": "Mitraao 2.0", "Rating": "3.9", "votes": "388", "location": " Plot 88 E, Saraswati kunj , Sector 53, Golf Course Road, Gurgaon", "Cuisines: ": "North Indian, Mughlai, Chinese, Beverages", "hours": "11am\u20133am(Mon-Sun)", "Cost for two": "\u20b9500"}, {"Name": "Kathi Junction", "Rating": "4.2", "votes": "63", "location": " Tower A, Ground Floor, Unitech Cyber Park, Sector 39, Gurgaon", "Cuisines: ": "Rolls, North Indian", "hours": "11:30am\u201312midnight(Mon-Sun)", "Cost for two": "\u20b9400"}, {"Name": "Maanjee Bikaner", "Rating": "3.6", "votes": "224", "location": " 2, I.T.I Chowk, Talab Road, Old Faridabad, Sector 19, Faridabad", "Cuisines: ": "North Indian, Fast Food, Chinese", "hours": "7am\u201310:30pm(Mon-Sun)", "Cost for two": "\u20b9500"}, {"Name": "Pho King", "Rating": "4.0", "votes": "2609", "location": " Khasra 258, Lane 3, West End Marg, Saidulajab, Saket, New Delhi", "Cuisines: ": "Asian, Continental, Mexican, North Indian, Momos, Chinese", "hours": "12noon\u201311pm(Mon-Sun)", "Cost for two": "\u20b9900", "Featured in: ": "Pan-Asian Delicacies"}]