[{"Name": "Radha Swami Vaishno Dhaba", "Rating": "3.7", "votes": "139", "location": " C-23, Near Pali Factory, Uttam Nagar East, Uttam Nagar, New Delhi", "Cuisines: ": "North Indian", "hours": "12noon\u20134pm,7pm\u201311pm(Mon-Sun)", "Cost for two": "\u20b9200"}, {"Name": "Jolly Nizams", "Rating": "4.0", "votes": "289", "location": " Shop 1, Ground Floor, Block 2, Paras Tierea, Near Sector 132, Sector 137, Noida", "Cuisines: ": "Hyderabadi, North Indian, Biryani", "hours": "11:30am\u201311:30pm(Mon-Sun)", "Cost for two": "\u20b9500"}, {"Name": "RD Rasoi", "Rating": "3.6", "votes": "47", "location": " 3G1, NIT, Faridabad", "Cuisines: ": "North Indian, Pizza, Chinese", "hours": "4pm\u20132am(Mon-Sun)", "Cost for two": "\u20b9450"}, {"Name": "Cake Castle", "Rating": "3.8", "votes": "110", "location": " A 24, Vatika Town Square, Sector 82 A, Near Sector 83, Gurgaon", "Cuisines: ": "Bakery, Fast Food", "hours": "10am\u201311pm(Mon-Sun)", "Cost for two": "\u20b9500"}, {"Name": "Hot Bites Cafe", "Rating": "NEW", "votes": "110", "location": " UST 23, Aura Complex, Raj Nagar, Ghaziabad", "Cuisines: ": "North Indian", "hours": "12noon\u201311pm(Mon-Sun)", "Cost for two": "\u20b9400"}, {"Name": "Saffron - Trident Gurgaon", "Rating": "3.9", "votes": "172", "location": " Trident, 443, Phase 5, Udyog Vihar, Gurgaon", "Cuisines: ": "North Indian, Seafood, Kebab", "hours": "12:30pm\u20133pm,7:30pm\u201311pm(Mon-Sun)", "Cost for two": "\u20b94,000"}, {"Name": "Baozi Momos", "Rating": "3.7", "votes": "89", "location": " RZ 401, Pradhan Chowk, Palam, New Delhi", "Cuisines: ": "Chinese, Momos", "hours": "5pm\u201310:30pm(Mon-Sun)", "Cost for two": "\u20b9250"}, {"Name": "7even Heaven", "Rating": "3.6", "votes": "48", "location": " D12/195, Pocket 12, Sector 7, Rohini, New Delhi", "Cuisines: ": "North Indian, Chinese, Fast Food", "hours": "12noon\u201312midnight(Mon-Sun)", "Cost for two": "\u20b9500"}, {"Name": "Diversion Dine", "Rating": "NEW", "votes": "48", "location": " Gate 5, Hawker Street, Ambience Mall, DLF Phase 3, Gurgaon", "Cuisines: ": "North Indian", "hours": "12noon\u201311pm(Mon-Sun)", "Cost for two": "\u20b9800"}, {"Name": "Nivaan Fast Food", "Rating": "3.7", "votes": "63", "location": " E 58 A, Baludhyan Road, Near Gopal Jee Dairy, Uttam Nagar, New Delhi", "Cuisines: ": "Chinese, North Indian", "hours": "7am\u20134am(Mon-Sun)", "Cost for two": "\u20b9300"}, {"Name": "Bharat Chicken Inn", "Rating": "3.7", "votes": "288", "location": " G-1, CSC, Pankaj Plaza, DDA Market, Near Nirman Vihar Metro Station, Laxmi Nagar, New Delhi", "Cuisines: ": "North Indian, Mughlai, Chinese, Momos", "hours": "12noon\u201311pm(Mon,Wed,Thu,Fri,Sat,Sun)...", "Cost for two": "\u20b9800"}, {"Name": "The Nature\u2019s Cafe", "Rating": "3.4", "votes": "16", "location": " 916/1158, Pali Crushal Zone Road, Sector 43, Suraj Kund, Faridabad", "Cuisines: ": "Chinese, Fast Food, Rolls", "hours": "11am\u201311pm(Mon-Sun)", "Cost for two": "\u20b9400"}, {"Name": "Desi Rasoi Food", "Rating": "3.5", "votes": "60", "location": " Amarpali Sapphire, Basement Market, Sector 45, Near Sector 44, Noida", "Cuisines: ": "South Indian, North Indian, Chinese", "hours": "12noon\u201311pm(Mon-Sun)", "Cost for two": "\u20b9300"}, {"Name": "Dosa Idli Hub", "Rating": "3.9", "votes": "67", "location": " BA Block, Gurunanak Pura, Jail Road, New Delhi", "Cuisines: ": "South Indian", "hours": "24Hours(Mon-Sun)", "Cost for two": "\u20b9400"}, {"Name": "Mystique Melange", "Rating": "4.0", "votes": "618", "location": " C 3/8, Ashok Vihar Phase 2, New Delhi", "Cuisines: ": "North Indian, Mughlai, Chinese, Continental, Kebab", "hours": "12noon\u201312midnight(Mon-Sun)", "Cost for two": "\u20b91,800"}]