[{"Name": "Kings Kulfi", "Rating": "4.0", "votes": "223", "location": " 3/72, Main Shankar Road, Old Rajinder Nagar, New Delhi", "Cuisines: ": "Ice Cream", "hours": "11am\u201312midnight(Mon-Sun)", "Cost for two": "\u20b9250"}, {"Name": "Punjab Chicken & Bar-Be-Que", "Rating": "2.9", "votes": "4", "location": " 100, Main Market, Old Rajinder Nagar, Near Rajinder Nagar, New Delhi", "Cuisines: ": "North Indian, Mughlai, Raw Meats", "hours": "10am\u20139pm(Mon,Wed,Thu,Fri,Sat,Sun),Closed...", "Cost for two": "\u20b9600"}, {"Name": "Laxmi Misthan Bhandar", "Rating": "3.2", "votes": "10", "location": " Pandara Flats, Near India Gate, Pandara Road Market, New Delhi", "Cuisines: ": "Mithai", "hours": "9am\u201311:30pm(Mon-Sun)", "Cost for two": "\u20b9350"}, {"Name": "Kulcha Junction", "Rating": "2.8", "votes": "12", "location": " 47, Ground Floor, Shop 2, Old Rajender Nagar, Near Rapid Flour Mills Rajinder Nagar, New Delhi", "Cuisines: ": "Street Food", "hours": "9am\u20139pm(Mon-Sun)", "Cost for two": "\u20b9250"}, {"Name": "Mehta Restaurant", "Rating": "3.6", "votes": "81", "location": " 3627/1, Near Golcha Cinema, Daryaganj, New Delhi", "Cuisines: ": "South Indian, Mithai", "hours": "10am\u201310pm(Mon-Sun)", "Cost for two": "\u20b9300"}, {"Name": "Fish Point", "Rating": "3.5", "votes": "21", "location": " 4164, Urdu Bazar, Jama Masjid, New Delhi", "Cuisines: ": "North Indian", "hours": "12noon\u201312midnight(Mon-Sun)", "Cost for two": "\u20b9200"}, {"Name": "Larry's China - Ambassador", "Rating": "3.9", "votes": "220", "location": " Ambassador, Subramania Bharti Marg, Sujan Singh Park, Khan Market, New Delhi", "Cuisines: ": "Chinese", "hours": "1pm\u20134pm,7:30pm\u201311:45pm(Mon-Sun)", "Cost for two": "\u20b94,000"}, {"Name": "Abs Matka Peer Shahi", "Rating": "3.1", "votes": "11", "location": " Dargah Matka Peer, Beside Bharat Petroleum Petrol Pump, Pragati Maidan, New Delhi", "Cuisines: ": "Biryani, Kebab", "hours": "10:30am\u20137pm(Mon-Sun)", "Cost for two": "\u20b9600"}, {"Name": "Wrapss", "Rating": "3.8", "votes": "360", "location": " Near City Hospital, Pusa Road, Karol Bagh, New Delhi", "Cuisines: ": "Wraps, Rolls", "hours": "11am\u201311pm(Mon-Sun)", "Cost for two": "\u20b9300"}, {"Name": "Chaap Grill & Kababs", "Rating": "3.4", "votes": "17", "location": " Shop 132, Tivvia College, Deshbandhu Gupta Market, Karol Bagh, New Delhi", "Cuisines: ": "Mughlai, Chinese", "hours": "2pm\u201311pm(Mon-Sun)", "Cost for two": "\u20b9250"}, {"Name": "Sultan Ji Sweets And Snacks", "Rating": "3.6", "votes": "21", "location": " Gate 1, Meena Bazaar, Bazar Matia Mahal, Jama Masjid, New Delhi", "Cuisines: ": "Mithai, Street Food", "hours": "3pm\u201312midnight(Mon-Sun)", "Cost for two": "\u20b9200"}, {"Name": "Swaad Bar-Be-Que", "Rating": "3.4", "votes": "32", "location": " 4A/61, Main Shankar Road, Old, Rajinder Nagar, New Delhi", "Cuisines: ": "North Indian, Chinese, Mughlai", "hours": "11am\u201311pm(Mon-Sun)", "Cost for two": "\u20b9600"}, {"Name": "Haseen Mahal Restaurant", "Rating": "3.4", "votes": "25", "location": " 9044/48, Ram Bagh Road, Azad Market, Delhi", "Cuisines: ": "North Indian, Mughlai", "hours": "12:30pm\u20133:30pm,6pm\u201311:30pm(Mon-Sun)", "Cost for two": "\u20b9500"}, {"Name": "Binks Eating Plaza", "Rating": "2.7", "votes": "13", "location": " Near Kotak Mahindra Bank, Old Rajinder Nagar, New Delhi", "Cuisines: ": "Fast Food", "hours": "10:30am\u20139:30pm(Mon-Sun)", "Cost for two": "\u20b9300"}, {"Name": "Dimple Bar Restaurant", "Rating": "3.4", "votes": "34", "location": " 2105, DB Gupta Road, Karol Bagh, New Delhi", "Cuisines: ": "North Indian, Chinese, Mughlai", "hours": "11am\u201312:30am(Mon-Sun)", "Cost for two": "\u20b91,200"}]