[{"Name": "Biryani On Your Plate", "Rating": "3.3", "votes": "16", "location": " 455, Extention 1, Shalimar Garden, Ghaziabad", "Cuisines: ": "Biryani, North Indian", "hours": "9am\u201312midnight(Mon-Sun)", "Cost for two": "\u20b9400"}, {"Name": "Desi Kalika Hut", "Rating": "3.7", "votes": "190", "location": " 74, Ahinsa Khand 2, Opposite Jaipuria Sunrise Mall, Indirapuram, Ghaziabad", "Cuisines: ": "North Indian, Chinese", "hours": "9am\u201311pm(Mon-Sun)", "Cost for two": "\u20b9750"}, {"Name": "Kamala Sweets", "Rating": "4.0", "votes": "179", "location": " K/1-101, Chittaranjan Park, New Delhi", "Cuisines: ": "Mithai", "hours": "8:30am\u201310pm(Mon-Sun)", "Cost for two": "\u20b9300"}, {"Name": "Lala Ji Da Shudh Vaishno Dhaba", "Rating": "3.6", "votes": "96", "location": " Main Market, Milap Nagar, Uttam Nagar, New Delhi", "Cuisines: ": "North Indian", "hours": "12:30pm\u20134:30pm,7:30pm\u201310:30pm(Mon-Sun)", "Cost for two": "\u20b9250"}, {"Name": "Anand Vaishno Dhaba", "Rating": "3.7", "votes": "884", "location": " WZ 53, Dayal Sar Road, Near Adarsh Model School, Uttam Nagar, New Delhi", "Cuisines: ": "North Indian", "hours": "12noon\u201311pm(Mon-Sun)", "Cost for two": "\u20b9300"}, {"Name": "Mini Sweets House", "Rating": "3.7", "votes": "450", "location": " Shop 18, Sector 22, Faridabad", "Cuisines: ": "Mithai, Street Food, South Indian", "hours": "7am\u201310pm(Mon-Sun)", "Cost for two": "\u20b9200"}, {"Name": "Wok Momo", "Rating": "3.7", "votes": "28", "location": " Shop 1, Tigaon Road, Near Bihari Market, Sector 82, Faridabad", "Cuisines: ": "Momos, Fast Food", "hours": "4pm\u201310pm(Mon-Sun)", "Cost for two": "\u20b9350"}, {"Name": "Sindhi Chicken Corner", "Rating": "3.5", "votes": "537", "location": " Lu Market, Near Ramlila Ground, Pitampura, New Delhi", "Cuisines: ": "North Indian, Mughlai", "hours": "11am\u201311pm(Mon,Wed,Thu,Fri,Sat,Sun),Closed...", "Cost for two": "\u20b9600"}, {"Name": "Dhaba 83", "Rating": "3.6", "votes": "46", "location": " Near Vatika Flyover, Chetak Logistics, Sector 83, Gurgaon", "Cuisines: ": "North Indian", "hours": "7:26am\u201312midnight(Mon),7am\u201312midnight...", "Cost for two": "\u20b9500"}, {"Name": "KK Da Dhaba", "Rating": "3.8", "votes": "224", "location": " Shop 29-30, DDU Market, Main Najafgarh Road, Rajouri Garden, New Delhi", "Cuisines: ": "Chinese, North Indian", "hours": "12noon\u201311:30pm(Mon-Sun)", "Cost for two": "\u20b9500"}, {"Name": "Shudh Vaishno Hotel", "Rating": "3.9", "votes": "223", "location": " T 32-34, Super Market, Near Milan Cinema, New Moti Nagar, Karampura, New Delhi", "Cuisines: ": "North Indian", "hours": "12noon\u20134pm,7pm\u201311pm(Mon-Sun)", "Cost for two": "\u20b9500"}, {"Name": "Mehfil-E-Tandoor", "Rating": "3.4", "votes": "40", "location": " A-31, Ram Dutt Enclave, Uttam Nagar, New Delhi", "Cuisines: ": "North Indian", "hours": "12noon\u201312midnight(Mon-Sun)", "Cost for two": "\u20b9500"}, {"Name": "Patta Cafe", "Rating": "3.9", "votes": "245", "location": " Khasra 258, Lane 3, West End Marg, Saidulajab, Near Saket, New Delhi", "Cuisines: ": "Tibetan, Naga, Nepalese, Chinese, Momos, Asian, Thai", "hours": "12noon\u201310:30pm(Mon-Sun)", "Cost for two": "\u20b9800"}, {"Name": "Pizza Gully", "Rating": "3.3", "votes": "16", "location": " Delivery Only", "Cuisines: ": "Pizza, Fast Food", "hours": "12noon\u201311pm(Mon-Sun)", "Cost for two": "\u20b9400"}, {"Name": "Cafe Yell", "Rating": "4.1", "votes": "470", "location": " 35, Ground Floor, Defence Colony Main Market, Defence Colony, New Delhi", "Cuisines: ": "Cafe, Continental, Italian", "hours": "11am\u201311:30pm(Mon-Fri),9am\u201311:30pm(Sat-Sun)", "Cost for two": "\u20b91,000", "Featured in: ": "Great Cafes"}]