[{"Name": "Zawadah", "Rating": "4.0", "votes": "111", "location": " 88/2, Sri Aurobindo Marg, Adchini, New Delhi", "Cuisines: ": "Mediterranean", "hours": "8am\u20133am(Mon-Sun)", "Cost for two": "\u20b9800"}, {"Name": "The Millennial Baker", "Rating": "3.5", "votes": "18", "location": " R 104, Anupam Apartment, East Arjun Nagar, Shahdara, New Delhi", "Cuisines: ": "Bakery", "hours": "10am\u20139pm(Mon-Sun)", "Cost for two": "\u20b9500"}, {"Name": "Surahi The Veg Kitchen and Bar by The Rajkamal", "Rating": "3.3", "votes": "61", "location": " 30/31, Unity One Mall, Karkarduma CBD, Shahdara, New Delhi", "Cuisines: ": "North Indian, Chinese, Fast Food", "hours": "12noon\u201311:30pm(Mon-Sun)", "Cost for two": "\u20b9700"}, {"Name": "Dil Dosa Etc..", "Rating": "3.6", "votes": "30", "location": " Shop 111, RPS Arcade, Gate 1, Sector 88, Near Sector 86, Faridabad", "Cuisines: ": "South Indian", "hours": "9:30am\u20133pm,5pm\u201310pm(Mon-Sun)", "Cost for two": "\u20b9300"}, {"Name": "Deep Chicken Corner", "Rating": "3.7", "votes": "155", "location": " Shop 7, Palika Bazar, Near New Colony More, Old Railway Road, Gurgaon", "Cuisines: ": "North Indian, Mughlai", "hours": "11am\u20134pm,5:30pm\u201310:30pm(Mon,Wed,Thu...", "Cost for two": "\u20b9500"}, {"Name": "Egg Creation", "Rating": "3.8", "votes": "56", "location": " Galactic Court, Lower Ground Floor, Tower-B, Galaxy Business Park, Sector 62, Noida", "Cuisines: ": "Fast Food", "hours": "9am\u201310pm(Mon-Sat),Closed(Sun)", "Cost for two": "\u20b9700"}, {"Name": "Grilled Cafe", "Rating": "NEW", "votes": "56", "location": " Shop 7, Plot 14, Block F, Local Shopping Center, Behra Enclave, Paschim Vihar, New Delhi", "Cuisines: ": "Fast Food, Desserts", "hours": "12noon\u201312midnight(Mon-Sun)", "Cost for two": "\u20b9400"}, {"Name": "The Playground", "Rating": "3.9", "votes": "757", "location": " 1 Pankaj Arcade, Pocket 4, Sector 11, Dwarka, New Delhi", "Cuisines: ": "North Indian, Chinese, Continental, Italian", "hours": "11:30am\u201312:30am(Mon-Sun)", "Cost for two": "\u20b91,500"}, {"Name": "Afsar Chicken Point", "Rating": "3.7", "votes": "102", "location": " 395, Main Road, Zakir Nagar, New Delhi", "Cuisines: ": "Mughlai, North Indian", "hours": "12noon\u201312midnight(Mon-Sun)", "Cost for two": "\u20b9250"}, {"Name": "Smokeville Lounge &Terrace", "Rating": "3.8", "votes": "66", "location": " 4-5, Near Central Bank Of India, Moti Bagh, New Delhi", "Cuisines: ": "Chinese, North Indian, Beverages", "hours": "11am\u201311pm(Mon-Sun)", "Cost for two": "\u20b91,400"}, {"Name": "Hello Point Restro & Cafe", "Rating": "3.4", "votes": "30", "location": " Shop 21, DDA Shopping Center, Karampura, New Delhi", "Cuisines: ": "North Indian, Chinese", "hours": "11am\u201311pm(Mon-Sun)", "Cost for two": "\u20b9550"}, {"Name": "Tacoolcha", "Rating": "4.0", "votes": "337", "location": " Delivery Only", "Cuisines: ": "North Indian, Fast Food", "hours": "12midnight\u20135am,12noon\u201312midnight(Mon,Wed...", "Cost for two": "\u20b9350"}, {"Name": "Bikaner Rasoi", "Rating": "3.7", "votes": "806", "location": " H-85-A, Dilshad Garden, New Delhi", "Cuisines: ": "North Indian, South Indian, Chinese", "hours": "10am\u20135pm,7pm\u201311pm(Mon-Sun)", "Cost for two": "\u20b9400"}, {"Name": "The Diet Kitchen", "Rating": "3.9", "votes": "495", "location": " 12/20, Shop 1, Opposite Hari Gokal, East Patel Nagar, New Delhi", "Cuisines: ": "Continental, Healthy Food, Salad", "hours": "11:30am\u201310pm(Mon-Sun)", "Cost for two": "\u20b9700"}, {"Name": "Grover Sweets", "Rating": "3.9", "votes": "179", "location": " KG-1/19, Vikaspuri, New Delhi", "Cuisines: ": "Mithai, Street Food", "hours": "8am\u201310pm(Mon-Sun)", "Cost for two": "\u20b9100"}]