[{"Name": "Ram Parshad Makhan Lal", "Rating": "3.6", "votes": "55", "location": " 453, Khari Baoli, Chandni Chowk, New Delhi", "Cuisines: ": "Mithai, Street Food", "hours": "8am\u20138pm(Mon-Sun)", "Cost for two": "\u20b9100"}, {"Name": "Hyderabadi Biriyani", "Rating": "3.7", "votes": "218", "location": " Shop 7, Opposite Rapid Flour Mill, Old Rajinder Nagar Market, Rajinder Nagar, New Delhi", "Cuisines: ": "Biryani, North Indian", "hours": "11am\u20134pm,6:30pm\u201311pm(Mon-Sun)", "Cost for two": "\u20b9400"}, {"Name": "Om Saravana Bhavan", "Rating": "3.6", "votes": "112", "location": " 15-A/17, WEA, Saraswati Marg, Karol Bagh, New Delhi", "Cuisines: ": "South Indian", "hours": "7am\u201311pm(Mon-Sun)", "Cost for two": "\u20b9400"}, {"Name": "Gulnar Bar Be Que", "Rating": "3.5", "votes": "113", "location": " 7-A/45, WEA, Karol Bagh, New Delhi", "Cuisines: ": "North Indian, Mughlai", "hours": "11:30am\u20133pm,6pm\u201311pm(Mon-Sun)", "Cost for two": "\u20b9700"}, {"Name": "Ricks Bar - The Taj Mahal Hotel", "Rating": "3.8", "votes": "94", "location": " The Taj Mahal Hotel, 1, Mansingh Road, New Delhi", "Cuisines: ": "Malaysian, Thai", "hours": "4pm\u201312:45am(Mon-Sun)", "Cost for two": "\u20b94,200"}, {"Name": "Thugs - Hotel Broadway", "Rating": "3.6", "votes": "78", "location": " Hotel Broadway, 4/15/A, Daryaganj, New Delhi", "Cuisines: ": "Finger Food", "hours": "12noon\u201311:30pm(Mon-Sun)", "Cost for two": "\u20b91,500"}, {"Name": "New Om Snacks", "Rating": "3.6", "votes": "61", "location": " 3514, Pyare Lal Road, Karol Bagh, New Delhi", "Cuisines: ": "North Indian, Mithai", "hours": "8am\u20135pm(Mon-Sun)", "Cost for two": "\u20b9150"}, {"Name": "Laziz Kabab (Subhash Restaurant)", "Rating": "3.9", "votes": "125", "location": " 19, Prithvi Raj Market, Khan Market, New Delhi", "Cuisines: ": "Mughlai", "hours": "12noon\u201311pm(Mon-Sun)", "Cost for two": "\u20b9400"}, {"Name": "Punjabi Chicken", "Rating": "3.4", "votes": "27", "location": " 2/64, Shankar Road, Rajinder Nagar, New Delhi", "Cuisines: ": "North Indian", "hours": "6pm\u201311pm(Mon,Wed,Thu,Fri,Sat,Sun),Closed...", "Cost for two": "\u20b9500"}, {"Name": "27 China Street", "Rating": "-", "votes": "27", "location": " Shop 27/A, Block 58, Shankar Road, Opposite Syndicate Bank, Rajinder Nagar, New Delhi", "Cuisines: ": "Chinese, Momos", "hours": "1pm\u201310pm(Mon-Sun)", "Cost for two": "\u20b9350"}, {"Name": "M.P. Canteen", "Rating": "3.2", "votes": "19", "location": " South Avenue, President's Estate, Near India Gate, New Delhi", "Cuisines: ": "South Indian, North Indian, Chinese", "hours": "8am\u201310:30pm(Mon-Sun)", "Cost for two": "\u20b9450"}, {"Name": "Shiv Misthan Bhandar", "Rating": "3.9", "votes": "175", "location": " 375, Kucha Ghasi Ram, Chandni Chowk, New Delhi", "Cuisines: ": "Mithai", "hours": "8:30am\u20139pm(Mon-Sun)", "Cost for two": "\u20b9150"}, {"Name": "Ravi Raj Di Kulfi", "Rating": "3.8", "votes": "169", "location": " Arya Samaj Road, Opposite Gaffar Market, Karol Bagh, New Delhi", "Cuisines: ": "Desserts", "hours": "8am\u201312:30am(Mon-Sun)", "Cost for two": "\u20b9150"}, {"Name": "New Janta Restaurant", "Rating": "3.3", "votes": "32", "location": " 2294, Chowk Gurudwara Road, Karol Bagh, New Delhi", "Cuisines: ": "North Indian", "hours": "11am\u20133pm,6pm\u201311pm(Mon-Sun)", "Cost for two": "\u20b9500"}, {"Name": "Ram Kachori", "Rating": "3.6", "votes": "52", "location": " 1853-54, Hanuman Mandir, Jamna Bazar, Kashmiri Gate, New Delhi", "Cuisines: ": "Street Food", "hours": "7am\u201312midnight(Mon-Sun)", "Cost for two": "\u20b9100"}]