[{"Name": "Bon App\u00e9tit", "Rating": "4.1", "votes": "513", "location": " 14, Ground Floor, Satyam Cineplex, District Centre, Janakpuri, New Delhi", "Cuisines: ": "Rolls", "hours": "11am\u201311pm(Mon-Sun)", "Cost for two": "\u20b9350"}, {"Name": "Cafe StayWoke", "Rating": "4.2", "votes": "349", "location": " Shop 104, 1st Floor, South Point Mall, Golf Course Road, Gurgaon", "Cuisines: ": "Cafe, Continental, Italian, Asian", "hours": "9am\u201310:30pm(Mon-Sun)", "Cost for two": "\u20b91,100"}, {"Name": "Game of Legends - Sports Bar, Grill, & Lounge", "Rating": "3.7", "votes": "696", "location": " Level 3, City Square Mall, Rajouri Garden, New Delhi", "Cuisines: ": "North Indian, Chinese, Continental, Italian", "hours": "11am\u201312midnight(Mon-Sun)", "Cost for two": "\u20b91,800"}, {"Name": "MomosBox", "Rating": "3.9", "votes": "101", "location": " Sector 51, Noida", "Cuisines: ": "Momos", "hours": "11am\u201310pm(Mon-Sun)", "Cost for two": "\u20b9300"}, {"Name": "New Tandoori Night", "Rating": "3.9", "votes": "72", "location": " Road 6, Near TNT, Mahipalpur, New Delhi", "Cuisines: ": "Fast Food, Chinese, North Indian", "hours": "24Hours(Mon-Sun)", "Cost for two": "\u20b9500"}, {"Name": "A One Chicken Biryani", "Rating": "3.9", "votes": "225", "location": " Shop 4, A1/23, Chanky Place, Lane 4, 30 Feet Road, Near asha bhavan Janakpuri, New Delhi", "Cuisines: ": "Biryani, North Indian", "hours": "9am\u20131am(Mon-Sun)", "Cost for two": "\u20b9250"}, {"Name": "Italian Pizza", "Rating": "3.2", "votes": "6", "location": " Palla 1, Sehatpur Road,Dhanraj Sharma Market, Sector 37, Faridabad", "Cuisines: ": "Pizza, Fast Food, Beverages", "hours": "11am\u201310:30pm(Mon,Wed,Thu,Fri,Sat,Sun)...", "Cost for two": "\u20b9400"}, {"Name": "Namaste China", "Rating": "3.3", "votes": "10", "location": " Opposite Rapid Metro Pillar 174, Golf Course Road, Gurgaon", "Cuisines: ": "Chinese, Beverages", "hours": "11am\u20132am(Mon-Sun)", "Cost for two": "\u20b9500"}, {"Name": "Yonaka", "Rating": "3.8", "votes": "22", "location": " 252/1B, Shahpur Jat, New Delhi", "Cuisines: ": "Japanese, Sushi, Asian, Chinese", "hours": "7pm\u20135am(Mon-Sun)", "Cost for two": "\u20b91,000"}, {"Name": "Hot Joint", "Rating": "3.5", "votes": "48", "location": " Near Gate 1, Opposite Pocket 4, Mayur Vihar Phase 1, New Delhi", "Cuisines: ": "Chinese, Fast Food", "hours": "10:30am\u201310:30pm(Mon-Sun)", "Cost for two": "\u20b9300"}, {"Name": "Dhaba King", "Rating": "3.7", "votes": "257", "location": " Plot 5, Shop 3-4, 2nd Floor, Pankaj Arcade II, Pocket 4, Sector 11, Dwarka", "Cuisines: ": "North Indian, Chinese", "hours": "11am\u201311:30pm(Mon-Sun)", "Cost for two": "\u20b9700"}, {"Name": "The Mughal Gardenn", "Rating": "3.5", "votes": "13", "location": " Shop WZ- 159, Tihar Village, Rajouri Garden, New Delhi", "Cuisines: ": "North Indian, Fast Food", "hours": "6pm\u20134am(Mon-Sun)", "Cost for two": "\u20b9400"}, {"Name": "Aditya's Restaurant", "Rating": "3.7", "votes": "168", "location": " 250, Sector 2C, Vasundhara, Ghaziabad", "Cuisines: ": "North Indian, Chinese", "hours": "11am\u201312midnight(Mon-Sun)", "Cost for two": "\u20b9500"}, {"Name": "Oye! Yummy Paratha", "Rating": "3.8", "votes": "23", "location": " 5442, 3rd Floor, DLF Phase 4, Sushant Lok, Gurgaon", "Cuisines: ": "North Indian", "hours": "9am\u20134pm,7pm\u201312:30am(Mon-Sun)", "Cost for two": "\u20b9200"}, {"Name": "Maggi Point", "Rating": "3.3", "votes": "18", "location": " Near Vodafone Store, H Block Circle, Kalkaji, New Delhi", "Cuisines: ": "Street Food", "hours": "11am\u201310pm(Mon-Sun)", "Cost for two": "\u20b9150"}]