[{"Name": "English Tadka", "Rating": "3.6", "votes": "190", "location": " 19-21, 1st Floor, TDI Paragon Mall, Rajouri Garden, New Delhi", "Cuisines: ": "North Indian, European", "hours": "12noon\u201312midnight(Mon-Sun)", "Cost for two": "\u20b9800"}, {"Name": "Rainbow Bakers", "Rating": "3.2", "votes": "12", "location": " Shop 452/G, Nyay Khand 1, Indirapuram, Ghaziabad", "Cuisines: ": "Bakery", "hours": "8am\u20137pm(Mon-Sun)", "Cost for two": "\u20b9100"}, {"Name": "Madhuvan Chinese Fast Food", "Rating": "3.7", "votes": "20", "location": " Shop No. 173, Central Market 1, Near Vishal Mega Mart, NIT, Faridabad", "Cuisines: ": "Chinese", "hours": "11am\u201311pm(Mon-Sun)", "Cost for two": "\u20b9300"}, {"Name": "Cakes 24x7.Com", "Rating": "2.9", "votes": "5", "location": " 8, Ground Floor, Fazilpur Road, Near Eldeco Mension, Sector 48, Gurgaon", "Cuisines: ": "Bakery, Desserts", "hours": "24Hours(Mon-Sun)", "Cost for two": "\u20b9300"}, {"Name": "Dal Roti", "Rating": "3.7", "votes": "81", "location": " J 49, Old Double Storey, Lajpat Nagar 4, New Delhi", "Cuisines: ": "North Indian", "hours": "11am\u201311pm(Mon-Sun)", "Cost for two": "\u20b9300"}, {"Name": "Indian Ocean", "Rating": "3.7", "votes": "321", "location": " G-71 - 73, Vardhman Star City Mall, Sector 7, Dwarka, New Delhi", "Cuisines: ": "North Indian, Chinese", "hours": "11am\u201311:30pm(Mon-Sun)", "Cost for two": "\u20b9400"}, {"Name": "French Bakery", "Rating": "NEW", "votes": "321", "location": " Raipur, Gautam Buddha Nagar, Sector 126, Near Sector 127, Noida", "Cuisines: ": "Bakery, Desserts", "hours": "10am\u201311pm(Mon-Sun)", "Cost for two": "\u20b9200"}, {"Name": "Refuel Kitchen", "Rating": "3.9", "votes": "63", "location": " G 16/9, Backside, Block G 16, Malviya Nagar, New Delhi", "Cuisines: ": "Continental, Healthy Food", "hours": "11am\u201311pm(Mon-Sun)", "Cost for two": "\u20b9350"}, {"Name": "Sargam Sweets", "Rating": "3.5", "votes": "636", "location": " A1/11, Mohan Garden, Peepal Wala Road, Near Metro Pillar 753, Uttam Nagar, New Delhi", "Cuisines: ": "Mithai, Chinese, South Indian", "hours": "9am\u201311pm(Mon-Sun)", "Cost for two": "\u20b9400"}, {"Name": "Jammu Foods", "Rating": "3.6", "votes": "148", "location": " Shop 13 - 18, Ground Floor, Meridian View Plaza, Alpha 1, Greater Noida", "Cuisines: ": "North Indian, Chinese", "hours": "11am\u201311pm(Mon-Sun)", "Cost for two": "\u20b9750"}, {"Name": "Lajwab Bakery", "Rating": "3.5", "votes": "61", "location": " Mangal Bazaar Road, Uttam Nagar, New Delhi", "Cuisines: ": "Bakery", "hours": "9:30am\u201310:30pm(Mon-Sun)", "Cost for two": "\u20b9100"}, {"Name": "Pizzaino", "Rating": "3.2", "votes": "6", "location": " Shop C 23, Kiran Garden, Main Matiala Road, Near Metro Pillar 722, Uttam Nagar, New Delhi", "Cuisines: ": "Fast Food, Pizza", "hours": "11am\u201311pm(Mon-Sun)", "Cost for two": "\u20b9500"}, {"Name": "Night Mail", "Rating": "3.2", "votes": "13", "location": " Delivery Only", "Cuisines: ": "Fast Food, North Indian", "hours": "7am\u20135am(Mon-Sun)", "Cost for two": "\u20b9200"}, {"Name": "Khana Purti", "Rating": "3.1", "votes": "49", "location": " Plot-2, G-31, Ground Floor, Vardhman Crown Mall, Sector 19, Dwarka, New Delhi", "Cuisines: ": "North Indian, Chinese", "hours": "9am\u201311pm(Mon-Sun)", "Cost for two": "\u20b9400"}, {"Name": "Kakori Junction", "Rating": "NEW", "votes": "49", "location": " A 6, Hint House, RDC, Raj Nagar, Ghaziabad", "Cuisines: ": "Kebab, Fast Food", "hours": "11am\u201311pm(Mon-Sun)", "Cost for two": "\u20b9350"}]