[{"Name": "Korma Wala", "Rating": "NEW", "location": " Wz-112/1, Menakshi Garden, Metro Pillar 481-482, Near Subash Nagar Metro Station, New Delhi", "Cuisines: ": "North Indian", "hours": "11am\u201311pm(Mon-Sun)", "Cost for two": "\u20b9550"}, {"Name": "Hot Chicken And Waffles Co", "Rating": "NEW", "location": " Candor Info Space Central Park 2, Tikri, Sector 48, Sohna Road, Gurgaon", "Cuisines: ": "Desserts, Fast Food", "hours": "11am\u201311pm(Mon-Sun)", "Cost for two": "\u20b9200"}, {"Name": "7teen BBQ Bistro Bnq", "Rating": "3.8", "location": " F 102, Bali Nagar, Metro Pillar 361, Moti Nagar, New Delhi", "Cuisines: ": "North Indian, BBQ", "hours": "11:30am\u201311:30pm(Mon-Sun)", "Cost for two": "\u20b9800", "votes": "182"}, {"Name": "Dongne The Town", "Rating": "3.8", "location": " 77B, Humayunpur, Safdarjung Enclave, Safdarjung, New Delhi", "Cuisines: ": "Cafe, Korean", "hours": "11am\u201311pm(Mon-Sun)", "Cost for two": "\u20b9800", "votes": "74"}, {"Name": "Hari Om Rasoi", "Rating": "3.7", "location": " Main Madanpuri Road, Gali 5, Old Railway Road, Gurgaon", "Cuisines: ": "North Indian", "hours": "11am\u20134pm,7pm\u201311pm(Mon-Sun)", "Cost for two": "\u20b9450", "votes": "152"}, {"Name": "Breakfast Point", "Rating": "3.4", "location": " T-10/502, Paras Tierea, Sector 137, Near Sector 135, Noida", "Cuisines: ": "North Indian, Chinese, South Indian", "hours": "12midnight\u20134am,7am\u201311am,6:30pm\u2013...", "Cost for two": "\u20b9350", "votes": "16"}, {"Name": "Da Pizza Bakers", "Rating": "3.8", "location": " RR 11, Miyanwali Nagar, Opposite Metro Pillar 300, Paschim Vihar, New Delhi", "Cuisines: ": "Pizza, Wraps, Beverages, Fast Food", "hours": "11am\u20131am(Mon-Sun)", "Cost for two": "\u20b9750", "votes": "206"}, {"Name": "Fat Guy's Kitchen", "Rating": "4.2", "location": " S 54, 2nd Floor, B Block, Baani Square, Sector 50, Gurgaon", "Cuisines: ": "Italian, Fast Food", "hours": "12noon\u201312midnight(Mon-Sun)", "Cost for two": "\u20b9700", "votes": "139"}, {"Name": "Bittoo Samosay Wala", "Rating": "3.8", "location": " E 19/312, Sector 3, Rohini, New Delhi", "Cuisines: ": "Street Food, Chinese", "hours": "9am\u20139:30pm(Mon-Sun)", "Cost for two": "\u20b9200", "votes": "298"}, {"Name": "The Maggi Club", "Rating": "4.0", "location": " 109/A, New Colony, Sector 7, Gurgaon", "Cuisines: ": "Fast Food, Pizza, Beverages, Juices", "hours": "8:15am\u201312:15am(Mon-Sun)", "Cost for two": "\u20b9200", "votes": "89"}, {"Name": "Laajawab Chaap Express", "Rating": "3.7", "location": " Circular Road, New Colony, Old Railway Road, Gurgaon", "Cuisines: ": "North Indian", "hours": "6pm\u201310:30pm(Mon-Sun)", "Cost for two": "\u20b9300", "votes": "79"}, {"Name": "Shan-E-Punjab", "Rating": "2.7", "location": " GT 27, Sector 70, Near Sector 71, Noida", "Cuisines: ": "North Indian, Chinese, Mughlai", "hours": "6pm\u20134am(Mon-Sun)", "Cost for two": "\u20b9400", "votes": "62"}, {"Name": "Kathi Junction", "Rating": "3.5", "location": " Kiosk 09, Plot 10, Gardenia Gateway, Sector 75, Near Sector 72, Noida", "Cuisines: ": "Rolls, Fast Food, North Indian", "hours": "11am\u201311pm(Mon-Sun)", "Cost for two": "\u20b9400", "votes": "41"}, {"Name": "Kathi Nation", "Rating": "3.6", "location": " 1042, Banda Bahadur Marg, Mukherjee Nagar, New Delhi", "Cuisines: ": "Rolls, Biryani, North Indian", "hours": "12noon\u201311:30pm(Mon-Sun)", "Cost for two": "\u20b9400", "votes": "44"}, {"Name": "The Jalebi Shop", "Rating": "3.7", "location": " Plot 12, Golf Course Road, Opposite Metro Pillar Number 178, Sector 54, Gurgaon", "Cuisines: ": "Mithai, Street Food", "hours": "10am\u201311pm(Mon-Fri),8am\u201311pm(Sat-Sun)", "Cost for two": "\u20b9400", "votes": "271"}]