[{"Name": "BAKE HMM By Slice Of Italy", "Rating": "3.6", "votes": "44", "location": " Mayur Vihar Phase 2, New Delhi", "Cuisines: ": "Bakery, Desserts, Fast Food", "hours": "11am\u20134pm,6pm\u20131am(Mon,Wed,Thu,Fri,Sat...", "Cost for two": "\u20b9600"}, {"Name": "Indian Rasoi", "Rating": "NEW", "votes": "44", "location": " 40/A, Corner Market, Malviya Nagar, New Delhi", "Cuisines: ": "North Indian, Mughlai", "hours": "6pm\u20134am(Mon-Sun)", "Cost for two": "\u20b9500"}, {"Name": "Hot Yak Restaurant", "Rating": "3.6", "votes": "41", "location": " 2nd Floor, Gakhyil House, New Camp, Majnu ka Tila, New Delhi", "Cuisines: ": "Chinese, Tibetan", "hours": "11am\u201310pm(Mon-Sun)", "Cost for two": "\u20b9400"}, {"Name": "Chinese Zaika", "Rating": "3.4", "votes": "41", "location": " Gate 3, Rajouri Garden Metro Station, Near Metro Parking Wall, Rajouri Garden, New Delhi", "Cuisines: ": "Chinese, Fast Food", "hours": "11am\u201311pm(Mon-Sun)", "Cost for two": "\u20b9300"}, {"Name": "Punjabi Dhaba", "Rating": "3.5", "votes": "43", "location": " 487/64, National Market, Peeragarhi, Paschim Vihar, New Delhi", "Cuisines: ": "North Indian", "hours": "11am\u20134pm,7pm\u201311pm(Mon-Sun)", "Cost for two": "\u20b9200"}, {"Name": "Himalayan Dhaba", "Rating": "2.9", "votes": "10", "location": " Phase 4, Block B, Lala Raghubar Dayal Marg, New Silampur, Subhash Park, Shahdara, New Delhi", "Cuisines: ": "North Indian", "hours": "12noon\u20133pm,6:30pm\u201311pm(Mon-Sun)", "Cost for two": "\u20b9400"}, {"Name": "Chopaan Kebab", "Rating": "3.8", "votes": "135", "location": " I 48, Near Cental Market, Lajpat Nagar 2, New Delhi", "Cuisines: ": "Iranian, Kebab, Afghan", "hours": "11am\u201311pm(Mon-Sun)", "Cost for two": "\u20b9700"}, {"Name": "Prem Di Rasoi", "Rating": "-", "votes": "135", "location": " Nirmal Puri, Lajpat Nagar 4, New Delhi", "Cuisines: ": "North Indian", "hours": "12midnight\u20131:21am,12:21pm\u201312midnight...", "Cost for two": "\u20b9500"}, {"Name": "Nutriphy", "Rating": "4.1", "votes": "269", "location": " 450, 2nd Floor, Near Shani Dev Mandir, Sector 27, DLF Phase 4, Gurgaon", "Cuisines: ": "Healthy Food", "hours": "7am\u20132am(Mon-Sun)", "Cost for two": "\u20b9600"}, {"Name": "In-N-Out  Burger", "Rating": "3.7", "votes": "100", "location": " 91 C, Sarojani Park, Shastri Nagar, Geeta Colony, New Delhi", "Cuisines: ": "Burger, Sandwich, Fast Food, North Indian, Beverages, Pizza", "hours": "24Hours(Mon-Sun)", "Cost for two": "\u20b9250"}, {"Name": "Paratha Wala", "Rating": "3.6", "votes": "25", "location": " 13/28, U Block, DLF Phase 3, Gurgaon", "Cuisines: ": "North Indian", "hours": "24Hours(Mon-Sun)", "Cost for two": "\u20b9200"}, {"Name": "Cake On Wheels", "Rating": "2.8", "votes": "73", "location": " Delivery Only", "Cuisines: ": "Bakery", "hours": "9am\u20131am(Mon-Sun)", "Cost for two": "\u20b9200"}, {"Name": "The Tomato Restaurant", "Rating": "3.8", "votes": "152", "location": " 2nd Floor, Vijay Complex, Vakil Market, Chakkarpur, DLF Phase 4, Gurgaon", "Cuisines: ": "North Indian, Rajasthani, Sandwich", "hours": "11am\u201310:30pm(Mon-Sun)", "Cost for two": "\u20b9400"}, {"Name": "Cake4You", "Rating": "3.8", "votes": "32", "location": " 3026, Basement, Near Vihari Mandi, DLF Phase 4, Gurgaon", "Cuisines: ": "Bakery, Desserts", "hours": "9am\u20134am(Mon-Sun)", "Cost for two": "\u20b9500"}, {"Name": "Cake Point", "Rating": "-", "votes": "32", "location": " 234, 2nd Floor, South City 2, Gurgaon", "Cuisines: ": "Bakery, Desserts, Fast Food", "hours": "24Hours(Mon-Sun)", "Cost for two": "\u20b9500"}]