[{"Name": "World of Pizza", "Rating": "3.8", "votes": "258", "location": " LG 18, Orbit Plaza, Crossing Republik, Ghaziabad", "Cuisines: ": "Pizza", "hours": "11:30am\u201310:30pm(Mon-Sun)", "Cost for two": "\u20b9400"}, {"Name": "Bombay Bhel House", "Rating": "3.8", "votes": "94", "location": " D-12, Kamla Nagar, New Delhi", "Cuisines: ": "Gujarati, Street Food", "hours": "10am\u201310pm(Mon-Sun)", "Cost for two": "\u20b9200"}, {"Name": "Jojolapa Fast Food Kitchen", "Rating": "3.5", "votes": "21", "location": " B-115, Gali 10, Kiran Garden, Near Hanuman Mandir Marg, Uttam Nagar, New Delhi", "Cuisines: ": "Chinese", "hours": "12noon\u201310pm(Mon-Sun)", "Cost for two": "\u20b9400"}, {"Name": "Pizza Food Expert", "Rating": "3.3", "votes": "35", "location": " RZ 21, Gali 20, Vashisht Park, D Block, Janakpuri, New Delhi", "Cuisines: ": "Pizza, Italian, Fast Food", "hours": "9am\u201312:30am,1am\u20134am(Mon-Sun)", "Cost for two": "\u20b9500"}, {"Name": "Gurpreet Gourmet", "Rating": "3.1", "votes": "6", "location": " B-4, Ground Floor, New Gupta Colony, Model Town 1, New Delhi", "Cuisines: ": "North Indian", "hours": "9am\u201311pm(Mon-Sun)", "Cost for two": "\u20b9250"}, {"Name": "Royal Treat", "Rating": "NEW", "votes": "6", "location": " Shop 24, A1 DDA Market, Hari Enclave, Behind Swargarshram, Hari Nagar, Mayapuri Phase 2, New Delhi", "Cuisines: ": "North Indian, Momos, Rolls", "hours": "3pm\u201312midnight(Mon-Sun)", "Cost for two": "\u20b9600"}, {"Name": "Easy Eats Kitchen", "Rating": "3.3", "votes": "9", "location": " 1281, DDA Flats, Madangir, Dr. Ambedkar Nagar, Tughlakabad Institutional Area, New Delhi", "Cuisines: ": "Fast Food, North Indian", "hours": "11am\u201311pm(Mon-Sun)", "Cost for two": "\u20b9300"}, {"Name": "Pizza Workshop", "Rating": "NEW", "votes": "9", "location": " Shop 104, Ram Nagar Extnension, Chander Nagar, New Delhi", "Cuisines: ": "Pizza", "hours": "11am\u201311pm(Mon-Sun)", "Cost for two": "\u20b9450"}, {"Name": "Cafe Grub", "Rating": "3.6", "votes": "32", "location": " Counter 9, The Wave Mall, Sector 18, Noida", "Cuisines: ": "Fast Food, Chinese, Beverages", "hours": "12noon\u20139:30pm(Mon-Sun)", "Cost for two": "\u20b9350"}, {"Name": "Sai Guru Dhaba", "Rating": "3.7", "votes": "164", "location": " C-79, West Patel Nagar Market, West Patel Nagar, New Delhi", "Cuisines: ": "North Indian", "hours": "11:30am\u20134pm,7pm\u201311pm(Mon-Sun)", "Cost for two": "\u20b9400"}, {"Name": "Burger.In", "Rating": "3.9", "votes": "277", "location": " 84, Near Honda Showroom, Adchini, New Delhi", "Cuisines: ": "Fast Food", "hours": "10am\u20131am(Mon-Sun)", "Cost for two": "\u20b9400"}, {"Name": "Level Up", "Rating": "3.6", "votes": "52", "location": " S 201, Sapphire 83, Vatika India Next, Near Rao Genda Ram Chowk, Sector 83, Gurgaon", "Cuisines: ": "North Indian, Chinese, Italian, Fast Food, Beverages", "hours": "11am\u201311pm(Mon-Sun)", "Cost for two": "\u20b9800"}, {"Name": "Sweta Restaurant", "Rating": "2.8", "votes": "236", "location": " Barola Silarpur T Point, Link Road, Sector 101 Noida, Near Sector 110, Noida", "Cuisines: ": "North Indian", "hours": "11am\u20134pm,7pm\u201312midnight(Mon-Sun)", "Cost for two": "\u20b9400"}, {"Name": "Pizza Healthy Food", "Rating": "NEW", "votes": "236", "location": " 31/1, Govindpuri, Kalkaji, New Delhi", "Cuisines: ": "Healthy Food", "hours": "11am\u201311pm(Mon-Sun)", "Cost for two": "\u20b9300"}, {"Name": "Foodgram", "Rating": "NEW", "votes": "236", "location": " B 47, Panchsheel Vihar, Sheikh Sarai Village, Sheikh Sarai, New Delhi", "Cuisines: ": "Biryani, Rolls", "hours": "7am\u20134am(Mon-Sun)", "Cost for two": "\u20b9250"}]