[{"Name": "NG Foods", "Rating": "3.6", "votes": "60", "location": " Shop 198, Jatav Basti, Chilla, Saroda Khadar, Mayur Vihar Phase 1, New Delhi", "Cuisines: ": "North Indian, Chinese", "hours": "10am\u201310pm(Mon-Sun)", "Cost for two": "\u20b9300"}, {"Name": "Broomie's Bakery", "Rating": "4.1", "votes": "53", "location": " Shop 4, Choudhary Hetram Complex, Peeli Kothi, Sector 30-31 Dividing Road, Sector 31, Faridabad", "Cuisines: ": "Bakery, Desserts, Fast Food", "hours": "10am\u201310pm(Mon-Sun)", "Cost for two": "\u20b9400"}, {"Name": "Abongchiiz Oven", "Rating": "4.3", "votes": "71", "location": " L-71, Malviya Nagar, New Delhi", "Cuisines: ": "Italian", "hours": "11am\u201311pm(Mon-Sun)", "Cost for two": "\u20b9600"}, {"Name": "Al Umar Restaurant", "Rating": "4.4", "votes": "121", "location": " Shop 93 B, Assotech Business Cresteria, Sector 135, Noida", "Cuisines: ": "North Indian, Mughlai, Kebab", "hours": "6:30pm\u20136am(Mon-Sun)", "Cost for two": "\u20b9800"}, {"Name": "Afghan Darbar Restaurant", "Rating": "3.9", "votes": "443", "location": " E-96, Lajpat Nagar 2, New Delhi", "Cuisines: ": "Afghan, Kebab", "hours": "12noon\u201311pm(Mon-Sun)", "Cost for two": "\u20b9600"}, {"Name": "Momo Addiction", "Rating": "3.8", "votes": "693", "location": " 58, Lower Ground, Satyaniketan, New Delhi", "Cuisines: ": "Chinese, Momos, Fast Food, Beverages", "hours": "11am\u201311:30pm(Mon-Sun)", "Cost for two": "\u20b9450"}, {"Name": "Khandani Pakodewala", "Rating": "3.9", "votes": "432", "location": " Ring Road Market, Nauroji Nagar, Near Sarojini Nagar, New Delhi", "Cuisines: ": "Street Food, Chinese", "hours": "10am\u20139pm(Mon-Sun)", "Cost for two": "\u20b9300"}, {"Name": "The Incredibowl", "Rating": "3.6", "votes": "70", "location": " Khasra 382/204, 1st Floor, Saidulajab, Saket, New Delhi", "Cuisines: ": "North Indian, Chinese, Healthy Food", "hours": "10am\u201311pm(Mon-Sun)", "Cost for two": "\u20b9400"}, {"Name": "The Cake Man", "Rating": "4.1", "votes": "171", "location": " Office 303, 3rd Floor, Opposite J-26, Chhijarsi, Sector 63, Noida", "Cuisines: ": "Bakery", "hours": "9am\u20132am(Mon-Sun)", "Cost for two": "\u20b9400"}, {"Name": "Made In India - Radisson Blu", "Rating": "4.1", "votes": "583", "location": " Radisson Blu, L-2, Sector 18, Noida", "Cuisines: ": "North Indian, Lucknowi", "hours": "12:30pm\u20133pm,7pm\u201312midnight(Mon-Sun)", "Cost for two": "\u20b93,800"}, {"Name": "Dhansoo Cafe", "Rating": "3.7", "votes": "40", "location": " G-6- G-7, Sangam Courtyard, Major Somnath Marg, Sector 9, R K Puram, New Delhi", "Cuisines: ": "Modern Indian, Street Food, Beverages", "hours": "12noon\u201312midnight(Mon-Sun)", "Cost for two": "\u20b91,700"}, {"Name": "Yumto", "Rating": "4.0", "votes": "30", "location": " Shop 48/1, Village Chakkarpur, MG Road, Gurgaon", "Cuisines: ": "Ice Cream, Frozen Yogurt, Desserts", "hours": "12noon\u20135:45am(Mon-Sun)", "Cost for two": "\u20b9450"}, {"Name": "The Spice Room", "Rating": "4.0", "votes": "107", "location": " Shop 002, Upper Ground Floor, AVA Court, Malibu Town, Sector 47, Sohna Road, Gurgaon", "Cuisines: ": "North Indian, Chinese", "hours": "11:30am\u201311:30pm(Mon-Sun)", "Cost for two": "\u20b9400"}, {"Name": "Gogia Shudh Khoya And Paneer Bhandar", "Rating": "3.6", "votes": "26", "location": " 16/125, Geeta Colony, New Delhi", "Cuisines: ": "Mithai, Street Food", "hours": "8:30am\u201311:15pm(Mon-Sun)", "Cost for two": "\u20b9100"}, {"Name": "Tasty Noodle Twist", "Rating": "4.2", "votes": "39", "location": " Plot 9, Sector 12, Dwarka, New Delhi", "Cuisines: ": "Chinese, Asian", "hours": "11:30am\u201311pm(Mon-Sun)", "Cost for two": "\u20b9700"}]