[{"Name": "Litti.In", "Rating": "3.9", "votes": "525", "location": " 11 A, Ground Floor, Begumpur Park, Malviya Nagar, New Delhi", "Cuisines: ": "Bihari", "hours": "8am\u20132am(Mon-Sun)", "Cost for two": "\u20b9300"}, {"Name": "HR-26 Zaika", "Rating": "3.1", "votes": "291", "location": " Fazilpur More, CD Tower, CD Chowk, Sector 48, Sohna Road, Gurgaon", "Cuisines: ": "North Indian, Mughlai, Chinese", "hours": "11:30am\u20132am(Mon-Sun)", "Cost for two": "\u20b9500"}, {"Name": "Aggarwal Sweets Center", "Rating": "3.4", "votes": "52", "location": " 23-A/1, Main Road, Opposite Central Bank of India, Indra Park, Palam, New Delhi", "Cuisines: ": "Mithai, North Indian, Chinese, South Indian", "hours": "8:30am\u201311pm(Mon-Sun)", "Cost for two": "\u20b9300"}, {"Name": "Chopstick", "Rating": "3.5", "votes": "96", "location": " Booth 15, Sector 11, Faridabad", "Cuisines: ": "Chinese", "hours": "11am\u201311pm(Mon-Sun)", "Cost for two": "\u20b9300"}, {"Name": "Grrowl - Rolls & More", "Rating": "-", "votes": "96", "location": " A\u2010230, Patparganj Main Road, Mayur Vihar Phase 1, New Delhi", "Cuisines: ": "Rolls, Fast Food, Beverages", "hours": "12noon\u201311:45pm(Mon-Sun)", "Cost for two": "\u20b9300"}, {"Name": "Hindustani Dhaba Family Restaurant", "Rating": "3.6", "votes": "64", "location": " H 849, Block H, Shakurpur Colony, Abdullah Marg, Netaji Subhash Place, New Delhi", "Cuisines: ": "North Indian", "hours": "12noon\u20133pm,6pm\u201312midnight(Mon,Tue,Wed...", "Cost for two": "\u20b9300"}, {"Name": "Nutry Me", "Rating": "3.7", "votes": "94", "location": " Shop 102, Basement Market, DLF Phase 3, Gurgaon", "Cuisines: ": "Healthy Food, Sandwich", "hours": "9:45am\u201311:45pm(Mon-Sun)", "Cost for two": "\u20b9300"}, {"Name": "Chandni Chowk To China", "Rating": "3.7", "votes": "102", "location": " Khasra 48/1, Shiva Market, Near Vakil Market, Chakkarpur, DLF Phase 4, Gurgaon", "Cuisines: ": "Chinese, Street Food", "hours": "7am\u20134am(Mon-Sun)", "Cost for two": "\u20b9500"}, {"Name": "Delhi Darbaar", "Rating": "3.6", "votes": "14", "location": " 1714, 2nd Floor, Emerald Enclave, Near Crosspoint Mall, DLF Phase 4, Gurgaon", "Cuisines: ": "North Indian, Biryani", "hours": "2pm\u201311pm(Mon-Sun)", "Cost for two": "\u20b9500"}, {"Name": "New Cafe King", "Rating": "3.7", "votes": "37", "location": " EWS-4, EWS Complex, U-16 Road, U Block, DLF Phase 3, Gurgaon", "Cuisines: ": "North Indian, South Indian", "hours": "12noon\u201312midnight(Mon-Sun)", "Cost for two": "\u20b9500"}, {"Name": "Chowrangee X-press", "Rating": "2.8", "votes": "188", "location": " U-1/50-51, DLF Phase 3, Gurgaon", "Cuisines: ": "Chinese, North Indian", "hours": "12noon\u201311:45pm(Mon-Sun)", "Cost for two": "\u20b9500"}, {"Name": "Creamy Fun", "Rating": "-", "votes": "188", "location": " A 134, Supermart 1, DLF Phase 4, Gurgaon", "Cuisines: ": "Desserts, Ice Cream", "hours": "11am\u20133am(Mon-Sun)", "Cost for two": "\u20b9350"}, {"Name": "Chaatoreez", "Rating": "-", "votes": "188", "location": " Delivery Only", "Cuisines: ": "Street Food", "hours": "11am\u201311pm(Mon-Sun)", "Cost for two": "\u20b9250"}, {"Name": "Queens Caf\u00e9", "Rating": "3.7", "votes": "134", "location": " R3/B, 3rd Floor, MGF Metropolitan Mall, MG Road, Gurgaon", "Cuisines: ": "Cafe, North Indian", "hours": "11am\u201311pm(Mon-Sun)", "Cost for two": "\u20b9900"}, {"Name": "Nawabjaans", "Rating": "4.3", "votes": "206", "location": " Shop 93, ABC Tower 1, Sector 135, Noida", "Cuisines: ": "North Indian, Chinese, Biryani, Mughlai, Kebab", "hours": "12noon\u20136am(Mon-Sun)", "Cost for two": "\u20b9700"}]