[{"Name": "The Cake Shop", "Rating": "3.7", "votes": "71", "location": " 21-22, NWA Market, Club Road, West Punjabi Bagh, Punjabi Bagh, New Delhi", "Cuisines: ": "Bakery, Fast Food, Chinese", "hours": "10am\u201310pm(Mon-Sun)", "Cost for two": "\u20b9300"}, {"Name": "Thapa Chinese Hot Food", "Rating": "3.6", "votes": "58", "location": " Ground Floor, Parmesh Tower, Karkardooma Community Center, Karkardooma, New Delhi", "Cuisines: ": "Chinese, Momos", "hours": "4pm\u201310pm(Mon-Sun)", "Cost for two": "\u20b9150"}, {"Name": "The Eatery - Four Points by Sheraton", "Rating": "3.5", "votes": "78", "location": " Four Points by Sheraton, Plot 9, Samalka, Kapashera, New Delhi", "Cuisines: ": "Continental, North Indian, South Indian", "hours": "24Hours(Mon-Sun)", "Cost for two": "\u20b92,500"}, {"Name": "Shanu's Chicken Planet", "Rating": "3.6", "votes": "90", "location": " 1, Block C8, DDA Market, Keshav Puram, Lawrence Road, New Delhi", "Cuisines: ": "North Indian, Chinese, Fast Food", "hours": "11am\u201311:30pm(Mon,Wed,Thu,Fri,Sat,Sun)...", "Cost for two": "\u20b9600"}, {"Name": "Ram Ji Snacks & Food Corner", "Rating": "3.1", "votes": "33", "location": " 8/1, Subhash Nagar, New Delhi", "Cuisines: ": "Street Food", "hours": "9am\u201310pm(Mon-Sun)", "Cost for two": "\u20b9150"}, {"Name": "Bikaner Sweets", "Rating": "3.5", "votes": "74", "location": " Shop 3, Plot 4, Manish Chamber 1, LSC Market, Sector 12, Dwarka, New Delhi", "Cuisines: ": "Mithai, Chinese, Street Food", "hours": "9am\u201310pm(Mon-Sun)", "Cost for two": "\u20b9300"}, {"Name": "Shree Jee Dhaba", "Rating": "3.9", "votes": "87", "location": " Main GT Road, Murthal, New Delhi", "Cuisines: ": "North Indian, Chinese", "hours": "24Hours(Mon-Sun)", "Cost for two": "\u20b9800"}, {"Name": "Desi Zaika", "Rating": "-", "votes": "87", "location": " L 17, West Patel Nagar, New Delhi", "Cuisines: ": "North Indian, South Indian, Chinese", "hours": "11am\u201311pm(Mon-Sun)", "Cost for two": "\u20b9400"}, {"Name": "Thapa Chinese", "Rating": "3.2", "votes": "9", "location": " Near Mangal Bazaar Road, Uttam Nagar, New Delhi", "Cuisines: ": "Chinese", "hours": "11:30am\u201311pm(Mon-Sun)", "Cost for two": "\u20b9150"}, {"Name": "Mom's Kitchen", "Rating": "3.2", "votes": "9", "location": " WZ-76, 1st Floor, Naraina, New Delhi", "Cuisines: ": "North Indian", "hours": "9am\u20139pm(Mon-Sun)", "Cost for two": "\u20b9200"}, {"Name": "Dharam Garam Family Restaurant", "Rating": "-", "votes": "9", "location": " Plot G1, Lajpat Nagar, Sahibabad", "Cuisines: ": "North Indian, Fast Food, Chinese, Beverages", "hours": "11am\u201311pm(Mon-Sun)", "Cost for two": "\u20b9500"}, {"Name": "Mirchi Tadka", "Rating": "3.1", "votes": "15", "location": " B-332, Main Road, Harinagar, Subhash Nagar, New Delhi", "Cuisines: ": "North Indian, Mughlai, Chinese", "hours": "11am\u201311pm(Mon-Sun)", "Cost for two": "\u20b9600"}, {"Name": "Sachin Kitchen", "Rating": "3.2", "votes": "4", "location": " Shop 484, Neb Sarai, Near Teel Mill Choraha, Saket, New Delhi", "Cuisines: ": "Chinese, North Indian", "hours": "10am\u201311pm(Mon-Sun)", "Cost for two": "\u20b9200"}, {"Name": "Singh's Veg Grill", "Rating": "NEW", "votes": "4", "location": " Shop 31, Rajguru Market, Ramesh Nagar, Gol Chakkar, Kirti Nagar, New Delhi", "Cuisines: ": "North Indian", "hours": "5pm\u201311:30pm(Mon-Sun)", "Cost for two": "\u20b9300"}, {"Name": "New Era Food Factory", "Rating": "3.1", "votes": "5", "location": " Shakti Nagar Main Road, Tikona Park, Sector 37, Gurgaon", "Cuisines: ": "North Indian, Chinese", "hours": "12noon\u201310pm(Mon-Sun)", "Cost for two": "\u20b9300"}]