[{"Name": "Sugar Swap", "Rating": "3.3", "votes": "15", "location": " C 432, Sushant Lok 1, Sushant Lok, Gurgaon", "Cuisines: ": "Pizza, Burger, Healthy Food", "hours": "10:30am\u201311pm(Mon-Sun)", "Cost for two": "\u20b9500"}, {"Name": "Ob Pizza Burger Point", "Rating": "3.6", "votes": "103", "location": " B 9/54, Sector 5, Near Som Bazar Road, Rohini, New Delhi", "Cuisines: ": "Pizza, Fast Food", "hours": "12noon\u201310pm(Mon),11am\u201310pm(Tue-Sun)", "Cost for two": "\u20b9400"}, {"Name": "Uncle Jerry (Ludhiana Wale)", "Rating": "3.8", "votes": "90", "location": " C 782, Block C, Corner Shop, Guru Vrijanand Marg, Vikaspuri, New Delhi", "Cuisines: ": "North Indian, Mughlai", "hours": "12noon\u201312midnight(Mon-Sun)", "Cost for two": "\u20b9600"}, {"Name": "Grillz King", "Rating": "3.3", "votes": "9", "location": " Shop 3, R 39/40, R Block, Aruna Park, Near Pillar 47, Shakarpur, New Delhi", "Cuisines: ": "North Indian, Mughlai", "hours": "12noon\u201311pm(Mon-Sun)", "Cost for two": "\u20b9450"}, {"Name": "THR3E AM Friend", "Rating": "4.0", "votes": "82", "location": " Plot 482, V.P.O Wazirabad, Sector 52, South City 2, Gurgaon", "Cuisines: ": "Fast Food", "hours": "12midnight\u20139am,8pm\u201312midnight(Mon-Sun)", "Cost for two": "\u20b9400"}, {"Name": "The Salad Bar", "Rating": "3.7", "votes": "155", "location": " J-7/80A, Nehru Market, Rajouri Garden, New Delhi", "Cuisines: ": "Fast Food, Chinese", "hours": "11am\u201310pm(Mon-Sun)", "Cost for two": "\u20b9400"}, {"Name": "Lajawab Family Restaurant", "Rating": "2.8", "votes": "135", "location": " Shop 1, Village Chaura, Sector 22, Noida", "Cuisines: ": "North Indian, Chinese", "hours": "12noon\u20134am(Mon-Sun)", "Cost for two": "\u20b9450"}, {"Name": "Royal Tadka India", "Rating": "3.7", "votes": "40", "location": " Shop 1, Gardenia Glory Market, Sector 46, Near Sector 44, Noida", "Cuisines: ": "North Indian, Mughlai", "hours": "11am\u201311pm(Mon-Sun)", "Cost for two": "\u20b9650"}, {"Name": "Chawla's Chic Inn", "Rating": "2.8", "votes": "104", "location": " 2, Alaknanda Market, Sector 28, Noida", "Cuisines: ": "North Indian, Mughlai", "hours": "12noon\u20133pm,7pm\u201311pm(Mon-Sun)", "Cost for two": "\u20b9600"}, {"Name": "Bikaner's", "Rating": "2.4", "votes": "208", "location": " Shop 25, 26 & 27, Arcade A, Princely Estate, Secotor 76, Near Sector 72, Noida", "Cuisines: ": "Mithai, North Indian, Street Food, South Indian, Chinese", "hours": "9am\u201311pm(Mon-Sun)", "Cost for two": "\u20b9400"}, {"Name": "Rolls N More", "Rating": "3.5", "votes": "19", "location": " Delivery Only", "Cuisines: ": "Rolls, Fast Food", "hours": "7pm\u20133am(Mon-Sun)", "Cost for two": "\u20b9450"}, {"Name": "Kinbuck2 Kitchen", "Rating": "-", "votes": "19", "location": " A 61, DDA Complex, Near Moolchand Flyover, Defence Colony, New Delhi", "Cuisines: ": "Pizza, Fast Food", "hours": "12noon\u20133am(Mon-Sun)", "Cost for two": "\u20b9500"}, {"Name": "Food Farm", "Rating": "3.4", "votes": "28", "location": " Shop 439, Opposite Aggarpur, Sector 41, Noida", "Cuisines: ": "North Indian, Chinese", "hours": "10am\u20135am(Mon-Sat),10am\u201312midnight(Sun)", "Cost for two": "\u20b9500"}, {"Name": "Pizza King", "Rating": "3.0", "votes": "4", "location": " Cart 79, Food Cart Market, Sector-46, New Colony Sector, Near Sector 45, Gurgaon", "Cuisines: ": "Fast Food", "hours": "12noon\u201312midnight(Mon-Sun)", "Cost for two": "\u20b9400"}, {"Name": "Punjabi Chaat Corner", "Rating": "3.1", "votes": "4", "location": " C Block, Opposite Unique Collection, Main Road Yamuna Vihar, Shahdara, New Delhi", "Cuisines: ": "Fast Food, Chinese", "hours": "12noon\u201310:30pm(Mon-Sun)", "Cost for two": "\u20b9250"}]