[{"Name": "Garg Sweets & Family Restaurant", "Rating": "3.1", "votes": "67", "location": " A 92, Near Metro Pillar 745, Gurudwara Road, Mohan Garden, Uttam Nagar, New Delhi", "Cuisines: ": "North Indian, South Indian, Chinese, Mithai", "hours": "11am\u201311pm(Mon-Sun)", "Cost for two": "\u20b9500"}, {"Name": "Flavour's King", "Rating": "NEW", "votes": "67", "location": " Shop 421/1, Near Durga Ashram, Chhatarpur, New Delhi", "Cuisines: ": "North Indian", "hours": "11am\u201311pm(Mon-Sun)", "Cost for two": "\u20b9300"}, {"Name": "Pahariya Chicken Corner", "Rating": "3.6", "votes": "89", "location": " Shop 2, New Market, Ramesh Nagar, Kirti Nagar, New Delhi", "Cuisines: ": "Raw Meats, North Indian", "hours": "9am\u201310pm(Mon,Wed,Thu,Fri,Sat,Sun),Closed...", "Cost for two": "\u20b9300"}, {"Name": "Shawarma Nation", "Rating": "NEW", "votes": "89", "location": " Shop 23, Bhagat Enclave, Block Q23, Nand Ram Park Main Road, Uttam Nagar, Delhi", "Cuisines: ": "Lebanese, Chinese", "hours": "12noon\u201312midnight(Mon-Sun)", "Cost for two": "\u20b9200"}, {"Name": "Singh's Punjabi Grill", "Rating": "3.7", "votes": "64", "location": " 5C/99, Near Banke Bihari Mandir, NIT, Faridabad", "Cuisines: ": "North Indian", "hours": "9am\u201311pm(Mon-Sun)", "Cost for two": "\u20b9500"}, {"Name": "Al Noor Biryani Mehal", "Rating": "3.7", "votes": "51", "location": " Shop 11, Plot 3E, Casa Bood, Gaur City 2, Greater Noida", "Cuisines: ": "Biryani, Mughlai", "hours": "11am\u201312midnight(Mon-Sun)", "Cost for two": "\u20b9300"}, {"Name": "Musclefood", "Rating": "3.8", "votes": "51", "location": " Shop 7, A-4 Block, Shiv Market, Paschim Vihar, New Delhi", "Cuisines: ": "Healthy Food, Sandwich, Salad, Beverages", "hours": "9am\u201310:30pm(Mon-Sun)", "Cost for two": "\u20b9700"}, {"Name": "Yubraj Food Corner", "Rating": "3.2", "votes": "10", "location": " 278, Ambedkar Colony, Chakarpur, MG Road, Gurgaon", "Cuisines: ": "North Indian, Chinese", "hours": "11am\u201311:30pm(Mon-Sun)", "Cost for two": "\u20b9400"}, {"Name": "Health N Taste Kitchen", "Rating": "3.7", "votes": "77", "location": " Shop 2, U-52/40, DLF Phase 3, Gurgaon", "Cuisines: ": "North Indian, Chinese, Continental", "hours": "9am\u201311pm(Mon-Sun)", "Cost for two": "\u20b9300"}, {"Name": "Delhi Chaap Express", "Rating": "3.6", "votes": "81", "location": " U-13/1, DLF Phase 3, Gurgaon", "Cuisines: ": "North Indian", "hours": "6pm\u20135am(Mon-Sun)", "Cost for two": "\u20b9400"}, {"Name": "Best Food Bank", "Rating": "3.5", "votes": "19", "location": " N/R 29, S Block, DLF Phase 3, Gurgaon", "Cuisines: ": "North Indian, Chinese", "hours": "9am\u20134pm(Mon,Tue,Wed,Thu,Fri,Sun),9am\u2013...", "Cost for two": "\u20b9500"}, {"Name": "Miss Miyagi", "Rating": "3.8", "votes": "29", "location": " Ground Floor, Building 5, DLF Cyber City, Gurgaon", "Cuisines: ": "Chinese", "hours": "11am\u201310:30pm(Mon-Fri),11am\u20134pm(Sat),Closed...", "Cost for two": "\u20b9550"}, {"Name": "Tom Uncle's Paratha", "Rating": "2.9", "votes": "15", "location": " House 1, Plot 50, Lambardaar House, Chakkarpur, DLF Phase 4, Gurgaon", "Cuisines: ": "North Indian", "hours": "24Hours(Mon-Sun)", "Cost for two": "\u20b9600"}, {"Name": "Ansari Paratha Junction", "Rating": "3.4", "votes": "13", "location": " 292, Z2 Block, Welcome Raja Market, Shahdara, New Delhi", "Cuisines: ": "North Indian, Fast Food", "hours": "11am\u201311pm(Mon-Sun)", "Cost for two": "\u20b9150"}, {"Name": "Veg It", "Rating": "4.2", "votes": "157", "location": " 309, Plot 10, Pankaj Plaza, Sector 6, Dwarka, New Delhi", "Cuisines: ": "North Indian, Mughlai, Kebab", "hours": "12noon\u201312midnight(Mon-Sun)", "Cost for two": "\u20b9400"}]