[{"Name": "Momos King", "Rating": "3.8", "votes": "33", "location": " G G-1/72 A, Vikaspuri, New Delhi", "Cuisines: ": "Momos, Fast Food", "hours": "2pm\u201310:30pm(Mon-Sun)", "Cost for two": "\u20b9250"}, {"Name": "Kays Bar-Be-Que", "Rating": "3.8", "votes": "358", "location": " 29, Community Center, Ashok Vihar Phase 1, New Delhi", "Cuisines: ": "North Indian, Mughlai, BBQ", "hours": "6pm\u201311pm(Mon,Wed,Thu,Fri,Sat,Sun),Closed...", "Cost for two": "\u20b9800"}, {"Name": "Chaudhary Sweets Corner", "Rating": "4.0", "votes": "138", "location": " 10/18, Shakti Nagar, Near Roshanara Club, Kamla Nagar, New Delhi", "Cuisines: ": "Mithai, Ice Cream", "hours": "5:30am\u201311pm(Mon-Sun)", "Cost for two": "\u20b9150"}, {"Name": "Moms Bakery", "Rating": "3.1", "votes": "8", "location": " D 201, VVIP Addresses Rajnagar Extension, Raj Nagar, Ghaziabad", "Cuisines: ": "Bakery", "hours": "11:30am\u201311pm(Mon-Sun)", "Cost for two": "\u20b9400"}, {"Name": "Cakes & Bakes", "Rating": "3.5", "votes": "148", "location": " C-77, Shivalik Road, Malviya Nagar, New Delhi", "Cuisines: ": "Bakery", "hours": "10am\u201310pm(Mon-Sun)", "Cost for two": "\u20b9800"}, {"Name": "Stop My Starvation", "Rating": "4.0", "votes": "98", "location": " Shop 15, GC Grand Tower, Street Market, Vaibhav khand, Indirapuram, Ghaziabad", "Cuisines: ": "Desserts, Fast Food", "hours": "8am\u20134am(Mon-Sun)", "Cost for two": "\u20b9450"}, {"Name": "Taco Street", "Rating": "3.9", "votes": "100", "location": " 5M/21, Near Dayanand College, NIT, Faridabad", "Cuisines: ": "Burger, Pizza, Fast Food, Healthy Food, North Indian, Beverages", "hours": "11am\u201312midnight(Mon-Sun)", "Cost for two": "\u20b9300"}, {"Name": "Cafe Parmesan", "Rating": "4.2", "votes": "1397", "location": " 41,42, 1st Floor, HUDA Market, Sector 15, Faridabad", "Cuisines: ": "Italian", "hours": "11:30am\u201311:30pm(Mon-Sun)", "Cost for two": "\u20b91,000"}, {"Name": "Chaudhary Food Corner", "Rating": "3.5", "votes": "46", "location": " A-373, Double Story, Kalkaji, New Delhi", "Cuisines: ": "North Indian", "hours": "8am\u201311pm(Mon-Sun)", "Cost for two": "\u20b9150"}, {"Name": "Night Cravings", "Rating": "4.0", "votes": "38", "location": " 88 A, Amritpuri, Near Isckon Temple, East of Kailash, New Delhi", "Cuisines: ": "Italian, Continental", "hours": "11am\u20134am(Mon-Sun)", "Cost for two": "\u20b9700"}, {"Name": "Variety Food Junction", "Rating": "3.5", "votes": "517", "location": " LSC 1, Plot 26, Near Antariksh Apartments, Sector 4, Dwarka, New Delhi", "Cuisines: ": "Chinese", "hours": "11:30am\u201311pm(Mon-Sun)", "Cost for two": "\u20b9300"}, {"Name": "Royal Take Away", "Rating": "3.7", "votes": "282", "location": " Pocket 3 Market, Mayur Vihar Phase 1, New Delhi", "Cuisines: ": "North Indian, Chinese, Mughlai", "hours": "12:30pm\u20133:30pm,6:30pm\u201311pm(Mon-Sun)", "Cost for two": "\u20b9500"}, {"Name": "Big Bazaar- Soo Fresh", "Rating": "3.5", "votes": "36", "location": " Lower Ground Floor, DLF Mall Of India, Sector 18, Noida", "Cuisines: ": "Bakery, North Indian, Fast Food, Beverages, Desserts", "hours": "11am\u201310pm(Mon-Sun)", "Cost for two": "\u20b9400"}, {"Name": "Tilismi Burger", "Rating": "3.3", "votes": "11", "location": " Shop 30, Ground Floor, Flavour Town, Bestech Chambers, Sushant Lok, Gurgaon", "Cuisines: ": "Burger, Sandwich, Italian, Beverages", "hours": "8am\u201310:30pm(Mon-Sun)", "Cost for two": "\u20b9200"}, {"Name": "Sachdeva Chicken Corner", "Rating": "3.8", "votes": "95", "location": " Shop 1 & 2, C-102, Sona Trade Centre, RDC, Raj Nagar, Ghaziabad", "Cuisines: ": "North Indian", "hours": "5pm\u201310pm(Mon,Wed,Thu,Fri,Sat,Sun),Closed...", "Cost for two": "\u20b9400"}]