[{"Name": "Cafe Amaretto", "Rating": "4.1", "votes": "944", "location": " Shop 8, Lower Ground Floor, South Point Mall, Golf Course Road, Gurgaon", "Cuisines: ": "Cafe, Italian, Salad, Desserts", "hours": "10am\u201311pm(Mon-Sun)", "Cost for two": "\u20b91,700"}, {"Name": "French Bakery", "Rating": "NEW", "votes": "944", "location": " Shop 1, Main Market, Near Surbhi Hospital, Sector 35, Near Sector 34, Noida", "Cuisines: ": "Bakery, Desserts", "hours": "24Hours(Mon-Sun)", "Cost for two": "\u20b9200"}, {"Name": "Anupam Sweet House", "Rating": "3.4", "votes": "17", "location": " Plot 17, Sapna Chowk, Sector 37, Faridabad", "Cuisines: ": "Fast Food, Chinese, Street Food, South Indian, North Indian, Mithai", "hours": "10am\u201310pm(Mon-Sun)", "Cost for two": "\u20b9350"}, {"Name": "The Grilled Station", "Rating": "3.9", "votes": "134", "location": " Shop 1, 41A, Main Market, Mayur Vihar Phase 3, New Delhi", "Cuisines: ": "Fast Food", "hours": "12noon\u201310pm(Mon-Sun)", "Cost for two": "\u20b9300"}, {"Name": "The Dessart Gallery", "Rating": "3.8", "votes": "19", "location": " S-32, 1st & 2nd Floor, Main Market, Green Park, New Delhi", "Cuisines: ": "Desserts, Bakery, Fast Food, Beverages", "hours": "12noon\u20135pm,6pm\u201310:30pm(Mon-Sun)", "Cost for two": "\u20b9600"}, {"Name": "The Cake Express", "Rating": "3.8", "votes": "181", "location": " Delivery Only", "Cuisines: ": "Bakery, Desserts", "hours": "9am\u20131am(Mon-Sun)", "Cost for two": "\u20b9250"}, {"Name": "Peaceful Dining", "Rating": "NEW", "votes": "181", "location": " Sector 30, Near Signature Tower, South City 1, Gurgaon", "Cuisines: ": "Chinese", "hours": "11am\u201311pm(Mon-Sun)", "Cost for two": "\u20b9200"}, {"Name": "Hashtag Bakery", "Rating": "NEW", "votes": "181", "location": " C 8, Sector 8, Noida", "Cuisines: ": "Bakery", "hours": "6am\u20132am(Mon-Sun)", "Cost for two": "\u20b9300"}, {"Name": "Keventer's South Indian & Chinese Food", "Rating": "3.7", "votes": "325", "location": " Shop 5, Chetan Complex, Anand Vihar, New Delhi", "Cuisines: ": "Chinese, South Indian", "hours": "11am\u201310:30pm(Mon-Sun)", "Cost for two": "\u20b9250"}, {"Name": "Anupama Sweets & Family Restaurant", "Rating": "3.3", "votes": "406", "location": " SCF 3, Ashoka Enclave Part 1, Near Kanishka Tower, Sector 34, Faridabad", "Cuisines: ": "Mithai, North Indian, South Indian, Fast Food", "hours": "9am\u201310:30pm(Mon-Sun)", "Cost for two": "\u20b9500"}, {"Name": "SouthSYD", "Rating": "3.8", "votes": "63", "location": " 1-B, First Floor, Bhawani Kunj, Sector D, Vasant Kunj, New Delhi", "Cuisines: ": "North Indian, Chinese, Continental, Bar Food, Finger Food, Beverages", "hours": "7pm\u20135am(Mon-Sun)", "Cost for two": "\u20b91,100"}, {"Name": "Samosa's Delivery Express", "Rating": "3.9", "votes": "269", "location": " 18, DDA Flats, Mini Central Market, Kalkaji, New Delhi", "Cuisines: ": "Street Food", "hours": "8am\u201310pm(Mon-Sun)", "Cost for two": "\u20b9200"}, {"Name": "The Bowton House Cafe", "Rating": "3.9", "votes": "46", "location": " 11, Benito Juarez Marg, Moti Bagh II, Satya Niketan, New Delhi", "Cuisines: ": "Cafe, Continental, North Indian, Italian", "hours": "11am\u201312midnight(Mon-Sun)", "Cost for two": "\u20b9500"}, {"Name": "Curry In A Hurry", "Rating": "3.9", "votes": "40", "location": " D 33, 3rd Floor, Acharya Niketan, Mayur Vihar Phase 1, New Delhi", "Cuisines: ": "North Indian, Chinese, Mughlai", "hours": "11am\u20132am(Mon-Sun)", "Cost for two": "\u20b9500"}, {"Name": "Too Indian", "Rating": "4.0", "votes": "2209", "location": " A 39, Vishal Enclave, Rajouri Garden, New Delhi", "Cuisines: ": "North Indian, Continental", "hours": "12noon\u20131am(Mon-Sun)", "Cost for two": "\u20b91,400"}]