[{"Name": "The Hub", "Rating": "3.7", "votes": "64", "location": " Huda Market, Sector 9, Faridabad", "Cuisines: ": "Bakery, Fast Food, Desserts", "hours": "11am\u20139:45pm(Mon-Sun)", "Cost for two": "\u20b9400"}, {"Name": "South Indian Corner", "Rating": "3.8", "votes": "171", "location": " Shop H-74 A, Mangal Bazaar Road, Near Kiran Dairy, Dilshad Garden, New Delhi", "Cuisines: ": "South Indian, Chinese", "hours": "10am\u201310:30pm(Mon-Sun)", "Cost for two": "\u20b9200"}, {"Name": "Rolls.in", "Rating": "3.2", "votes": "11", "location": " Delivery Only", "Cuisines: ": "Rolls, Mughlai", "hours": "7am\u20135am(Mon-Sun)", "Cost for two": "\u20b9200"}, {"Name": "Sab Ki Rasoi Madras Cafe", "Rating": "3.7", "votes": "73", "location": " H-660, Sector 7, Dwarka, New Delhi", "Cuisines: ": "North Indian, Chinese", "hours": "11am\u201311pm(Mon-Sun)", "Cost for two": "\u20b9300"}, {"Name": "Mehak Punjab Di", "Rating": "3.4", "votes": "16", "location": " Shop 2, C-3/76, Janakpuri, New Delhi", "Cuisines: ": "North Indian", "hours": "1pm\u201311pm(Mon-Sun)", "Cost for two": "\u20b9550"}, {"Name": "Mr Singh's Tandoori Hut", "Rating": "3.9", "votes": "663", "location": " 5D/110, Opposite Bijli Ghar, NIT, Faridabad", "Cuisines: ": "North Indian, Chinese", "hours": "12noon\u201311pm(Mon-Sun)", "Cost for two": "\u20b9400"}, {"Name": "Pizza Break", "Rating": "3.7", "votes": "302", "location": " M 139, Guru Harikishan Nagar, Paschim Vihar, New Delhi", "Cuisines: ": "Pizza, Fast Food", "hours": "11am\u201310pm(Mon-Sun)", "Cost for two": "\u20b9800"}, {"Name": "Dawat The Live Kitchen", "Rating": "3.2", "votes": "137", "location": " SCO-77, Sector-10 A, Near Sector 37, Gurgaon", "Cuisines: ": "Mughlai, Chinese, North Indian", "hours": "11am\u201311pm(Mon-Sun)", "Cost for two": "\u20b9600"}, {"Name": "Cascades - The Grand New Delhi", "Rating": "3.9", "votes": "249", "location": " The Grand New Delhi, Nelson Mandela Road, Phase 2, Vasant Kunj, New Delhi", "Cuisines: ": "North Indian, Continental, Asian", "hours": "24Hours(Mon-Sun)", "Cost for two": "\u20b93,200"}, {"Name": "Niti Shakes & Ice Cream Hub", "Rating": "3.8", "votes": "197", "location": " G 75, Agarwal Cyber Plaza II, Netaji Subhash Place, New Delhi", "Cuisines: ": "Desserts, Beverages, Fast Food", "hours": "11:30am\u201311:30pm(Mon-Sun)", "Cost for two": "\u20b9400"}, {"Name": "D'ah", "Rating": "3.9", "votes": "52", "location": " Sector 63, Noida", "Cuisines: ": "Desserts", "hours": "11am\u20133am(Mon-Sun)", "Cost for two": "\u20b9200"}, {"Name": "Neung Roi - Radisson Blu Plaza Delhi Airport", "Rating": "4.2", "votes": "434", "location": " Radisson Blu Plaza Delhi Airport, National Highway 8, Near IGI Airport, Mahipalpur, New Delhi", "Cuisines: ": "Thai, Salad", "hours": "12:30pm\u20133pm,6:30pm\u201311:45pm(Mon-Sun)", "Cost for two": "\u20b93,000", "Featured in: ": "Luxury Dining"}, {"Name": "New Madras Cafe", "Rating": "3.8", "votes": "150", "location": " A 1, Mahagun Mansion, Indirapuram, Ghaziabad", "Cuisines: ": "South Indian", "hours": "10am\u201310:30pm(Mon-Sun)", "Cost for two": "\u20b9350", "Featured in: ": "Luxury Dining"}, {"Name": "Chawla Kitchen", "Rating": "3.6", "votes": "295", "location": " G-13, 14, Vardhaman Plaza, Bhera Enclave, Near Bank of India Bank, Paschim Vihar, New Delhi", "Cuisines: ": "North Indian, Mughlai, Chinese", "hours": "12noon\u20134pm,6pm\u20134am(Mon,Wed,Thu,Fri...", "Cost for two": "\u20b9500", "Featured in: ": "Luxury Dining"}, {"Name": "The Chef Restaurant", "Rating": "3.8", "votes": "167", "location": " 66B, Garawd, Humayunpur, Safdarjung, New Delhi", "Cuisines: ": "Chinese", "hours": "11:30am\u201311:30pm(Mon-Sun)", "Cost for two": "\u20b9500", "Featured in: ": "Luxury Dining"}]