[{"Name": "No.1 Uncles Parantha", "Rating": "3.2", "votes": "9", "location": " Lajpat Nagar 4, New Delhi", "Cuisines: ": "North Indian, Fast Food", "hours": "8am\u20134am(Mon-Sun)", "Cost for two": "\u20b9350"}, {"Name": "Weirdough", "Rating": "3.8", "votes": "65", "location": " 318/1, Tyagi Mohalla, Chhatarpur, New Delhi", "Cuisines: ": "Pizza, Italian", "hours": "7pm\u20133am(Mon-Sun)", "Cost for two": "\u20b9900"}, {"Name": "Welcome Baker's", "Rating": "3.6", "votes": "35", "location": " 964-B/7, Opposite Police Station, Mehrauli, New Delhi", "Cuisines: ": "Bakery, Fast Food", "hours": "8am\u201311pm(Mon-Sun)", "Cost for two": "\u20b9200"}, {"Name": "Tea Capital", "Rating": "-", "votes": "35", "location": " Fortis Flt. Lt. Rajan Dhall Hospital, Aruna Asaf Ali Marg, Pocket 1, Sector B, Vasant Kunj, New Delhi", "Cuisines: ": "Fast Food", "hours": "8:30am\u20138pm(Mon-Sun)", "Cost for two": "\u20b9150"}, {"Name": "New Darbar Restaurant House", "Rating": "-", "votes": "35", "location": " Plot 391, Gali 1, NH 8, Near Airport City, Mahipalpur, New Delhi", "Cuisines: ": "North Indian", "hours": "11am\u201311pm(Mon-Sun)", "Cost for two": "\u20b9500"}, {"Name": "The J.S. Burgers", "Rating": "3.4", "votes": "26", "location": " A-88, Main Road Market, Masudpur Village, Vasant Kunj, New Delhi", "Cuisines: ": "Burger, Fast Food", "hours": "12midnight\u20134am,7am\u201312midnight(Mon-Sun)", "Cost for two": "\u20b9400"}, {"Name": "Mucho Caf\u00e9", "Rating": "3.5", "votes": "44", "location": " 65A, Ground Floor, Kalusarai, Hauz Khas, New Delhi", "Cuisines: ": "Burger, Beverages", "hours": "11am\u20134am(Mon-Sun)", "Cost for two": "\u20b9300"}, {"Name": "Raja Omellete Wala", "Rating": "3.1", "votes": "7", "location": " Shop P 1, A 74, Vishnu Garden, Khyala Road, Near Shitla Mandir, Tilak Nagar, New Delhi", "Cuisines: ": "Street Food", "hours": "8am\u201311pm(Mon-Sun)", "Cost for two": "\u20b9200"}, {"Name": "Pankhuri Resto", "Rating": "3.6", "votes": "43", "location": " 14, Lower Ground Floor, Ajnara Arcade, Crossing Republik, Ghaziabad", "Cuisines: ": "North Indian", "hours": "11am\u201311pm(Mon-Sun)", "Cost for two": "\u20b9600"}, {"Name": "Chicken Changezi Corner", "Rating": "3.2", "votes": "57", "location": " 37, Corner Market, Near Karim Restaurant, Malviya Nagar, New Delhi", "Cuisines: ": "North Indian, Mughlai", "hours": "6pm\u201312midnight(Mon-Sun)", "Cost for two": "\u20b9500"}, {"Name": "Om Pizza by Fag N Flavour", "Rating": "NEW", "votes": "57", "location": " M 32, Block M Market, Greater Kailash 1 (GK 1), New Delhi", "Cuisines: ": "Pizza", "hours": "11am\u201311pm(Mon-Sun)", "Cost for two": "\u20b9350"}, {"Name": "Radha Vallabh Rasoi", "Rating": "3.5", "votes": "17", "location": " Shop 12, B5 Market, Yamuna Vihar, Shahdara, New Delhi", "Cuisines: ": "North Indian", "hours": "9am\u201311pm(Mon-Sun)", "Cost for two": "\u20b9250"}, {"Name": "Truffle Story", "Rating": "3.7", "votes": "65", "location": " E-778, Ground Floor, Chittaranjan, New Delhi", "Cuisines: ": "Bakery, Desserts, Fast Food", "hours": "11am\u201311pm(Mon-Sun)", "Cost for two": "\u20b9600"}, {"Name": "Aggarwal Sweets India", "Rating": "3.4", "votes": "48", "location": " 1666/1, Govindpuri Extension, Kalkaji, New Delhi", "Cuisines: ": "Mithai, Street Food, North Indian, Chinese, Bakery", "hours": "9:30am\u201311pm(Mon-Sun)", "Cost for two": "\u20b9300"}, {"Name": "ChickenWalla", "Rating": "2.9", "votes": "6", "location": " TA-210, Guru Ravi Das Marg, Tughalakabad Extension, Tughlakabad Institutional Area, New Delhi", "Cuisines: ": "North Indian, South Indian, Beverages, Desserts", "hours": "7am\u20132am(Mon-Sun)", "Cost for two": "\u20b9500"}]