[{"Name": "The Pizza Delights", "Rating": "3.3", "votes": "19", "location": " Shop 1, Plot F 94, S.L.F Ved Vihar, Shahdara, New Delhi", "Cuisines: ": "Italian", "hours": "11am\u201311pm(Mon-Sun)", "Cost for two": "\u20b9450"}, {"Name": "Panditan Di Hatti", "Rating": "3.7", "votes": "90", "location": " 118, Samman Bazar Road, Near Jain Mandir Bhogal, Jangpura, New Delhi", "Cuisines: ": "North Indian, South Indian, Chinese", "hours": "8am\u201310pm(Mon-Sun)", "Cost for two": "\u20b9550"}, {"Name": "Greedy Soul Kitchen & Bar", "Rating": "3.8", "votes": "282", "location": " 2527, 3rd Floor, Hudson Lane, Delhi University-GTB Nagar, New Delhi", "Cuisines: ": "Cafe, Modern Indian, North Indian", "hours": "11am\u201311pm(Mon-Sun)", "Cost for two": "\u20b9800"}, {"Name": "Pajju Dosa Chole", "Rating": "3.9", "votes": "64", "location": " 2A/108, Near Raju Jewellers, NIT Faridabad", "Cuisines: ": "Street Food", "hours": "11am\u20139pm(Mon-Sun)", "Cost for two": "\u20b9100"}, {"Name": "Lajawab Chef Cart", "Rating": "3.1", "votes": "186", "location": " Opposite Lal Jyoti Appartments, Near Sports Complex, Rohini, New Delhi", "Cuisines: ": "Chinese, Fast Food, Momos", "hours": "12:30pm\u201310:30am(Mon-Sun)", "Cost for two": "\u20b9300"}, {"Name": "Ravi Ande Wale", "Rating": "3.5", "votes": "28", "location": " Ambedkar Park, Jwala Nagar, Shahdara, New Delhi", "Cuisines: ": "Fast Food", "hours": "9am\u201311pm(Mon,Wed,Thu,Fri,Sat,Sun),Closed...", "Cost for two": "\u20b9250"}, {"Name": "Shree Ji Foods", "Rating": "3.5", "votes": "49", "location": " Shop SFK 1A, Galaxy Plaza, Gaur City 1, Greater Noida", "Cuisines: ": "Fast Food, North Indian, Chinese", "hours": "9am\u201311pm(Mon-Sun)", "Cost for two": "\u20b9300"}, {"Name": "Sri Balaji South Indian Food Corner", "Rating": "3.3", "votes": "22", "location": " A 1/1, Kalkaji Main Road, Kalkaji, New Delhi", "Cuisines: ": "South Indian", "hours": "4am\u20133am(Mon-Sun)", "Cost for two": "\u20b9200"}, {"Name": "Baoshuan - The Oberoi", "Rating": "3.7", "votes": "98", "location": " The Oberoi, Dr. Zakir Hussain Marg, New Delhi", "Cuisines: ": "Chinese", "hours": "12:30pm\u20133pm,7pm\u201311:30pm(Mon-Sun)", "Cost for two": "\u20b95,000"}, {"Name": "Mr Salt", "Rating": "4.1", "votes": "39", "location": " Shop G3, Plot 1/22, Atlantic LFC Society, Mayur Vihar Phase 1, New Delhi", "Cuisines: ": "Fast Food, North Indian, Beverages", "hours": "11am\u201311pm(Mon-Sun)", "Cost for two": "\u20b9450"}, {"Name": "Biryani Bowl", "Rating": "3.9", "votes": "107", "location": " Plot 22, Shop 97, Assotech Business Cresterra, Gautam Budh Nagar, Sector 135, Noida", "Cuisines: ": "Biryani, Beverages", "hours": "11am\u20132am(Mon-Sun)", "Cost for two": "\u20b9500"}, {"Name": "Punjab Sweets", "Rating": "3.7", "votes": "46", "location": " A 1/1, Sector 11, Rohini, New Delhi", "Cuisines: ": "Mithai, Street Food", "hours": "8am\u201311pm(Mon-Sun)", "Cost for two": "\u20b9200"}, {"Name": "Serve", "Rating": "3.9", "votes": "279", "location": " Shop 2, Godavari, Sector 37, Noida", "Cuisines: ": "American, Fast Food, Pizza, Burger", "hours": "11:30am\u201311pm(Mon-Sun)", "Cost for two": "\u20b9500"}, {"Name": "Alma Bakery & Cafe", "Rating": "3.7", "votes": "26", "location": " ATS One Hamlet, Commercial Tower, 2nd Floor, Sector 104, Near Sector 110, Noida", "Cuisines: ": "Bakery, Fast Food", "hours": "9am\u201310:30pm(Mon-Sun)", "Cost for two": "\u20b9250"}, {"Name": "BonJuz", "Rating": "3.6", "votes": "27", "location": " 3rd Floor, Food Court, Ambience Mall, Vasant Kunj, New Delhi", "Cuisines: ": "Healthy Food, Beverages", "hours": "11am\u201310:30pm(Mon-Sun)", "Cost for two": "\u20b9400"}]