[{"Name": "Mehfil", "Rating": "3.3", "votes": "69", "location": " A-188, Main Road, Timber Market, Sukhdev Market, Defence Colony, New Delhi", "Cuisines: ": "North Indian, Chinese", "hours": "12noon\u20134pm,7pm\u201311pm(Mon-Sun)", "Cost for two": "\u20b9600"}, {"Name": "Mezbaan Restaurant", "Rating": "3.7", "votes": "128", "location": " RZ/E/10, Mahavir Enclave, Main Palam Dabri Road, Opposite Oriental Bank, Palam, New Delhi", "Cuisines: ": "North Indian, Chinese", "hours": "12:30pm\u20133:45pm,6:30pm\u201310:45pm(Mon-Sun)", "Cost for two": "\u20b9500"}, {"Name": "Sixth Sensse", "Rating": "3.8", "votes": "110", "location": " Shop 60, Paras Trinity, Sector 63, Near Golf Course Road, Gurgaon", "Cuisines: ": "North Indian, Chinese, Thai, Fast Food", "hours": "11am\u201311pm(Mon-Sun)", "Cost for two": "\u20b91,600"}, {"Name": "Zaika Muradabadi", "Rating": "3.6", "votes": "78", "location": " Shop C-35, Amar Colony Market, Lajpat Nagar 4, New Delhi", "Cuisines: ": "Mughlai, Biryani", "hours": "11am\u201310pm(Mon-Sun)", "Cost for two": "\u20b9400"}, {"Name": "Taste Of Kerala", "Rating": "3.6", "votes": "26", "location": " Opposite BPTP Entrance Gate, Tigaon Road, Sector 82, Near Sector 81, Faridabad", "Cuisines: ": "South Indian, Chettinad, Chinese", "hours": "10am\u201310pm(Mon-Sun)", "Cost for two": "\u20b9300"}, {"Name": "Nani Ki Rasoi", "Rating": "3.3", "votes": "15", "location": " F-54, 55, Beta Plaza Mall, Beta 1, Greater Noida", "Cuisines: ": "North Indian", "hours": "11am\u201311pm(Mon-Sun)", "Cost for two": "\u20b9200"}, {"Name": "Delhi-6 Food Junction", "Rating": "3.9", "votes": "225", "location": " 12, SS Colony, Near Lal Quarter, Punjabi Bagh, New Delhi", "Cuisines: ": "North Indian", "hours": "12noon\u201311:30pm(Mon-Sun)", "Cost for two": "\u20b9400"}, {"Name": "Madras Cafe", "Rating": "3.7", "votes": "145", "location": " 15B/5, DDA Market, CSC 5, Rohini, New Delhi", "Cuisines: ": "South Indian", "hours": "9am\u201310:30pm(Mon-Sun)", "Cost for two": "\u20b9250"}, {"Name": "Punjabi Food", "Rating": "3.5", "votes": "30", "location": " LST -21 Aura Plaza, Raj Nagar, Ghaziabad", "Cuisines: ": "North Indian", "hours": "11:30am\u201312midnight(Mon-Sun)", "Cost for two": "\u20b9500"}, {"Name": "Pipeline Cafe", "Rating": "4.0", "votes": "692", "location": " Shop 37, 2nd Floor, Satyaniketan, New Delhi", "Cuisines: ": "Cafe, Italian, Chinese, Continental, Beverages", "hours": "11am\u201311pm(Mon-Sun)", "Cost for two": "\u20b9800"}, {"Name": "Shiva Coffee & South Indian Fast Food", "Rating": "3.7", "votes": "89", "location": " 1-D, Kamla Nagar, New Delhi", "Cuisines: ": "South Indian, Chinese", "hours": "9am\u201310:30pm(Mon-Sun)", "Cost for two": "\u20b9300"}, {"Name": "The Sandwich Castle", "Rating": "3.4", "votes": "13", "location": " F-740, Near Krishna Mandir, Ganesh Nagar, Shakarpur, New Delhi", "Cuisines: ": "Sandwich, Beverages", "hours": "11am\u20134am(Mon-Sun)", "Cost for two": "\u20b9300"}, {"Name": "Wicked Waffles", "Rating": "3.8", "votes": "262", "location": " G-85, Preet Vihar Main Road, Vikas Marg, New Delhi", "Cuisines: ": "Desserts, Fast Food", "hours": "9am\u201312midnight(Mon-Sun)", "Cost for two": "\u20b9300"}, {"Name": "Tara - Roseate House", "Rating": "3.7", "votes": "71", "location": " Roseate House, Asset 10, Hospitality District, Aerocity, New Delhi", "Cuisines: ": "Japanese", "hours": "6pm\u201311pm(Mon-Sun)", "Cost for two": "\u20b94,000"}, {"Name": "Rising Naan", "Rating": "3.9", "votes": "78", "location": " Shop 118, Ground Floor, Shahapur Jat, New Delhi", "Cuisines: ": "North Indian, Mughlai", "hours": "11am\u20131am(Mon-Sun)", "Cost for two": "\u20b9500"}]