[{"Name": "Angara Foods", "Rating": "-", "location": " Delivery Only", "Cuisines: ": "North Indian, Kashmiri", "hours": "7pm\u201311pm(Mon-Sun)", "Cost for two": "\u20b9550"}, {"Name": "Bistro 57", "Rating": "3.6", "location": " 17/7, Ground Floor, Rajinder Nagar, New Delhi", "Cuisines: ": "Fast Food", "hours": "11am\u201310:30pm(Mon-Sun)", "Cost for two": "\u20b9500", "votes": "42"}, {"Name": "Punikar's", "Rating": "3.5", "location": " Shop 20 A, Gurunanak Market, Near Metro Pillar 112, Karol Bagh, New Delhi", "Cuisines: ": "Street Food, Maharashtrian", "hours": "7am\u20139pm(Mon-Sun)", "Cost for two": "\u20b9100", "votes": "18"}, {"Name": "Pandit Ved Prakash Lemon Wale", "Rating": "3.8", "location": " Opposite Town Hall, Chandni Chowk, New Delhi", "Cuisines: ": "Beverages", "hours": "11am\u201311pm(Mon-Sun)", "Cost for two": "\u20b950", "votes": "63"}, {"Name": "Khana Khazana", "Rating": "3.6", "location": " 7a/7, W.E.A Chenna Market, Karol Bagh, New Delhi", "Cuisines: ": "North Indian, Chinese", "hours": "11am\u201311pm(Mon-Sun)", "Cost for two": "\u20b9500", "votes": "77"}, {"Name": "Sri Annapurana Restaurant", "Rating": "3.7", "location": " 19, Rajinder Nagar, New Delhi", "Cuisines: ": "South Indian, North Indian", "hours": "8am\u201311pm(Mon-Sun)", "Cost for two": "\u20b9450", "votes": "518"}, {"Name": "Ganpati Bhoj", "Rating": "3.2", "location": " 3270, Bahadurgarh Road, Azad Market, Karol Bagh, New Delhi", "Cuisines: ": "North Indian", "hours": "12noon\u20134pm,7pm\u201312midnight(Mon-Sun)", "Cost for two": "\u20b9250", "votes": "7"}, {"Name": "Beer Food Feast Bar And Lounge", "Rating": "NEW", "location": " 26, Pusa Road Central, Karol Bagh, New Delhi", "Cuisines: ": "North Indian, Continental, Finger Food, Chinese", "hours": "10am\u20131am(Mon-Sun)", "Cost for two": "\u20b92,000", "votes": "7"}, {"Name": "Moti Mahal Delux Tandoori Trail", "Rating": "3.6", "location": " Delhi 6 Food Mall, Tis Hazari Metro Station, Civil Lines, New Delhi", "Cuisines: ": "North Indian, Mughlai", "hours": "10:30am\u201311pm(Mon-Sun)", "Cost for two": "\u20b9800", "votes": "75"}, {"Name": "Lalu Kababee", "Rating": "3.8", "location": " Opposite Gate 1, Jama Masjid, New Delhi", "Cuisines: ": "North Indian, Biryani", "hours": "7pm\u201312midnight(Mon-Sun)", "Cost for two": "\u20b9250", "votes": "79"}, {"Name": "Adarsh Bhojnalaya", "Rating": "3.6", "location": " Plot 482, Ground Floor, Haveli Haider Quli, Near Andhra Bank, Chandni Chowk, New Delhi", "Cuisines: ": "North Indian", "hours": "10:30am\u201311pm(Mon-Sun)", "Cost for two": "\u20b9300", "votes": "69"}, {"Name": "Thali Express", "Rating": "-", "location": " 1/120, 1st Floor, Rajinder Nagar, New Delhi", "Cuisines: ": "North Indian", "hours": "11am\u20132am(Mon-Sun)", "Cost for two": "\u20b9500", "votes": "69"}, {"Name": "Lal Dhaba", "Rating": "3.4", "location": " Plot B3, Kotla Road, ITO, New Delhi", "Cuisines: ": "North Indian", "hours": "11am\u201311pm(Mon-Sun)", "Cost for two": "\u20b9500", "votes": "28"}, {"Name": "Farru Chicken Corner", "Rating": "-", "location": " 9/8, Bara Bazar Road, Old Rajindra Nagar, Rajinder Nagar, New Delhi", "Cuisines: ": "North Indian", "hours": "11am\u201311pm(Mon-Sun)", "Cost for two": "\u20b9400", "votes": "28"}, {"Name": "Red Bar Restaurant", "Rating": "-", "location": " 5211, Shradha Anand Marg, Near Ajmeri Gate, Chandni Chowk, New Delhi", "Cuisines: ": "Chinese, North Indian", "hours": "11am\u201311:30pm(Mon-Sun)", "Cost for two": "\u20b9900", "votes": "28"}]