[{"Name": "Cafe Bollywoodz Masala", "Rating": "3.4", "votes": "24", "location": " Shop 5, H Block, Near Shastri Nagar Police Station, Shastri Nagar, Ghaziabad", "Cuisines: ": "Fast Food", "hours": "11am\u201310pm(Mon-Sun)", "Cost for two": "\u20b9150"}, {"Name": "Flavours of Chakhna", "Rating": "4.1", "votes": "556", "location": " SE- 45, Jaipuria Sunrise Plaza, Opposite Niti Khand Gate 3, Indirapuram, Ghaziabad", "Cuisines: ": "North Indian, Mughlai, Chinese", "hours": "11am\u201311pm(Mon-Sun)", "Cost for two": "\u20b9600"}, {"Name": "Aahar", "Rating": "3.4", "votes": "174", "location": " U 6/50, DLF Phase 3, Gurgaon", "Cuisines: ": "North Indian, Chinese", "hours": "10am\u201311:30pm(Mon-Sun)", "Cost for two": "\u20b9450"}, {"Name": "O! Hangla", "Rating": "4.2", "votes": "95", "location": " Shop 16, Choudhary Market, Sector 76, Near Sector 72, Noida", "Cuisines: ": "Bengali", "hours": "11:59am\u201312midnight(Mon-Sun)", "Cost for two": "\u20b9400"}, {"Name": "Big Bite D\u00f6ner - BBD", "Rating": "3.7", "votes": "145", "location": " Shop 13, Z Block, Amrapali Complex, Sector 12, Noida", "Cuisines: ": "Fast Food", "hours": "11am\u20134am(Mon-Sun)", "Cost for two": "\u20b9300"}, {"Name": "Mukesh Dhaba", "Rating": "3.7", "votes": "349", "location": " Beside DLF Atria, DLF Cyber City, Gurgaon", "Cuisines: ": "North Indian, Chinese", "hours": "24Hours(Mon-Sun)", "Cost for two": "\u20b9500"}, {"Name": "Uptown Chi", "Rating": "3.8", "votes": "24", "location": " Shop 3, Plot 6, Parmesh Complex 2, Karkardooma Community Center, Karkardooma, New Delhi", "Cuisines: ": "Chinese, Thai", "hours": "12noon\u201311pm(Mon-Sun)", "Cost for two": "\u20b9700"}, {"Name": "King Of Flavours", "Rating": "3.9", "votes": "149", "location": " 390, Carterpuri, Sector 23, Gurgaon", "Cuisines: ": "North Indian, Fast Food", "hours": "10:30am\u201311pm(Mon-Sun)", "Cost for two": "\u20b9500"}, {"Name": "Pizza Hut", "Rating": "3.2", "votes": "11", "location": " Iris Broadway, Sector 84, Near Sector 83, Gurgaon", "Cuisines: ": "Pizza, Italian, Fast Food", "hours": "11am\u201311pm(Mon-Sun)", "Cost for two": "\u20b9600"}, {"Name": "Chinese Chacha", "Rating": "NEW", "votes": "11", "location": " Shop 6, G3/G6, DDA Market, Sector 16, Rohini, New Delhi", "Cuisines: ": "Chinese", "hours": "12midnight\u20132am,12noon\u201312midnight(Mon-Sun)", "Cost for two": "\u20b9300"}, {"Name": "Zip Grip Kitchen", "Rating": "3.9", "votes": "153", "location": " Shop G 14, Plot 8, Pocket 7, Aggarwal Square Plaza, Near City Center Mall, Sector 12, Dwarka, New Delhi", "Cuisines: ": "Chinese, Continental, North Indian, Pizza", "hours": "12noon\u201312midnight(Mon-Sun)", "Cost for two": "\u20b9600"}, {"Name": "Horn Please", "Rating": "3.6", "votes": "288", "location": " D 616, Hotel Royal Castle Grand, Chittaranjan Park, New Delhi", "Cuisines: ": "North Indian, Mughlai, Chinese", "hours": "24Hours(Mon-Sun)", "Cost for two": "\u20b9750"}, {"Name": "Safe House", "Rating": "3.8", "votes": "59", "location": " Main Road Bengali Market, Sector 82, Near Sector 83, Gurgaon", "Cuisines: ": "Chinese, North Indian", "hours": "8am\u201311pm(Mon-Sun)", "Cost for two": "\u20b9300"}, {"Name": "Be Healthy", "Rating": "4.0", "votes": "43", "location": " 52, Judges Enclave, Opposite Shanti Gopal Hospital, Ahinsa Khand 2, Indirapuram, Ghaziabad", "Cuisines: ": "Healthy Food, Salad, Fast Food, Beverages", "hours": "8am\u20132am(Mon-Sun)", "Cost for two": "\u20b9500"}, {"Name": "Rasna Buzz", "Rating": "3.7", "votes": "80", "location": " LGF 038, Mahagun Mart, Sector 16C, Gautam Budha Nagar, Gaur City 2, Greater Noida", "Cuisines: ": "Beverages, Sandwich, Burger, Fast Food, Street Food", "hours": "10am\u20132am(Mon-Sun)", "Cost for two": "\u20b9200"}]