[{"Name": "Indian Rasoi Ghar", "Rating": "2.9", "votes": "18", "location": " 23A/1, Krishna Nagar, Safdarjung, New Delhi", "Cuisines: ": "North Indian, Chinese", "hours": "10am\u20131am(Mon-Sun)", "Cost for two": "\u20b9450"}, {"Name": "Shere Hind Chicken Corner", "Rating": "3.3", "votes": "6", "location": " Chhawla Stand, Najafgarh, New Delhi", "Cuisines: ": "North Indian, Mughlai", "hours": "Closed(Mon),10am\u201311pm(Tue-Sun)", "Cost for two": "\u20b9500"}, {"Name": "Star Pizza", "Rating": "3.1", "votes": "6", "location": " Ashok Vihar Phase 2, Near Hp Petrol Pump, Sector 5, Palam Vihar, Gurgaon", "Cuisines: ": "Pizza, Fast Food", "hours": "9am\u201310pm(Mon-Sun)", "Cost for two": "\u20b9450"}, {"Name": "Friends Food Corner", "Rating": "2.9", "votes": "5", "location": " 146/9, J K Apartment, Kishangarh, Vasant Kunj, New Delhi", "Cuisines: ": "Chinese, North Indian", "hours": "11am\u201311pm(Mon-Sun)", "Cost for two": "\u20b9400"}, {"Name": "HPMC JUICE & SNACKS", "Rating": "-", "votes": "5", "location": " KC Market, Near SBI ATM, JNU, New Delhi", "Cuisines: ": "Fast Food", "hours": "11am\u20139pm(Mon-Sat),Closed(Sun)", "Cost for two": "\u20b9200"}, {"Name": "Namaste India", "Rating": "4.2", "votes": "67", "location": " Dss 8, Sector 29, Faridabad", "Cuisines: ": "North Indian, Chinese", "hours": "11am\u201311pm(Mon-Sun)", "Cost for two": "\u20b9700"}, {"Name": "Grover Da Dhaba", "Rating": "3.6", "votes": "20", "location": " Near Kamal Cinema, Safdarjung Enclave, Safdarjung, New Delhi", "Cuisines: ": "North Indian", "hours": "10am\u201310pm(Mon-Sun)", "Cost for two": "\u20b9650"}, {"Name": "Rocking Woods", "Rating": "3.7", "votes": "556", "location": " F-102, 1st Floor, V3S Mall, Laxmi Nagar, New Delhi", "Cuisines: ": "North Indian, Chinese, Fast Food", "hours": "11am\u20131am(Mon-Sun)", "Cost for two": "\u20b91,300"}, {"Name": "Cafe Junk", "Rating": "3.7", "votes": "127", "location": " Shop G5, Pocket B, Vardhaman Shrenik Plaza, Mayur Vihar Phase 2, Delhi", "Cuisines: ": "Cafe, Burger, Italian, Fast Food", "hours": "11:30am\u201311pm(Mon-Sun)", "Cost for two": "\u20b9500"}, {"Name": "Tacos And Wrap", "Rating": "3.5", "votes": "28", "location": " Shop 1, Baba Kale Choke, Aghapur, Sector 41, Noida", "Cuisines: ": "Wraps, Fast Food, Beverages", "hours": "10am\u201311pm(Mon-Sun)", "Cost for two": "\u20b9400"}, {"Name": "Cafe Melange", "Rating": "3.9", "votes": "88", "location": " Mahagun Metro Mall, 3rd Floor, Food Court, Vaishali, Ghaziabad", "Cuisines: ": "Desserts, Beverages", "hours": "11am\u201311pm(Mon-Sun)", "Cost for two": "\u20b9350"}, {"Name": "LBPS Chinese &  South Indian", "Rating": "3.8", "votes": "39", "location": " A-2/132, Sector 17, Rohini, New Delhi", "Cuisines: ": "Chinese", "hours": "10am\u201311pm(Mon-Sun)", "Cost for two": "\u20b9250"}, {"Name": "Florina Bakers", "Rating": "3.8", "votes": "75", "location": " Delivery Only", "Cuisines: ": "Bakery", "hours": "7am\u201310pm(Mon,Tue,Wed,Thu,Fri,Sun),11am...", "Cost for two": "\u20b9450"}, {"Name": "Just Jugali", "Rating": "NEW", "votes": "75", "location": " R-8, Ground Floor, Joga Bai Extension, Nafees Road, Jamia Nagar, Zakir Nagar, New Delhi", "Cuisines: ": "South Indian, Chinese", "hours": "11am\u201311pm(Mon-Sun)", "Cost for two": "\u20b9250"}, {"Name": "Al- Hafeez Restaurant", "Rating": "-", "votes": "75", "location": " B 9, Bhaskar Compound Abdul Fazal Enclave, Jamia Nagar, Jasola, New Delhi", "Cuisines: ": "North Indian, Mughlai", "hours": "11am\u201311pm(Mon-Sun)", "Cost for two": "\u20b9800"}]