[{"Name": "China Bowl", "Rating": "3.5", "votes": "187", "location": " B-7, Vasant Arcade Shopping Complex, Vasant Kunj, New Delhi", "Cuisines: ": "Chinese, Fast Food", "hours": "11am\u201311pm(Mon-Sun)", "Cost for two": "\u20b9300"}, {"Name": "Khalsa Tandoor", "Rating": "3.7", "votes": "211", "location": " 4, Gali 11, Krishna Park, Guru Ram Dass Marg, Tilak Nagar, New Delhi", "Cuisines: ": "North Indian, Chinese, Mughlai", "hours": "12noon\u201311:30pm(Mon-Sun)", "Cost for two": "\u20b9950"}, {"Name": "Sohan Sweets & Namkeen", "Rating": "3.5", "votes": "221", "location": " 115 & 116, Sector 17, Faridabad", "Cuisines: ": "Mithai, Street Food", "hours": "7am\u201310pm(Mon-Sun)", "Cost for two": "\u20b9100"}, {"Name": "Deli - Crowne Plaza", "Rating": "3.9", "votes": "127", "location": " Crowne Plaza, Twin District Centre, Sector 10, Rohini, New Delhi", "Cuisines: ": "Bakery, Desserts, Fast Food", "hours": "9am\u201312midnight(Mon-Sun)", "Cost for two": "\u20b91,000"}, {"Name": "Deep Sweet Corner", "Rating": "3.2", "votes": "60", "location": " 74, Bharat Nagar, New Friends Colony, New Delhi", "Cuisines: ": "Mithai, Fast Food, Chinese, North Indian", "hours": "8am\u201311pm(Mon-Sun)", "Cost for two": "\u20b9400"}, {"Name": "Jolly Foods", "Rating": "3.2", "votes": "6", "location": " Raj Nagar Wali Gali, Near Khandsa Road, Raj Nagar, Old Railway Road, Gurgaon", "Cuisines: ": "North Indian, Chinese", "hours": "9am\u201311pm(Mon-Sun)", "Cost for two": "\u20b9300"}, {"Name": "BN Punjabi", "Rating": "3.7", "votes": "92", "location": " Shop 1, P 84-86, Gram Sabha Colony, G Block, Near Deler Mahendi Gurudwara, Vikaspuri, New Delhi", "Cuisines: ": "North Indian, Momos, Italian, Chinese", "hours": "11am\u201312midnight(Mon-Sun)", "Cost for two": "\u20b9500"}, {"Name": "Rolls inn", "Rating": "4.1", "votes": "249", "location": " Shop 72, Huda Market, Sector 22, Gurgaon", "Cuisines: ": "Rolls", "hours": "2pm\u201310:45pm(Mon),11:30am\u201310:45pm(Tue-Sun)", "Cost for two": "\u20b9300"}, {"Name": "Chinese Hot Box", "Rating": "3.3", "votes": "10", "location": " F-6, 1st Floor, Gopalji Mart, Sector 128, Near Sector 132, Noida", "Cuisines: ": "Asian, Chinese", "hours": "Closed(Mon),11am\u201312midnight(Tue-Sun)", "Cost for two": "\u20b9300"}, {"Name": "Elysian Delights", "Rating": "3.3", "votes": "10", "location": " 9, Ground Floor, JMD Galleria, Sector 48, Sohna Road, Gurgaon", "Cuisines: ": "Bakery, Desserts", "hours": "Closed(Mon),11:30am\u20138pm(Tue,Wed,Thu,Sat...", "Cost for two": "\u20b9250"}, {"Name": "Satvik", "Rating": "3.6", "votes": "281", "location": " Shop 1, Omaxe Park Plaza, Shakti Khand 2, Indirapuram, Ghaziabad", "Cuisines: ": "Fast Food, Beverages", "hours": "24Hours(Mon-Sun)", "Cost for two": "\u20b9400"}, {"Name": "My Imperial Pizza", "Rating": "3.4", "votes": "36", "location": " EF 3 Mall, L 35, 36, Lower Ground Floor, Sector 20, Faridabad", "Cuisines: ": "Continental, Pizza", "hours": "10am\u201310:30pm(Mon-Sun)", "Cost for two": "\u20b9450"}, {"Name": "Bikaner Kesarvala", "Rating": "3.8", "votes": "131", "location": " 3-4, BN Block Market, LSC, Shalimar Bagh, New Delhi", "Cuisines: ": "Mithai, Street Food", "hours": "10am\u201310:30pm(Mon-Sun)", "Cost for two": "\u20b9200"}, {"Name": "Tandoori King", "Rating": "3.8", "votes": "41", "location": " Shop 11 A & 11 B, Plot 5, Parmesh Tower, Community Centre, Karkardooma, New Delhi", "Cuisines: ": "North Indian, Momos, Rolls", "hours": "11am\u20132am(Mon-Sun)", "Cost for two": "\u20b9500"}, {"Name": "Pandey Ji", "Rating": "3.1", "votes": "6", "location": " Shop 163, Fly Over Market, Defence Colony, New Delhi", "Cuisines: ": "Chinese, North Indian, Mughlai", "hours": "7am\u201311pm(Mon-Sun)", "Cost for two": "\u20b9400"}]