[{"Name": "Bella Italia", "Rating": "3.6", "votes": "52", "location": " Ground Floor, MLCP, IGI Terminal 3, Aerocity, New Delhi", "Cuisines: ": "Fast Food, Italian, Pizza", "hours": "24Hours(Mon-Sun)", "Cost for two": "\u20b9550"}, {"Name": "Sona Chinese", "Rating": "3.4", "votes": "72", "location": " F-211, Gate 6, Vyapar Kendra, Palam Vihar, Gurgaon", "Cuisines: ": "Chinese", "hours": "11am\u201310:30pm(Mon-Sun)", "Cost for two": "\u20b9350"}, {"Name": "Chiku Chicken Corner", "Rating": "3.4", "votes": "54", "location": " Shop 5K/112, NIT, Faridabad", "Cuisines: ": "North Indian", "hours": "1pm\u20131am(Mon,Wed,Thu,Fri,Sat,Sun),5pm\u2013...", "Cost for two": "\u20b9400"}, {"Name": "The Cafe Guru", "Rating": "3.3", "votes": "11", "location": " Shop 94, Opposite Setia Atta Chakki, Main Madanpuri Road, Old Railway Road, Gurgaon", "Cuisines: ": "North Indian, Chinese, Fast Food", "hours": "11am\u201311pm(Mon-Sun)", "Cost for two": "\u20b9400"}, {"Name": "Aao Ji Khaao Ji", "Rating": "3.6", "votes": "37", "location": " 174, Sarai Pipal Thala, Near Adarsh Nagar Metro Station, Azadpur, New Delhi", "Cuisines: ": "Fast Food, Chinese", "hours": "7pm\u20135am(Mon-Sun)", "Cost for two": "\u20b9400"}, {"Name": "Ram Ji Chole Bhature", "Rating": "-", "votes": "37", "location": " Delivery Only", "Cuisines: ": "Street Food", "hours": "8am\u20134pm,7pm\u201312midnight(Mon-Sun)", "Cost for two": "\u20b9150"}, {"Name": "Al Quresh Chicken Biriyani And Chicken Tikki Point", "Rating": "3.6", "votes": "54", "location": " Near by Bhim Nagar Chowk, Near Sheetla Hospital, Sadar Bazar, Gurgaon", "Cuisines: ": "Biryani, North Indian", "hours": "9am\u20139pm(Mon-Sun)", "Cost for two": "\u20b9300"}, {"Name": "Kanha Bhog", "Rating": "3.1", "votes": "8", "location": " Ground Floor, Mahagun Mart, Gaur City 2, Greater Noida", "Cuisines: ": "Mithai, Chinese", "hours": "9am\u201310pm(Mon-Sun)", "Cost for two": "\u20b9250"}, {"Name": "Swaad E Kha", "Rating": "3.1", "votes": "4", "location": " Shop 80, Huda Market, Sector 40, Near Sector 31, Gurgaon", "Cuisines: ": "North Indian, Fast Food, Chinese, Mughlai", "hours": "11am\u201311:30pm(Mon-Sun)", "Cost for two": "\u20b9500"}, {"Name": "King Baker's", "Rating": "3.4", "votes": "11", "location": " Plot 724, Dr Sahib Singh Verma Marg, Bawana Village, Narela, New Delhi", "Cuisines: ": "Fast Food", "hours": "9am\u20139:30pm(Mon-Sun)", "Cost for two": "\u20b9300"}, {"Name": "Hello Deli", "Rating": "NEW", "votes": "11", "location": " 68-70, Upper Ground, Somdutt Chamber 2, Bhikaji Cama Place, New Delhi", "Cuisines: ": "Japanese", "hours": "12noon\u20139pm(Mon-Sat),Closed(Sun)", "Cost for two": "\u20b9700"}, {"Name": "Geeta Da Dhabha", "Rating": "NEW", "votes": "11", "location": " 21, Krishna Market, Jhilmil Colony, Vivek Vihar, New Delhi", "Cuisines: ": "North Indian, Chinese", "hours": "8am\u20139pm(Mon-Sun)", "Cost for two": "\u20b9200"}, {"Name": "Spl Shahi Zaika", "Rating": "NEW", "votes": "11", "location": " Shop 4, Garg Plaza, Sainik Vihar, Pitampura, New Delhi", "Cuisines: ": "North Indian, Rolls", "hours": "11am\u201311pm(Mon-Sun)", "Cost for two": "\u20b9350"}, {"Name": "Corporate Aahar", "Rating": "NEW", "votes": "11", "location": " G-71, Sector 63, Noida", "Cuisines: ": "North Indian", "hours": "8am\u20139pm(Mon-Sun)", "Cost for two": "\u20b9150"}, {"Name": "Flavors", "Rating": "3.4", "votes": "8", "location": " A-10, Alpha 1, Greater Noida", "Cuisines: ": "Chinese", "hours": "3pm\u20133am(Mon-Sun)", "Cost for two": "\u20b9300"}]