[{"Name": "Indian Spirits By 7 States", "Rating": "-", "location": " 25/42, Ground Floor, Sujan Singh Building, A Block, Connaught Place, New Delhi", "Cuisines: ": "Fast Food, North Indian, Chinese", "hours": "11am\u201311pm(Mon-Sun)", "Cost for two": "\u20b9400"}, {"Name": "Bombay Toastee", "Rating": "-", "location": " Premises G-57, Ground Floor, G1 Block, Connaught Circus, Connaught Place, New Delhi", "Cuisines: ": "Fast Food, North Indian", "hours": "11am\u201311pm(Mon-Sun)", "Cost for two": "\u20b9200"}, {"Name": "Biryani Art", "Rating": "3.9", "location": " Shop RCK 01, Rajeev Chowk Metro Station, Connaught Place, New Delhi", "Cuisines: ": "Biryani, North Indian", "hours": "11am\u201311pm(Mon-Sun)", "Cost for two": "\u20b9750"}, {"Name": "Quenchers by Barista", "Rating": "-", "location": " Shop 9, Ground Floor, Regal Building, Connaught Place, New Delhi", "Cuisines: ": "Beverages, Coffee", "hours": "8am\u201310pm(Mon-Sun)", "Cost for two": "\u20b9500"}, {"Name": "The Paratha Factory", "Rating": "-", "location": " Arunachal Building, Barakhamba Road, Connaught Place, New Delhi", "Cuisines: ": "North Indian, Beverages", "hours": "9am\u20138pm(Mon-Sat),Closed(Sun)", "Cost for two": "\u20b9200"}, {"Name": "South Indian Dosa Point", "Rating": "3.3", "location": " Behind Surya Kiran Building, Connaught Place, New Delhi", "Cuisines: ": "South Indian", "hours": "9am\u201310pm(Mon-Sun)", "Cost for two": "\u20b9200", "votes": "14"}, {"Name": "Waffle Wallah", "Rating": "-", "location": " Premises G-57, G1 Block, Ground Floor, Connaught Circus, Connaught Place, New Delhi", "Cuisines: ": "Desserts, Ice Cream, Bakery, Beverages", "hours": "11am\u201311pm(Mon-Sun)", "Cost for two": "\u20b9450", "votes": "14"}, {"Name": "Shudh Vaishno", "Rating": "3.0", "location": " 10, Kashmiri Market, Opposite Shankar Market, Connaught Place, New Delhi", "Cuisines: ": "North Indian", "hours": "11am\u201310pm(Mon-Sun)", "Cost for two": "\u20b9100", "votes": "6"}, {"Name": "Aap Ki Kathir", "Rating": "-", "location": " M 48/4, Middle Circle, Connaught Place, New Delhi", "Cuisines: ": "Mughlai, North Indian", "hours": "11am\u201311pm(Mon-Sun)", "Cost for two": "\u20b9100", "votes": "6"}, {"Name": "Vaishnav Dhaba", "Rating": "NEW", "location": " 20, NDMC Market, Babbar Road, Near Bengali Market, Connaught Place, New Delhi", "Cuisines: ": "North Indian, Mughlai", "hours": "12noon\u20133:30pm,7pm\u201311:30pm(Mon-Sun)", "Cost for two": "\u20b9300", "votes": "6"}, {"Name": "Kalpana Restaurant", "Rating": "2.5", "location": " G 28, Connaught Circle, Connaught Place, New Delhi", "Cuisines: ": "North Indian", "hours": "11am\u201311:30pm(Mon-Sun)", "Cost for two": "\u20b9400", "votes": "21"}, {"Name": "RR Foods Corner", "Rating": "2.9", "location": " 1, Kashmiri Market, Opposite Shankar Market, Connaught Place, New Delhi", "Cuisines: ": "North Indian", "hours": "8:30am\u201310pm(Mon-Sun)", "Cost for two": "\u20b9150", "votes": "4"}, {"Name": "Welcome Snacks Bar", "Rating": "-", "location": " Behind Surya Kiran Building, Connaught Place, New Delhi", "Cuisines: ": "Chinese, Street Food", "hours": "10am\u201310:30pm(Mon-Sun)", "Cost for two": "\u20b9200", "votes": "4"}, {"Name": "Kings", "Rating": "-", "location": " C 22, Middle Circle, Connaught Place, New Delhi", "Cuisines: ": "Desserts, Ice Cream", "hours": "11am\u201311pm(Mon-Sun)", "Cost for two": "\u20b9150", "votes": "4"}, {"Name": "Jain Aapki Rasoi", "Rating": "3.1", "location": " RZ 48 A, Street 3, Main Sagarpur, New Delhi", "Cuisines: ": "North Indian, Chinese", "hours": "10am\u201311pm(Mon-Sun)", "Cost for two": "\u20b9400", "votes": "6"}]