[{"Name": "Kadhi Wala", "Rating": "3.0", "votes": "6", "location": " Shop 75, Bihari Market, Near Mahagun Mall, Vaishali, Ghaziabad", "Cuisines: ": "North Indian", "hours": "11am\u201311pm(Mon-Sun)", "Cost for two": "\u20b9150"}, {"Name": "The Delhi Eatery", "Rating": "3.2", "votes": "6", "location": " B-11/2, Main Road, Krishna Nagar, New Delhi", "Cuisines: ": "Mughlai, Chinese, North Indian", "hours": "11am\u201311pm(Mon-Sun)", "Cost for two": "\u20b9500"}, {"Name": "@ Links - Radisson Blu", "Rating": "4.0", "votes": "179", "location": " Radisson Blu, L-2, Sector 18, Noida", "Cuisines: ": "Finger Food, North Indian", "hours": "12noon\u201312midnight(Mon-Sun)", "Cost for two": "\u20b94,500"}, {"Name": "Pizza Corner", "Rating": "3.5", "votes": "257", "location": " Opposite Mani Shalimar Park, Model Town 2, New Delhi", "Cuisines: ": "Pizza", "hours": "1pm\u201310:30pm(Mon-Sun)", "Cost for two": "\u20b9150"}, {"Name": "The Park Cafe", "Rating": "3.1", "votes": "5", "location": " The Park Residency, BB 42, Ansal Golf Link 1, Near Pari Chowk Omega 1, Greater Noida", "Cuisines: ": "North Indian, Chinese, Mughlai", "hours": "7:30am\u201310:30pm(Mon-Sun)", "Cost for two": "\u20b9700"}, {"Name": "Pankaj Foods", "Rating": "3.2", "votes": "11", "location": " Shop 21, Basement, AVJ Heights, Zeta-1, Zeta 1", "Cuisines: ": "North Indian, Fast Food", "hours": "12:30pm\u20133:30pm,7:30pm\u201311pm(Mon-Sun)", "Cost for two": "\u20b9100"}, {"Name": "Munchi Chicken Corner", "Rating": "3.2", "votes": "6", "location": " 82 A Block, Budh Bazar, Opposite TNT Colony, Janakpuri, New Delhi", "Cuisines: ": "Biryani, North Indian, Afghan", "hours": "11am\u201311pm(Mon-Sun)", "Cost for two": "\u20b9500"}, {"Name": "De Thali", "Rating": "-", "votes": "6", "location": " F 13, Gali 1, Saidulajab, Saket, New Delhi", "Cuisines: ": "North Indian, Chinese, Beverages", "hours": "11am\u201311pm(Mon-Sun)", "Cost for two": "\u20b9300"}, {"Name": "Fodies Drivee", "Rating": "-", "votes": "6", "location": " Shop 158, Sapphire 83 Mall, Sector 83, Gurgaon", "Cuisines: ": "North Indian, Street Food", "hours": "10am\u201310pm(Mon-Sun)", "Cost for two": "\u20b9350"}, {"Name": "Indian Laziz Food", "Rating": "NEW", "votes": "6", "location": " 69, Huda Sector, Sushant Lok 2, Near Sector 55, Sector 56, Gurgaon", "Cuisines: ": "North Indian", "hours": "11am\u201310pm(Mon-Sun)", "Cost for two": "\u20b9300"}, {"Name": "Chicken Master Chef", "Rating": "3.2", "votes": "9", "location": " 268/ Pocket 16, Near Madhu Vihar Bus Stand, Sector 3, Dwarka, New Delhi", "Cuisines: ": "Biryani, North Indian", "hours": "11am\u20131am(Mon-Sun)", "Cost for two": "\u20b9600"}, {"Name": "Rao Dhaba", "Rating": "3.0", "votes": "80", "location": " Block -S, Fazilpur Chowk, Sohna Road, Gurgaon", "Cuisines: ": "North Indian, Chinese", "hours": "11am\u201311pm(Mon-Sun)", "Cost for two": "\u20b9300"}, {"Name": "Shahi Kabab", "Rating": "3.3", "votes": "13", "location": " Bakhataver Chowk, Near Bharat Petrol Pump, Sector 47, South City 2, Gurgaon", "Cuisines: ": "North Indian", "hours": "5:30pm\u201310pm(Mon-Sun)", "Cost for two": "\u20b9500"}, {"Name": "Kailash Vaishno Dhaba", "Rating": "3.5", "votes": "58", "location": " Block 8/112, Geeta Colony, New Delhi", "Cuisines: ": "North Indian", "hours": "6pm\u201311:30pm(Mon-Sun)", "Cost for two": "\u20b9200"}, {"Name": "Thakur Ji Ki Rasoi And Family Restaurant", "Rating": "3.3", "votes": "21", "location": " T-1/17, Budh Vihar Phase I, Main Market, Near Pankaj Book Depot, Dal Meel Road, Rohini, New Delhi", "Cuisines: ": "North Indian", "hours": "11am\u201311pm(Mon-Sun)", "Cost for two": "\u20b9200"}]