[{"Name": "Mexican Pizza", "Rating": "3.6", "votes": "177", "location": " Shop 07, Supertech Ecovillage 1, Commercial Market, Sector 1, Noida", "Cuisines: ": "Pizza, Fast Food, Mexican", "hours": "12noon\u201311pm(Mon-Sun)", "Cost for two": "\u20b9500"}, {"Name": "Utsav@77", "Rating": "3.5", "votes": "348", "location": " CS- 5 & 5A, Prateek Walk, Near Prateek Wisteria, Sector 77, Near Sector 72, Noida", "Cuisines: ": "Street Food, South Indian, North Indian", "hours": "8am\u201311pm(Mon-Sun)", "Cost for two": "\u20b9300"}, {"Name": "Squeezer Juices And Shakes", "Rating": "3.5", "votes": "28", "location": " Shop 4, Rithala Metro Station, Rohini, New Delhi", "Cuisines: ": "Beverages, Juices", "hours": "8am\u201310pm(Mon-Sun)", "Cost for two": "\u20b9150"}, {"Name": "Northern Hut 24", "Rating": "3.4", "votes": "24", "location": " 38, LSC, DDA Market, Mayur Vihar Phase 1, New Delhi", "Cuisines: ": "North Indian, Chinese, Rolls", "hours": "11am\u201311pm(Mon-Sun)", "Cost for two": "\u20b9400"}, {"Name": "Purani Prem Di Hatti", "Rating": "3.9", "votes": "123", "location": " J Block, Opposite City Square Mall, Rajouri Garden, New Delhi", "Cuisines: ": "North Indian", "hours": "9am\u201310pm(Mon-Sun)", "Cost for two": "\u20b9300"}, {"Name": "Perfect Food Court", "Rating": "NEW", "votes": "123", "location": " Capital Tower, Inder Enclave, Opposite Richmond School, Peeragharhi, Near Paschim Vihar, New Delhi", "Cuisines: ": "Fast Food, Italian, Pizza", "hours": "2pm\u20134am(Mon-Sun)", "Cost for two": "\u20b9200"}, {"Name": "Chinese Junction", "Rating": "3.7", "votes": "20", "location": " Plot 79, Behind Sarv Haryana Gramin Bank, Jharsa, Sector 39, Gurgaon", "Cuisines: ": "Chinese", "hours": "4pm\u20134am(Mon-Sun)", "Cost for two": "\u20b9300"}, {"Name": "Triple Nine", "Rating": "3.7", "votes": "455", "location": " DSS 30, HUDA Market, Sector 31, Faridabad", "Cuisines: ": "North Indian, Chinese, Mughlai", "hours": "11am\u201311pm(Mon-Sun)", "Cost for two": "\u20b9600"}, {"Name": "Kailash Bhojanalya", "Rating": "3.7", "votes": "83", "location": " A 10, Ashok Nagar, Near Holy Child School, Nehru Nagar, Ghaziabad", "Cuisines: ": "North Indian, Chinese", "hours": "9am\u20134pm,6pm\u201311pm(Mon-Sun)", "Cost for two": "\u20b9300"}, {"Name": "Mogli's Coffee", "Rating": "4.4", "votes": "83", "location": " R4 9, M3M Urban, Sector 67, Sohna Road, Gurgaon", "Cuisines: ": "Cafe, Continental, Sandwich, Italian, Beverages", "hours": "11am\u201310pm(Mon-Sun)", "Cost for two": "\u20b9500"}, {"Name": "Om Hotel", "Rating": "3.7", "votes": "295", "location": " 17-18, Jungpura Extension Market, Jangpura, New Delhi", "Cuisines: ": "North Indian, Mughlai", "hours": "11am\u201311pm(Mon-Sun)", "Cost for two": "\u20b9600"}, {"Name": "Mmmelt", "Rating": "3.9", "votes": "110", "location": " Shop 18, Ajnara Daffodils Mart, Sector 132, Noida", "Cuisines: ": "Cafe", "hours": "12noon\u201310:30pm(Mon,Tue,Wed,Fri,Sat,Sun)...", "Cost for two": "\u20b9500"}, {"Name": "Six Degree Cakes And Coffees", "Rating": "4.1", "votes": "342", "location": " B-6, Shop 3, Shopping Center, Safdarjung Enclave, Safdarjung, New Delhi", "Cuisines: ": "Bakery", "hours": "10am\u201312midnight(Mon-Sun)", "Cost for two": "\u20b9200"}, {"Name": "Subhub", "Rating": "3.7", "votes": "64", "location": " J9/36, Rajouri Garden, New Delhi", "Cuisines: ": "Fast Food", "hours": "11am\u201311pm(Mon-Sun)", "Cost for two": "\u20b9400"}, {"Name": "Chini Bowl", "Rating": "3.9", "votes": "80", "location": " 1st Floor, Essel Towers, MG Road, Gurgaon", "Cuisines: ": "Chinese, Thai, Japanese, Tibetan", "hours": "11am\u201311pm(Mon-Sun)", "Cost for two": "\u20b91,200"}]