[{"Name": "Lal Jee Sweets & Bakery", "Rating": "2.9", "votes": "7", "location": " Gali 8, Shivaji Park, Khandsa Road, Shivaji Nagar, Sector 37, Gurgaon", "Cuisines: ": "Mithai, Bakery", "hours": "7am\u20139pm(Mon-Sun)", "Cost for two": "\u20b9500"}, {"Name": "Manorma", "Rating": "3.9", "votes": "7", "location": " Ground Floor, Ashoka Complex, Sector 51, Near Sector 50, Gurgaon", "Cuisines: ": "Biryani, Fast Food", "hours": "7am\u20134am(Mon-Sun)", "Cost for two": "\u20b9400"}, {"Name": "Walia Chicken Fish Corner", "Rating": "3.1", "votes": "6", "location": " Shop 3, DDA LSC Market, Puspa Bhawan, Dakshinpuri, Khanpur, New Delhi", "Cuisines: ": "North Indian", "hours": "11am\u201311pm(Mon-Sun)", "Cost for two": "\u20b9350"}, {"Name": "Khub Chand Bros", "Rating": "3.0", "votes": "8", "location": " Shop 2, DDA Market, Yusuf Sarai, New Delhi", "Cuisines: ": "Raw Meats, North Indian", "hours": "11am\u201310pm(Mon-Sun)", "Cost for two": "\u20b9300"}, {"Name": "Singh O Singh @ 99", "Rating": "3.4", "votes": "33", "location": " 142, Upper Ground Floor, Krishna Nagar, Chander Nagar, New Delhi", "Cuisines: ": "North Indian, Fast Food, Chinese", "hours": "12noon\u20134am(Mon-Sun)", "Cost for two": "\u20b9800"}, {"Name": "Ten 11 Food Zone", "Rating": "3.2", "votes": "24", "location": " C-114, Panchsheel Vihar, Khirki Main Road, Malviya Nagar, New Delhi", "Cuisines: ": "North Indian, Chinese", "hours": "10am\u201312midnight(Mon-Sat),10am\u20132am(Sun)", "Cost for two": "\u20b9550"}, {"Name": "Juneja's Kitchen", "Rating": "3.8", "votes": "165", "location": " 245, Shatar Wali Gali, Devli Road, Khanpur, New Delhi", "Cuisines: ": "North Indian, Mughlai, Chinese", "hours": "11:30am\u201311pm(Mon-Sun)", "Cost for two": "\u20b9400"}, {"Name": "Dry 'N' Gravy", "Rating": "3.2", "votes": "10", "location": " Shop 2, Khasra 365, Main Holy Chowk, Bijwasan, Kapashera, New Delhi", "Cuisines: ": "Chinese", "hours": "12noon\u20139pm(Mon-Sun)", "Cost for two": "\u20b9250"}, {"Name": "Punjabi Dhaba 61", "Rating": "NEW", "votes": "10", "location": " Shop 8, Food Court, Shopprix Mall, Sector 61, Noida", "Cuisines: ": "Mughlai, North Indian, Chinese", "hours": "10:30am\u201311pm(Mon-Sun)", "Cost for two": "\u20b9550"}, {"Name": "Chicken Khurana", "Rating": "3.6", "votes": "264", "location": " F-15/40, Sector 15, Rohini, New Delhi", "Cuisines: ": "North Indian, Mughlai, Rolls", "hours": "12:30pm\u20133:30pm,7pm\u201311:30pm(Mon,Wed,Thu...", "Cost for two": "\u20b9550"}, {"Name": "7 Mile Stone", "Rating": "3.5", "votes": "57", "location": " 17, Amritpuram, Gamma 1, Greater Noida", "Cuisines: ": "Chinese", "hours": "10am\u201310:30pm(Mon-Sun)", "Cost for two": "\u20b9300"}, {"Name": "Time 2 Pizza", "Rating": "3.6", "votes": "31", "location": " F-3/33, Vijay Chowk, Krishna Nagar, New Delhi", "Cuisines: ": "Pizza, Fast Food", "hours": "11am\u201311pm(Mon-Sun)", "Cost for two": "\u20b9400"}, {"Name": "Chulha Chaki", "Rating": "NEW", "votes": "31", "location": " 207, Road 4, Mahipalpur, New Delhi", "Cuisines: ": "North Indian, Fast Food, Chinese, Beverages", "hours": "10am\u20132am(Mon-Sun)", "Cost for two": "\u20b9500"}, {"Name": "Muradabadi Hyderabadi Biryani & Chicken Corner", "Rating": "3.3", "votes": "13", "location": " Shop 3, 175B, Kamil House, Arjun Nagar, Safdarjung Enclave, New Delhi", "Cuisines: ": "Biryani, North Indian", "hours": "10am\u201311pm(Mon-Sun)", "Cost for two": "\u20b9400"}, {"Name": "Delliccio by J", "Rating": "3.3", "votes": "10", "location": " C8/8753, Vasant Kunj, New Delhi", "Cuisines: ": "Rolls, Biryani", "hours": "8pm\u20134am(Mon-Sun)", "Cost for two": "\u20b9350"}]