[{"Name": "Wake And Bake", "Rating": "3.2", "votes": "40", "location": " Shop 06, Lotus Boulevard, Sector 100, Near Sector 47, Noida", "Cuisines: ": "Bakery, Chinese, Momos", "hours": "12noon\u201311pm(Mon-Sun)", "Cost for two": "\u20b9200"}, {"Name": "Kishan Momos", "Rating": "3.5", "votes": "12", "location": " B5/43, Sector 18, Rohini, New Delhi", "Cuisines: ": "Momos, Rolls", "hours": "6pm\u201310pm(Mon-Sun)", "Cost for two": "\u20b9250"}, {"Name": "Lazeez Zayka", "Rating": "NEW", "votes": "12", "location": " A-1020, 2nd Floor, GD Colony, Above Dr. Banerjee Clinic, Mayur Vihar Phase 3, New Delhi", "Cuisines: ": "Arabian", "hours": "4pm\u201311pm(Mon-Sun)", "Cost for two": "\u20b9200"}, {"Name": "The Dhaba", "Rating": "3.0", "votes": "304", "location": " Galleria Market, Crossing Republik, Ghaziabad", "Cuisines: ": "North Indian, Biryani, Chinese, Italian, Momos", "hours": "11am\u20132am(Mon-Sun)", "Cost for two": "\u20b9400"}, {"Name": "Pappu  Brijwasi Dhaba", "Rating": "3.6", "votes": "31", "location": " Sadarpur Colony, Near Sabzi Mandi, Sector 22, Noida", "Cuisines: ": "North Indian", "hours": "11am\u201311pm(Mon-Sun)", "Cost for two": "\u20b9200"}, {"Name": "The Meatery", "Rating": "-", "votes": "31", "location": " N-9, Ground Floor, Kalkaji, New Delhi", "Cuisines: ": "Raw Meats, Mughlai", "hours": "10am\u201310pm(Mon-Sun)", "Cost for two": "\u20b9500"}, {"Name": "Street Food Hub", "Rating": "3.5", "votes": "23", "location": " Shop 1D, Tikona Park, Jamia Nagar, Okhla, Jasola, New Delhi", "Cuisines: ": "Rolls, Fast Food, Beverages", "hours": "12noon\u201311pm(Mon-Sun)", "Cost for two": "\u20b9500"}, {"Name": "Vintage Delhi 6", "Rating": "-", "votes": "23", "location": " 1st Floor, 25 A, G53/7 Building, Shaheen Bagh, 40 Futa Road, Okhla Phase 1, New Delhi", "Cuisines: ": "Fast Food, North Indian, Beverages", "hours": "10am\u20132am(Mon-Sun)", "Cost for two": "\u20b9300"}, {"Name": "Best Bites", "Rating": "2.7", "votes": "9", "location": " Shop 18, 2nd Floor, DDA Flats, Kalkaji, New Delhi", "Cuisines: ": "Pizza, Burger, Rolls", "hours": "9am\u20131am(Mon-Sun)", "Cost for two": "\u20b9400"}, {"Name": "The China Kitchen", "Rating": "3.3", "votes": "16", "location": " Shop 21, Pocket A, DDA Market, Sukhdev Vihar, New Delhi", "Cuisines: ": "Chinese", "hours": "11am\u201311pm(Mon-Sun)", "Cost for two": "\u20b9300"}, {"Name": "Matrix - Jaypee Greens", "Rating": "3.5", "votes": "43", "location": " Jaypee Greens Golf & Spa Resort, G Block, Jaypee Greens, Noida", "Cuisines: ": "Finger Food", "hours": "12noon\u20131am(Mon-Sun)", "Cost for two": "\u20b92,600"}, {"Name": "Maggi Maafiya", "Rating": "3.3", "votes": "11", "location": " B-1/232, 1 Floor, Yamuna Vihar, Shahdara, New Delhi", "Cuisines: ": "Street Food", "hours": "11am\u201311pm(Mon-Sun)", "Cost for two": "\u20b9150"}, {"Name": "Flavours Of South", "Rating": "3.8", "votes": "188", "location": " Shop 1, DDA Market, Near Nav Jagriti Apartment, Vasundhara Enclave, New Delhi", "Cuisines: ": "South Indian", "hours": "12noon\u20139:30pm(Mon),9:30am\u20139:30pm(Tue-Sun)", "Cost for two": "\u20b9250"}, {"Name": "Popular Restaurant", "Rating": "3.4", "votes": "58", "location": " 21/491, Trilokpuri, New Delhi", "Cuisines: ": "North Indian", "hours": "11am\u201311pm(Mon-Sun)", "Cost for two": "\u20b9250"}, {"Name": "Tanduri Dhaba", "Rating": "2.9", "votes": "34", "location": " Jagat Farm, Opposite Punjab National Bank, Gamma 1, Noida", "Cuisines: ": "Chinese, North Indian", "hours": "11am\u201311pm(Mon-Sun)", "Cost for two": "\u20b9550"}]