[{"Name": "Kaushal Dhaba", "Rating": "-", "location": " Opposite Delite Cinema, Asaf Ali Road, Daryaganj, New Delhi", "Cuisines: ": "North Indian", "hours": "11am\u201311pm(Mon-Sun)", "Cost for two": "\u20b9250"}, {"Name": "Rabri Bhandar", "Rating": "3.5", "location": " 42-B, Parathewali Gali, Opposite Central Bank, Chandni Chowk, New Delhi", "Cuisines: ": "Mithai", "hours": "10am\u20137pm(Mon-Sun)", "Cost for two": "\u20b9250", "votes": "49"}, {"Name": "Emperor's Lounge - The Taj Mahal Hotel", "Rating": "3.8", "location": " The Taj Mahal Hotel, 1, Mansingh Road, New Delhi", "Cuisines: ": "Cafe", "hours": "9am\u201310pm(Mon-Sun)", "Cost for two": "\u20b92,500", "votes": "108"}, {"Name": "Anna Kitchen", "Rating": "3.3", "location": " E 4/5, Jhandewalan Extension, Karol Bagh, New Delhi", "Cuisines: ": "Fast Food, Desserts", "hours": "9am\u20138:30pm(Mon-Sun)", "Cost for two": "\u20b9400", "votes": "16"}, {"Name": "Al Zahid Nemat Kada", "Rating": "3.4", "location": " 6426, Quresh Nagar, Qayamuddin Qureshi Marg, Sadar Bazar, Near Chandni Chowk, New Delhi", "Cuisines: ": "Mughlai, North Indian", "hours": "11am\u201311pm(Mon-Sun)", "Cost for two": "\u20b9600", "votes": "31"}, {"Name": "Tea Snacks & RK Mess/Dhaba", "Rating": "-", "location": " 20/48, Old Rajinder Nagar, Rajinder Nagar, New Delhi", "Cuisines: ": "North Indian", "hours": "7am\u201311pm(Mon-Sun)", "Cost for two": "\u20b9200", "votes": "31"}, {"Name": "Delhi 6", "Rating": "3.5", "location": " 18, Ram Kishor Road, Civil Lines, New Delhi", "Cuisines: ": "Fast Food, Beverages", "hours": "6:30am\u20133pm(Mon-Sun)", "Cost for two": "\u20b9250", "votes": "25"}, {"Name": "Adipoli Kitchen", "Rating": "3.3", "location": " 4342/4, Ansari Road, Daryaganj, New Delhi", "Cuisines: ": "South Indian, North Indian", "hours": "11am\u20139pm(Mon-Sun)", "Cost for two": "\u20b9250", "votes": "14"}, {"Name": "FrenZone", "Rating": "3.6", "location": " Khan Market, New Delhi", "Cuisines: ": "North Indian, Chinese, Fast Food, Momos", "hours": "11am\u201311pm(Mon-Sun)", "Cost for two": "\u20b91,100", "votes": "31"}, {"Name": "Nayaab Kitchens", "Rating": "3.3", "location": " 3610, Subash Marg, Daryaganj, New Delhi", "Cuisines: ": "North Indian, Fast Food", "hours": "11am\u201311pm(Mon-Sun)", "Cost for two": "\u20b9500", "votes": "24"}, {"Name": "The Big Bun", "Rating": "3.6", "location": " 4-E/6, Upper Ground Floor, Near Jhandewalan Metro Station, Karol Bagh, New Delhi", "Cuisines: ": "Fast Food, Beverages", "hours": "11am\u201310pm(Mon-Sun)", "Cost for two": "\u20b9300", "votes": "47"}, {"Name": "Al Yousuf", "Rating": "3.7", "location": " 5187, Ballimaran, Chandni Chowk, New Delhi", "Cuisines: ": "Mughlai", "hours": "1pm\u201311pm(Mon-Sun)", "Cost for two": "\u20b9200", "votes": "74"}, {"Name": "Sri Krishna Udupi", "Rating": "2.9", "location": " 12-A/20, WEA, Saraswati Marg, Karol Bagh, New Delhi", "Cuisines: ": "South Indian, Ice Cream", "hours": "7am\u201311pm(Mon-Sun)", "Cost for two": "\u20b9500", "votes": "45"}, {"Name": "Just Cakez", "Rating": "2.9", "location": " 2/76, Sir Ganga Ram Road, Old Rajinder Nagar, Rajinder Nagar, New Delhi", "Cuisines: ": "Bakery, Fast Food", "hours": "8am\u201310pm(Mon-Sun)", "Cost for two": "\u20b9800", "votes": "23"}, {"Name": "My Recipes & Cafe", "Rating": "3.8", "location": " Building 52, Bada Bazar Marg, Old Rajinder Nagar, Karol Bagh, New Delhi", "Cuisines: ": "Fast Food, Chinese, Beverages", "hours": "12midnight\u20132am,9am\u201312midnight(Mon-Sun)", "Cost for two": "\u20b9300", "votes": "94"}]