[{"Name": "Cooknook", "Rating": "NEW", "location": " Ploto 556P, Near Bakhtawar Chowk, Sector 39, Gurgaon", "Cuisines: ": "North Indian, Fast Food", "hours": "7:30am\u20131am(Mon-Sun)", "Cost for two": "\u20b9350"}, {"Name": "Into The Spice", "Rating": "NEW", "location": " G 15, RG Complex, Sector 14, Prashant Vihar, Rohini, New Delhi", "Cuisines: ": "North Indian, Chinese, Mughlai", "hours": "12noon\u201311pm(Mon-Sun)", "Cost for two": "\u20b9500"}, {"Name": "Mehfil", "Rating": "NEW", "location": " Plot 6, Main Najafgarh Gurgaon Road, Opposite Royal Enfield Showroom, Najafgarh, New Delhi", "Cuisines: ": "North Indian, Chinese", "hours": "12noon\u201311pm(Mon-Sun)", "Cost for two": "\u20b9200"}, {"Name": "Aham Banarasi", "Rating": "3.3", "location": " Shop 15, Lower Ground Floor, City Plaza Market, Gaur City 1, Greater Noida", "Cuisines: ": "North Indian", "hours": "11am\u20133am(Mon-Sun)", "Cost for two": "\u20b9300", "votes": "13"}, {"Name": "Mughal Cuisine Foods", "Rating": "3.8", "location": " D 23, Abdul Fazal Enclave Part 1, Kalindi Kunj Road, Jasola, New Delhi", "Cuisines: ": "Mughlai, Chinese, North Indian", "hours": "12:30pm\u201311pm(Mon-Sun)", "Cost for two": "\u20b91,000", "votes": "141"}, {"Name": "Buzz Knight Restaurant", "Rating": "3.2", "location": " Opposite HP Petrol Pump, Old Railway Road, Gurgaon", "Cuisines: ": "North Indian, Chinese", "hours": "12noon\u201312midnight(Mon-Sun)", "Cost for two": "\u20b91,000", "votes": "6"}, {"Name": "Book Talk The Book Cafe", "Rating": "3.5", "location": " Plot 24, Opposite Bal Bharti Public School, Sector 12, Dwarka, New Delhi", "Cuisines: ": "Cafe, Fast Food", "hours": "11:30am\u20138pm(Mon-Sun)", "Cost for two": "\u20b9400", "votes": "14"}, {"Name": "Vihaan Fast Food Corner", "Rating": "3.4", "location": " Near Veer Public School, Opposite Krishna Farm, Old Delhi Gurgaon Road, Kapashera, New Delhi", "Cuisines: ": "Street Food, Chinese, South Indian", "hours": "9am\u201310pm(Mon-Sun)", "Cost for two": "\u20b9200", "votes": "19"}, {"Name": "Quik Cheff", "Rating": "NEW", "location": " Shop 2, Near Barat Ghar, Chhalera Bangar, Sector 44, Noida", "Cuisines: ": "Chinese", "hours": "12noon\u201311pm(Mon-Sun)", "Cost for two": "\u20b9450", "votes": "19"}, {"Name": "Roll Model", "Rating": "3.4", "location": " Shop 54, Sector 1, Kamna, Vaishali, Ghaziabad", "Cuisines: ": "Rolls", "hours": "11am\u20133pm,5pm\u201311pm(Mon-Sun)", "Cost for two": "\u20b9150", "votes": "14"}, {"Name": "Dhaba 31", "Rating": "3.7", "location": " SCO 39, 2nd Floor, Near Union Bank, Main Market, Sector 31, Gurgaon", "Cuisines: ": "North Indian, Chinese", "hours": "5pm\u20132am(Mon-Sun)", "Cost for two": "\u20b9450", "votes": "18"}, {"Name": "Milk Point", "Rating": "3.2", "location": " B 5/49, Near DDA Market, Sector 18, Rohini, New Delhi", "Cuisines: ": "Mithai, Street Food", "hours": "7am\u201310:30pm(Mon-Sun)", "Cost for two": "\u20b9200", "votes": "9"}, {"Name": "Gurugram Zaika", "Rating": "3.4", "location": " Huda Market, Sector 4, Gurgaon", "Cuisines: ": "Chinese", "hours": "5pm\u201310pm(Mon-Sun)", "Cost for two": "\u20b9250", "votes": "21"}, {"Name": "Caf\u00e9 Hameen Ast'o", "Rating": "3.8", "location": " Westend Marg, Near The Garden of Five Senses, Saidulajab, Saket, New Delhi", "Cuisines: ": "Cafe, Kashmiri, North Indian, Fast Food", "hours": "12noon\u201310pm(Mon-Sun)", "Cost for two": "\u20b9800", "votes": "215"}, {"Name": "Tav Prasad Food Junction", "Rating": "3.6", "location": " Shop 47 & 48, 2nd Floor, Omaxe World Street, Sector 79, Near Sector 81, Faridabad", "Cuisines: ": "North Indian, Chinese, Fast Food, Beverages", "hours": "12noon\u201311pm(Mon-Sun)", "Cost for two": "\u20b9500", "votes": "215"}]