[{"Name": "Shere Punjab Dhaba", "Rating": "3.8", "votes": "62", "location": " B-437, Shivaji College Road, Rajouri Garden, New Delhi", "Cuisines: ": "North Indian", "hours": "12noon\u20133:30pm,6:30pm\u201311:30pm(Mon-Sun)", "Cost for two": "\u20b9300"}, {"Name": "Om Sai Om Bhel Puri Sev Puri", "Rating": "3.3", "votes": "13", "location": " Harsha House, Near Milan Cinema Road, Karampura, New Delhi", "Cuisines: ": "Street Food", "hours": "1pm\u201310pm(Mon-Sun)", "Cost for two": "\u20b9150"}, {"Name": "Chidyaghar Bar - Roseate House", "Rating": "4.1", "votes": "211", "location": " Roseate House, Asset 10, Hospitality District, Aerocity, New Delhi", "Cuisines: ": "Finger Food, Modern Indian", "hours": "1pm\u20131am(Mon-Sun)", "Cost for two": "\u20b93,500"}, {"Name": "The Walk And Night", "Rating": "3.1", "votes": "9", "location": " 31A/34, Basement, S Block, DLF Phase 3, Gurgaon", "Cuisines: ": "Seafood, North Indian, Chinese", "hours": "12:01am\u20137am,7pm\u201312midnight(Mon-Sun)", "Cost for two": "\u20b9500"}, {"Name": "Burger Farm", "Rating": "4.0", "votes": "225", "location": " 2519, Hudson Lane, Kingsway Camp, Delhi University-GTB Nagar, New Delhi", "Cuisines: ": "Burger, Fast Food, Beverages", "hours": "9am\u20132am(Mon-Sun)", "Cost for two": "\u20b9300"}, {"Name": "Zaika Muradabadi Chicken Biryani", "Rating": "3.6", "votes": "65", "location": " Shop 1189, Gali 13, Govindpuri, Kalkaji, New Delhi", "Cuisines: ": "Biryani, Mughlai", "hours": "10am\u20133am(Mon-Sun)", "Cost for two": "\u20b9400"}, {"Name": "Pyaali", "Rating": "3.6", "votes": "142", "location": " D 6, Gali 1, Opposite Sai Mandir, Laxmi Nagar, New Delhi", "Cuisines: ": "North Indian, South Indian, Fast Food, Chinese", "hours": "24Hours(Mon-Sun)", "Cost for two": "\u20b9450"}, {"Name": "Jaiswal Mutton Handi", "Rating": "3.9", "votes": "195", "location": " G 21, Vardhman Star City Mall, Near Ramphal Chowk, Sector 7, Dwarka, New Delhi", "Cuisines: ": "North Indian", "hours": "12noon\u201312midnight(Mon,Wed,Thu,Fri,Sat...", "Cost for two": "\u20b9450"}, {"Name": "Namastey London", "Rating": "3.9", "votes": "80", "location": " Road 6, Near TNT, Mahipalpur, New Delhi", "Cuisines: ": "North Indian, Chinese, Fast Food", "hours": "8am\u201312midnight(Mon-Sun)", "Cost for two": "\u20b9500"}, {"Name": "Shahi Darbar", "Rating": "3.9", "votes": "77", "location": " A-416, 1st Floor, Road 4, Street 10, Mahipalpur, Vasant Vihar, New Delhi", "Cuisines: ": "Fast Food, North Indian, Chinese", "hours": "8am\u201312midnight(Mon-Sun)", "Cost for two": "\u20b9600"}, {"Name": "Khan's Kathi Rolls", "Rating": "3.9", "votes": "400", "location": " G-24-26, Savitri Market, Sector 18, Noida", "Cuisines: ": "North Indian, Rolls", "hours": "11am\u201311pm(Mon-Sun)", "Cost for two": "\u20b9300"}, {"Name": "Punjabi Tadka", "Rating": "2.5", "votes": "82", "location": " Shop 5, Sector 33, Near Sector 34, Noida", "Cuisines: ": "North Indian", "hours": "6pm\u20134am(Mon-Sun)", "Cost for two": "\u20b9400"}, {"Name": "Gondogol", "Rating": "3.5", "votes": "33", "location": " Eldeco Studio, Commercial Complex, Sector 93 A, Near Sector 93, Noida", "Cuisines: ": "North Indian, Bengali, Rolls", "hours": "1pm\u201310:30pm(Mon-Sun)", "Cost for two": "\u20b9400"}, {"Name": "Ambarsariya Da Dhaba", "Rating": "NEW", "votes": "33", "location": " A-3/86, Dal Mill Road, Holy Chowk, Uttam Nagar, New Delhi", "Cuisines: ": "North Indian", "hours": "11:30am\u20131am(Mon-Sun)", "Cost for two": "\u20b9300"}, {"Name": "Tasty Burger", "Rating": "3.2", "votes": "9", "location": " 2511, Block C, Sector 43, Gurgaon", "Cuisines: ": "Burger, Fast Food", "hours": "11am\u201311pm(Mon-Sun)", "Cost for two": "\u20b9300"}]