[{"Name": "Snack Hack", "Rating": "NEW", "location": " WZ- 1655, Multani Mohalla, Rani Bagh, Pitampura, New Delhi", "Cuisines: ": "Fast Food", "hours": "12noon\u20133:30am(Mon-Sun)", "Cost for two": "\u20b9200"}, {"Name": "Biryani By Khan's", "Rating": "4.0", "location": " Shop 1, 2nd Floor, SFK, Galaxy Plaza, Gaur City 1, Greater Noida", "Cuisines: ": "Biryani, North Indian", "hours": "12noon\u201311pm(Mon-Sun)", "Cost for two": "\u20b9500", "votes": "147"}, {"Name": "Number 5 - Curries and Grills", "Rating": "4.1", "location": " Greater Kailash 1, New Delhi", "Cuisines: ": "North Indian, Mughlai, Kebab, Rolls, Biryani", "hours": "12noon\u201312midnight(Mon-Sun)", "Cost for two": "\u20b9600", "votes": "115"}, {"Name": "Himalayan Restaurant", "Rating": "3.9", "location": " House 26, New Tibetan Camp, Majnu ka Tila, New Delhi", "Cuisines: ": "Tibetan, Chinese, Thai", "hours": "7am\u201311pm(Mon-Sun)", "Cost for two": "\u20b9800", "votes": "307"}, {"Name": "Junction", "Rating": "3.7", "location": " Shop SKF 1P, 2nd Floor, Galaxy Plaza, Gaur City 1, Greater Noida", "Cuisines: ": "North Indian, Chinese", "hours": "11am\u20132am(Mon-Sun)", "Cost for two": "\u20b9250", "votes": "549"}, {"Name": "The Spicy Spoon", "Rating": "3.5", "location": " D 55, Arya Samaj Road, Uttam Nagar, New Delhi", "Cuisines: ": "North Indian, Chinese, Momos, Mughlai", "hours": "11am\u201311:30pm(Mon-Sun)", "Cost for two": "\u20b9600", "votes": "20"}, {"Name": "Campus Dhaba", "Rating": "NEW", "location": " House 39A, 1st Floor, Double Storey, Block 3, Opposite Hanuman Mandir, Vijay Nagar, New Delhi", "Cuisines: ": "North Indian, Chinese, Rolls", "hours": "11am\u20134am(Mon-Sun)", "Cost for two": "\u20b9400", "votes": "20"}, {"Name": "Amaira", "Rating": "3.6", "location": " Corner Shop, Building Q 7, Model Town 1, New Delhi", "Cuisines: ": "Fast Food, Mithai, Bakery", "hours": "8am\u201311pm(Mon-Sun)", "Cost for two": "\u20b9200", "votes": "19"}, {"Name": "City Spicee Grand", "Rating": "3.7", "location": " 2D, 9/10, Tikona Park, NIT, Faridabad", "Cuisines: ": "North Indian, Chinese", "hours": "12noon\u201311:30pm(Mon-Sun)", "Cost for two": "\u20b9600", "votes": "877"}, {"Name": "Chawla's Tandoori Junction", "Rating": "4.0", "location": " R-1/77, 1st Floor, RDC, Raj Nagar, Ghaziabad", "Cuisines: ": "North Indian, Chinese", "hours": "11am\u201311:30pm(Mon-Sun)", "Cost for two": "\u20b9650", "votes": "203"}, {"Name": "Ruby Dhaba", "Rating": "3.0", "location": " G 576, Khureji Khas, Laxmi Nagar, New Delhi", "Cuisines: ": "Raw Meats, Mughlai", "hours": "2pm\u201312midnight(Mon-Sun)", "Cost for two": "\u20b9500", "votes": "69"}, {"Name": "ChowNow", "Rating": "NEW", "location": " SCO 63, Top Floor, Oyo PG, Noble Enclave, Opposite Maruti Factory, Sector 22, Gurgaon", "Cuisines: ": "Chinese, Momos", "hours": "11am\u201311am(Mon-Sun)", "Cost for two": "\u20b9400", "votes": "69"}, {"Name": "28 Capri Italy", "Rating": "3.9", "location": " 28-A, Defence Colony Market, Defence Colony, New Delhi", "Cuisines: ": "Italian, Pizza, Salad, Lebanese", "hours": "12noon\u20133am(Mon-Sun)", "Cost for two": "\u20b91,200", "votes": "459"}, {"Name": "Mahendra Chaap Corner", "Rating": "3.8", "location": " 187/A, New Colony, Dussehra Ground, Near Mother Dairy, Sector 7, Gurgaon", "Cuisines: ": "North Indian, Rolls", "hours": "5am\u201310:30pm(Mon-Sun)", "Cost for two": "\u20b9200", "votes": "256"}, {"Name": "The Tandoori Hut", "Rating": "3.7", "location": " Aditya City Centre, Near Yes Bank, Indirapuram, Ghaziabad", "Cuisines: ": "North Indian, Mughlai", "hours": "11:30am\u201311pm(Mon-Sun)", "Cost for two": "\u20b9500", "votes": "92"}]