[{"Name": "Tabouleh - The Mediterranean Eatery", "Rating": "3.5", "votes": "17", "location": " Red Napkin Food Court, DLF City Centre, MG Road, Gurgaon", "Cuisines: ": "Middle Eastern, Fast Food", "hours": "11am\u201310pm(Mon-Sun)", "Cost for two": "\u20b9500"}, {"Name": "Veg Mantra Take Away", "Rating": "3.8", "votes": "144", "location": " Shop 6/7, Plot 1, Bikaner Chowk, Shalimar Garden, Ghaziabad", "Cuisines: ": "Chinese, Fast Food, North Indian", "hours": "8:30am\u201310:30pm(Mon-Sun)", "Cost for two": "\u20b9500"}, {"Name": "The Pizza Point", "Rating": "3.8", "votes": "57", "location": " Shop 113/1, Ground Floor, Munirka, New Delhi", "Cuisines: ": "Pizza", "hours": "10:30am\u201310:30pm(Mon-Sun)", "Cost for two": "\u20b9300"}, {"Name": "Bamboo Hut", "Rating": "3.8", "votes": "208", "location": " 298, Humayunpur, B6 Market, Safdarjung Enclave, Opposite Deer Park, Safdarjung, New Delhi", "Cuisines: ": "Naga, Tibetan", "hours": "12noon\u201310pm(Mon-Sun)", "Cost for two": "\u20b9500"}, {"Name": "Tai Chi", "Rating": "4.3", "votes": "125", "location": " Shop 4, Lakkhoo Market, Sector 117, Near Sector 72, Noida", "Cuisines: ": "Chinese, Thai", "hours": "12noon\u20131am(Mon-Sun)", "Cost for two": "\u20b9350"}, {"Name": "Gallery Caf\u00e9 - Hyatt Place", "Rating": "4.1", "votes": "268", "location": " Hyatt Place, 15/1, Old Delhi - Gurgaon Road, Sector 18, Udyog Vihar, Gurgaon", "Cuisines: ": "Cafe, Asian, North Indian", "hours": "6:30am\u201311pm(Mon-Sun)", "Cost for two": "\u20b91,600"}, {"Name": "2 Bandits", "Rating": "3.9", "votes": "1663", "location": " 16, 1st & 2nd Floor, Opposite Sri Venkateshwara College, Satyaniketan, New Delhi", "Cuisines: ": "Cafe, Mexican, North Indian, Italian, Salad", "hours": "11am\u20131am(Mon-Sun)", "Cost for two": "\u20b91,100"}, {"Name": "Baozi Momos", "Rating": "3.7", "votes": "89", "location": " RZ 401, Pradhan Chowk, Palam, New Delhi", "Cuisines: ": "Chinese, Momos", "hours": "5pm\u201310:30pm(Mon-Sun)", "Cost for two": "\u20b9250"}, {"Name": "Murthal Delivers", "Rating": "3.6", "votes": "34", "location": " 9/111A, 1st Floor, Kishan Garh, Vasant Vihar, Vasant Kunj, New Delhi", "Cuisines: ": "North Indian, Street Food, Beverages", "hours": "8am\u20134pm,5pm\u201311pm(Mon,Tue,Thu,Fri,Sat...", "Cost for two": "\u20b9450"}, {"Name": "Dhaba Up 22", "Rating": "3.3", "votes": "11", "location": " Plot 90, Road U 15, DLF Phase 3, Gurgaon", "Cuisines: ": "North Indian, Chinese", "hours": "11am\u201311pm(Mon-Sun)", "Cost for two": "\u20b9500"}, {"Name": "Masala Handi", "Rating": "3.6", "votes": "77", "location": " SD 130, Jaipuriya Sunrise Plaza, Indirapuram, Ghaziabad", "Cuisines: ": "North Indian, Mughlai", "hours": "11am\u20134am(Mon-Sun)", "Cost for two": "\u20b9400"}, {"Name": "Thali King", "Rating": "3.6", "votes": "25", "location": " Shop 35, 2nd Floor, Jangpura Extension Market, Jangpura, New Delhi", "Cuisines: ": "North Indian", "hours": "12noon\u20132am(Mon-Sun)", "Cost for two": "\u20b9500"}, {"Name": "Tandoori Junction", "Rating": "3.2", "votes": "6", "location": " Shop 1, Bhajanpura Thana Road, Bhajanpura, Seepampur, Shahdara, New Delhi", "Cuisines: ": "North Indian, Chinese", "hours": "12noon\u201312midnight(Mon-Sun)", "Cost for two": "\u20b9250"}, {"Name": "Thali Vala", "Rating": "3.7", "votes": "234", "location": " Shop 35, 2nd Floor, Jangpura Extension Market, Jangpura, New Delhi", "Cuisines: ": "North Indian", "hours": "12noon\u20132am(Mon-Sun)", "Cost for two": "\u20b9600"}, {"Name": "New Khalsa Restaurant", "Rating": "3.6", "votes": "300", "location": " C-212, Near Hotel Maya Place, Mayapuri Phase 2, New Delhi", "Cuisines: ": "North Indian, Chinese", "hours": "12noon\u201311pm(Mon-Sun)", "Cost for two": "\u20b9650"}]