[{"Name": "Priyanshi South Indian Fast Food Joint", "Rating": "3.8", "votes": "209", "location": " H 43, Metro Pillar 36, Laxmi Nagar, New Delhi", "Cuisines: ": "South Indian, Chinese", "hours": "10am\u201311pm(Mon-Sun)", "Cost for two": "\u20b9300"}, {"Name": "Cookie Man", "Rating": "3.4", "votes": "37", "location": " L-1, Upper Atrium, Centre Stage Mall, Sector 18, Noida", "Cuisines: ": "Bakery", "hours": "10am\u201311pm(Mon-Sun)", "Cost for two": "\u20b9200"}, {"Name": "The Heart Locker", "Rating": "3.1", "votes": "37", "location": " B-191/5, Ground Floor, Gali 6, B Block, Parwatiya Anchal, Sant Nagar, Burari, Azadpur, New Delhi", "Cuisines: ": "North Indian", "hours": "10am\u20134am(Mon-Sun)", "Cost for two": "\u20b9200"}, {"Name": "The Chaap Hut", "Rating": "3.2", "votes": "12", "location": " Shop 28A, Amrapali Crystal Homes, Sector 76, Near Sector 72, Noida", "Cuisines: ": "North Indian, Mughlai", "hours": "10am\u201311pm(Mon-Sun)", "Cost for two": "\u20b9300"}, {"Name": "Chuppa Rustom Food Plaza", "Rating": "3.2", "votes": "11", "location": " Pradeep Market, Mangal Bazar Road, Swarn Park, Mundka, Nangloi, New Delhi", "Cuisines: ": "Chinese, Fast Food", "hours": "2pm\u201311pm(Mon-Sun)", "Cost for two": "\u20b9200"}, {"Name": "Bar & Lounge - Ramada", "Rating": "3.7", "votes": "69", "location": " Ramada Gurgaon Central, Site 2, Sector 44, Gurgaon", "Cuisines: ": "Finger Food", "hours": "11am\u201311pm(Mon-Sun)", "Cost for two": "\u20b92,500"}, {"Name": "Flluid - Mosaic Hotels", "Rating": "3.6", "votes": "166", "location": " Mosaic Hotels, C 1, Sector 18, Noida", "Cuisines: ": "Continental, North Indian, Mexican", "hours": "12noon\u201311:30pm(Mon-Sun)", "Cost for two": "\u20b92,200"}, {"Name": "Sharma Sweets", "Rating": "2.9", "votes": "118", "location": " X 95, West Patel Nagar, New Delhi", "Cuisines: ": "Mithai, Street Food, South Indian", "hours": "7am\u201310pm(Mon-Sun)", "Cost for two": "\u20b9250"}, {"Name": "Delicacy Foods", "Rating": "3.6", "votes": "176", "location": " Shop 1 & 2, CSC DDA Market, Pocket 4, Mayur Vihar Phase 1, New Delhi", "Cuisines: ": "North Indian, Chinese, Rolls, Mughlai", "hours": "12noon\u201311pm(Mon-Sun)", "Cost for two": "\u20b9800"}, {"Name": "Dinekart", "Rating": "4.1", "votes": "91", "location": " G 12, Lower Ground Floor, Sushant Shopping Arcade, Sushant Lok, Gurgaon", "Cuisines: ": "Chinese, Fast Food, North Indian", "hours": "12noon\u20133:30pm,7pm\u20132am(Mon-Sun)", "Cost for two": "\u20b9700"}, {"Name": "Shree Bikaner Mishthan Bhandar", "Rating": "3.7", "votes": "470", "location": " 1-A, Nehru Ground, Opposite MCF Auditorium, NIT, Faridabad", "Cuisines: ": "North Indian, South Indian, Chinese, Mithai, Fast Food", "hours": "7am\u201310:30pm(Mon-Sun)", "Cost for two": "\u20b9500"}, {"Name": "Xotic Dosa", "Rating": "3.7", "votes": "120", "location": " 16 A, D 1B, Janakpuri, New Delhi", "Cuisines: ": "South Indian, Chinese", "hours": "8am\u201310pm(Mon-Sun)", "Cost for two": "\u20b9500"}, {"Name": "Shree Garg Sweets", "Rating": "4.2", "votes": "336", "location": " F-24/1, Sector 7, Rohini, New Delhi", "Cuisines: ": "Mithai, Street Food, Chinese", "hours": "8am\u201310pm(Mon-Sun)", "Cost for two": "\u20b9300"}, {"Name": "Punjabi Rasoi", "Rating": "3.3", "votes": "34", "location": " Opposite Supertech Eco, Ithera Village-2, Gaur Saundaryam, Gol Chakkar, Crossing Republik, Ghaziabad", "Cuisines: ": "North Indian", "hours": "10:30am\u201311:30pm(Mon-Sun)", "Cost for two": "\u20b9400"}, {"Name": "Rolls Tiger", "Rating": "3.9", "votes": "52", "location": " D 271, 1st Floor, Dada Dev Colony, Opposite Media Society Gate 2, Sector 7, Dwarka, New Delhi", "Cuisines: ": "Rolls", "hours": "12noon\u20134am(Mon-Sun)", "Cost for two": "\u20b9400"}]